{
"type": "FeatureCollection",
"name": "BJ_Gasst",
"crs": { "type": "name", "properties": { "name": "urn:ogc:def:crs:OGC:1.3:CRS84" } },
"features": [
{ "type": "Feature", "properties": { "Name": "中国石化惠忠寺加油站", "Lon_Lat": "116.40847,39.996423", "Longitude": 116.40847, "Latitude": 39.996423, "Gdtype": "汽车服务;加油站;中国石化", "Prov": "北京市", "City": "北京市", "Address": "安慧北里321号", "Operator": "中国石化" }, "geometry": { "type": "Point", "coordinates": [ 116.40847, 39.996423 ] } },
{ "type": "Feature", "properties": { "Name": "天金石油加油站", "Lon_Lat": "116.434485,39.729484", "Longitude": 116.434485, "Latitude": 39.729484, "Gdtype": "汽车服务;加油站;加油站", "Prov": "北京市", "City": "北京市", "Address": "西红门金业大街10号附近", "Operator": "其他" }, "geometry": { "type": "Point", "coordinates": [ 116.434485, 39.729484 ] } },
{ "type": "Feature", "properties": { "Name": "中国石油中图千石玉加油站", "Lon_Lat": "116.100672,39.721322", "Longitude": 116.100672, "Latitude": 39.721322, "Gdtype": "汽车服务;加油站;加油站", "Prov": "北京市", "City": "北京市", "Address": "阎村镇京周路前沿村(澎湃汽车城旁边)", "Operator": "中国石油" }, "geometry": { "type": "Point", "coordinates": [ 116.100672, 39.721322 ] } },
{ "type": "Feature", "properties": { "Name": "中国石化田村山北加油站", "Lon_Lat": "116.238727,39.926499", "Longitude": 116.238727, "Latitude": 39.926499, "Gdtype": "汽车服务;加油站;中国石化", "Prov": "北京市", "City": "北京市", "Address": "田村沙石场路61号", "Operator": "中国石化" }, "geometry": { "type": "Point", "coordinates": [ 116.238727, 39.926499 ] } },
{ "type": "Feature", "properties": { "Name": "中化道达尔昌平加油站", "Lon_Lat": "116.305892,40.082859", "Longitude": 116.305892, "Latitude": 40.082859, "Gdtype": "汽车服务;加油站;中化道达尔", "Prov": "北京市", "City": "北京市", "Address": "回龙观镇二拨子村,八达岭高速进京方向辅路,北清路口南1.5公里", "Operator": "中化道达尔" }, "geometry": { "type": "Point", "coordinates": [ 116.305892, 40.082859 ] } },
{ "type": "Feature", "properties": { "Name": "中国石化燕府通加油站", "Lon_Lat": "115.987008,39.694317", "Longitude": 115.987008, "Latitude": 39.694317, "Gdtype": "汽车服务;加油站;中国石化", "Prov": "北京市", "City": "北京市", "Address": "兴房大街35号", "Operator": "中国石化" }, "geometry": { "type": "Point", "coordinates": [ 115.987008, 39.694317 ] } },
{ "type": "Feature", "properties": { "Name": "中国石化加油站(暂停营业)", "Lon_Lat": "116.326816,39.681333", "Longitude": 116.326816, "Latitude": 39.681333, "Gdtype": "汽车服务;加油站;中国石化", "Prov": "北京市", "City": "北京市", "Address": "林校路街道兆丰桥南300米路东", "Operator": "中国石化" }, "geometry": { "type": "Point", "coordinates": [ 116.326816, 39.681333 ] } },
{ "type": "Feature", "properties": { "Name": "中国石油首路东顺奔腾加油站", "Lon_Lat": "116.630761,40.163578", "Longitude": 116.630761, "Latitude": 40.163578, "Gdtype": "汽车服务;加油站;中国石油", "Prov": "北京市", "City": "北京市", "Address": "京密路西侧马坡段(意大利农场旁边)", "Operator": "中国石油" }, "geometry": { "type": "Point", "coordinates": [ 116.630761, 40.163578 ] } },
{ "type": "Feature", "properties": { "Name": "中国石油加油站", "Lon_Lat": "116.713906,40.170990", "Longitude": 116.713906, "Latitude": 40.17099, "Gdtype": "汽车服务;加油站;中国石油", "Prov": "北京市", "City": "北京市", "Address": "北小营镇白马路马辛庄段7号", "Operator": "中国石油" }, "geometry": { "type": "Point", "coordinates": [ 116.713906, 40.17099 ] } },
{ "type": "Feature", "properties": { "Name": "中国石化顺发加油站", "Lon_Lat": "115.804063,39.546588", "Longitude": 115.804063, "Latitude": 39.546588, "Gdtype": "汽车服务;加油站;中国石化", "Prov": "北京市", "City": "北京市", "Address": "大石窝辛庄村南", "Operator": "中国石化" }, "geometry": { "type": "Point", "coordinates": [ 115.804063, 39.546588 ] } },
{ "type": "Feature", "properties": { "Name": "中国石化新立南加油站", "Lon_Lat": "116.2748,39.690682", "Longitude": 116.2748, "Latitude": 39.690682, "Gdtype": "汽车服务;加油站;加油站", "Prov": "北京市", "City": "北京市", "Address": "新立村六环主路89公里处南", "Operator": "中国石化" }, "geometry": { "type": "Point", "coordinates": [ 116.2748, 39.690682 ] } },
{ "type": "Feature", "properties": { "Name": "西集停车区加油站(暂停营业)", "Lon_Lat": "116.893640,39.779847", "Longitude": 116.89364, "Latitude": 39.779847, "Gdtype": "汽车服务;加油站;加油站", "Prov": "北京市", "City": "北京市", "Address": null, "Operator": "其他" }, "geometry": { "type": "Point", "coordinates": [ 116.89364, 39.779847 ] } },
{ "type": "Feature", "properties": { "Name": "中国石化廊桥加油站", "Lon_Lat": "116.783209,39.59702", "Longitude": 116.783209, "Latitude": 39.59702, "Gdtype": "汽车服务;加油站;加油站", "Prov": "北京市", "City": "北京市", "Address": "永乐店镇小甸屯村", "Operator": "中国石化" }, "geometry": { "type": "Point", "coordinates": [ 116.783209, 39.59702 ] } },
{ "type": "Feature", "properties": { "Name": "中国石化裕翠加油站", "Lon_Lat": "116.282867,39.917996", "Longitude": 116.282867, "Latitude": 39.917996, "Gdtype": "汽车服务;加油站;中国石化", "Prov": "北京市", "City": "北京市", "Address": "西翠路15号", "Operator": "中国石化" }, "geometry": { "type": "Point", "coordinates": [ 116.282867, 39.917996 ] } },
{ "type": "Feature", "properties": { "Name": "中国石化加油站(东方快顺站)", "Lon_Lat": "116.973077,40.563672", "Longitude": 116.973077, "Latitude": 40.563672, "Gdtype": "汽车服务;加油站;中国石化", "Prov": "北京市", "City": "北京市", "Address": "燕落村", "Operator": "中国石化" }, "geometry": { "type": "Point", "coordinates": [ 116.973077, 40.563672 ] } },
{ "type": "Feature", "properties": { "Name": "中国石油通州加油站(暂停营业)", "Lon_Lat": "116.678452,39.985865", "Longitude": 116.678452, "Latitude": 39.985865, "Gdtype": "汽车服务;加油站;中国石油", "Prov": "北京市", "City": "北京市", "Address": "徐尹路361号", "Operator": "中国石油" }, "geometry": { "type": "Point", "coordinates": [ 116.678452, 39.985865 ] } },
{ "type": "Feature", "properties": { "Name": "中国石化北砖加油站", "Lon_Lat": "116.360384,40.061761", "Longitude": 116.360384, "Latitude": 40.061761, "Gdtype": "汽车服务;加油站;中国石化", "Prov": "北京市", "City": "北京市", "Address": "建材城西路2号", "Operator": "中国石化" }, "geometry": { "type": "Point", "coordinates": [ 116.360384, 40.061761 ] } },
{ "type": "Feature", "properties": { "Name": "润福通石化加油站", "Lon_Lat": "115.995286,39.681919", "Longitude": 115.995286, "Latitude": 39.681919, "Gdtype": "汽车服务;加油站;加油站", "Prov": "北京市", "City": "北京市", "Address": "企业街11号", "Operator": "其他" }, "geometry": { "type": "Point", "coordinates": [ 115.995286, 39.681919 ] } },
{ "type": "Feature", "properties": { "Name": "中国石油特许加盟首发西青加油站", "Lon_Lat": "116.455431,39.670185", "Longitude": 116.455431, "Latitude": 39.670185, "Gdtype": "汽车服务;加油站;中国石油", "Prov": "北京市", "City": "北京市", "Address": "魏善庄镇京台高速出京方向", "Operator": "中国石油" }, "geometry": { "type": "Point", "coordinates": [ 116.455431, 39.670185 ] } },
{ "type": "Feature", "properties": { "Name": "鹏亚加油站", "Lon_Lat": "116.172593,39.751470", "Longitude": 116.172593, "Latitude": 39.75147, "Gdtype": "汽车服务;加油站;中国石化", "Prov": "北京市", "City": "北京市", "Address": "长阳一村", "Operator": "中国石化" }, "geometry": { "type": "Point", "coordinates": [ 116.172593, 39.75147 ] } },
{ "type": "Feature", "properties": { "Name": "中国石化赤达加油站", "Lon_Lat": "116.320034,39.743897", "Longitude": 116.320034, "Latitude": 39.743897, "Gdtype": "汽车服务;加油站;中国石化", "Prov": "北京市", "City": "北京市", "Address": "黄村镇南程庄东口", "Operator": "中国石化" }, "geometry": { "type": "Point", "coordinates": [ 116.320034, 39.743897 ] } },
{ "type": "Feature", "properties": { "Name": "中国石化海达加油站", "Lon_Lat": "117.111834,40.154924", "Longitude": 117.111834, "Latitude": 40.154924, "Gdtype": "汽车服务;加油站;中国石化", "Prov": "北京市", "City": "北京市", "Address": "平谷镇古丰路17号", "Operator": "中国石化" }, "geometry": { "type": "Point", "coordinates": [ 117.111834, 40.154924 ] } },
{ "type": "Feature", "properties": { "Name": "中国石油月坛加油站", "Lon_Lat": "116.356096,39.916342", "Longitude": 116.356096, "Latitude": 39.916342, "Gdtype": "汽车服务;加油站;中国石油", "Prov": "北京市", "City": "北京市", "Address": "月坛南街甲1号", "Operator": "中国石油" }, "geometry": { "type": "Point", "coordinates": [ 116.356096, 39.916342 ] } },
{ "type": "Feature", "properties": { "Name": "中国石化宣武门加油站", "Lon_Lat": "116.378686,39.89974", "Longitude": 116.378686, "Latitude": 39.89974, "Gdtype": "汽车服务;加油站;中国石化", "Prov": "北京市", "City": "北京市", "Address": "宣武门东大街16号楼前(宣武门地铁站C东南口步行330米)", "Operator": "中国石化" }, "geometry": { "type": "Point", "coordinates": [ 116.378686, 39.89974 ] } },
{ "type": "Feature", "properties": { "Name": "中国石化加油站", "Lon_Lat": "116.018828,40.448186", "Longitude": 116.018828, "Latitude": 40.448186, "Gdtype": "汽车服务;加油站;中国石化", "Prov": "北京市", "City": "北京市", "Address": "姜家台村快速路东", "Operator": "中国石化" }, "geometry": { "type": "Point", "coordinates": [ 116.018828, 40.448186 ] } },
{ "type": "Feature", "properties": { "Name": "中国石化源泊湖加油站", "Lon_Lat": "115.725901,39.56829", "Longitude": 115.725901, "Latitude": 39.56829, "Gdtype": "汽车服务;加油站;中国石化", "Prov": "北京市", "City": "北京市", "Address": "西白岱村", "Operator": "中国石化" }, "geometry": { "type": "Point", "coordinates": [ 115.725901, 39.56829 ] } },
{ "type": "Feature", "properties": { "Name": "中国石化加油站(暂停营业)", "Lon_Lat": "115.807144,40.003068", "Longitude": 115.807144, "Latitude": 40.003068, "Gdtype": "汽车服务;加油站;中国石化", "Prov": "北京市", "City": "北京市", "Address": "法城口桥东南50米", "Operator": "中国石化" }, "geometry": { "type": "Point", "coordinates": [ 115.807144, 40.003068 ] } },
{ "type": "Feature", "properties": { "Name": "壳牌加油站", "Lon_Lat": "116.374179,39.993501", "Longitude": 116.374179, "Latitude": 39.993501, "Gdtype": "汽车服务;加油站;加油站", "Prov": "北京市", "City": "北京市", "Address": "志新路4号", "Operator": "壳牌" }, "geometry": { "type": "Point", "coordinates": [ 116.374179, 39.993501 ] } },
{ "type": "Feature", "properties": { "Name": "中国石化华泰小红门加油站", "Lon_Lat": "116.461453,39.834182", "Longitude": 116.461453, "Latitude": 39.834182, "Gdtype": "汽车服务;加油站;中国石化", "Prov": "北京市", "City": "北京市", "Address": "南四环东路53号", "Operator": "中国石化" }, "geometry": { "type": "Point", "coordinates": [ 116.461453, 39.834182 ] } },
{ "type": "Feature", "properties": { "Name": "中国石化三元五里店加油站(小屯西路)", "Lon_Lat": "116.247031,39.863891", "Longitude": 116.247031, "Latitude": 39.863891, "Gdtype": "汽车服务;加油站;中国石化", "Prov": "北京市", "City": "北京市", "Address": "小屯西路119号", "Operator": "中国石化" }, "geometry": { "type": "Point", "coordinates": [ 116.247031, 39.863891 ] } },
{ "type": "Feature", "properties": { "Name": "中国石油北汽多时捷加油站", "Lon_Lat": "116.45485,39.819246", "Longitude": 116.45485, "Latitude": 39.819246, "Gdtype": "汽车服务;加油站;加油站", "Prov": "北京市", "City": "北京市", "Address": "旧宫小红门路36号", "Operator": "中国石油" }, "geometry": { "type": "Point", "coordinates": [ 116.45485, 39.819246 ] } },
{ "type": "Feature", "properties": { "Name": "加油站(暂停营业)", "Lon_Lat": "115.936827,39.703223", "Longitude": 115.936827, "Latitude": 39.703223, "Gdtype": "汽车服务;加油站;加油站", "Prov": "北京市", "City": "北京市", "Address": "周口店镇山口村,周胜路东侧,龙海山庄西侧", "Operator": "其他" }, "geometry": { "type": "Point", "coordinates": [ 115.936827, 39.703223 ] } },
{ "type": "Feature", "properties": { "Name": "北京京西三兴加油站", "Lon_Lat": "116.274664,39.881574", "Longitude": 116.274664, "Latitude": 39.881574, "Gdtype": "汽车服务;加油站;加油站", "Prov": "北京市", "City": "北京市", "Address": "西四环外侧辅路红星美凯龙南侧50米", "Operator": "其他" }, "geometry": { "type": "Point", "coordinates": [ 116.274664, 39.881574 ] } },
{ "type": "Feature", "properties": { "Name": "中国石油加油站(暂停营业)", "Lon_Lat": "116.236498,39.833435", "Longitude": 116.236498, "Latitude": 39.833435, "Gdtype": "汽车服务;加油站;中国石油", "Prov": "北京市", "City": "北京市", "Address": "宛平街道S50(西五环路)", "Operator": "中国石油" }, "geometry": { "type": "Point", "coordinates": [ 116.236498, 39.833435 ] } },
{ "type": "Feature", "properties": { "Name": "中国石油金港加油站", "Lon_Lat": "116.117866,39.730285", "Longitude": 116.117866, "Latitude": 39.730285, "Gdtype": "汽车服务;加油站;中国石油", "Prov": "北京市", "City": "北京市", "Address": "良乡镇镇南东沿村路路口向西路北", "Operator": "中国石油" }, "geometry": { "type": "Point", "coordinates": [ 116.117866, 39.730285 ] } },
{ "type": "Feature", "properties": { "Name": "中国石化日兴旺加油站", "Lon_Lat": "117.048761,40.209997", "Longitude": 117.048761, "Latitude": 40.209997, "Gdtype": "汽车服务;加油站;中国石化", "Prov": "北京市", "City": "北京市", "Address": "王辛庄镇北辛庄村南", "Operator": "中国石化" }, "geometry": { "type": "Point", "coordinates": [ 117.048761, 40.209997 ] } },
{ "type": "Feature", "properties": { "Name": "中福石油加油站", "Lon_Lat": "116.08278,39.767936", "Longitude": 116.08278, "Latitude": 39.767936, "Gdtype": "汽车服务;加油站;加油站", "Prov": "北京市", "City": "北京市", "Address": "良坨路附近", "Operator": "其他" }, "geometry": { "type": "Point", "coordinates": [ 116.08278, 39.767936 ] } },
{ "type": "Feature", "properties": { "Name": "中国石化建雄加油站", "Lon_Lat": "116.102215,40.555019", "Longitude": 116.102215, "Latitude": 40.555019, "Gdtype": "汽车服务;加油站;中国石化", "Prov": "北京市", "City": "北京市", "Address": "旧县村", "Operator": "中国石化" }, "geometry": { "type": "Point", "coordinates": [ 116.102215, 40.555019 ] } },
{ "type": "Feature", "properties": { "Name": "中国石化盛磊喜利加油站", "Lon_Lat": "116.542545,39.920479", "Longitude": 116.542545, "Latitude": 39.920479, "Gdtype": "汽车服务;加油站;中国石化", "Prov": "北京市", "City": "北京市", "Address": "大黄庄平房路甲3号", "Operator": "中国石化" }, "geometry": { "type": "Point", "coordinates": [ 116.542545, 39.920479 ] } },
{ "type": "Feature", "properties": { "Name": "中化石油吉利朝阳加油站", "Lon_Lat": "116.456225,39.872096", "Longitude": 116.456225, "Latitude": 39.872096, "Gdtype": "汽车服务;加油站;加油站", "Prov": "北京市", "City": "北京市", "Address": "华威南路与华威路交叉口东北", "Operator": "其他" }, "geometry": { "type": "Point", "coordinates": [ 116.456225, 39.872096 ] } },
{ "type": "Feature", "properties": { "Name": "中国石化延融加油站", "Lon_Lat": "115.807312,40.452759", "Longitude": 115.807312, "Latitude": 40.452759, "Gdtype": "汽车服务;加油站;中国石化", "Prov": "北京市", "City": "北京市", "Address": "姚家营村", "Operator": "中国石化" }, "geometry": { "type": "Point", "coordinates": [ 115.807312, 40.452759 ] } },
{ "type": "Feature", "properties": { "Name": "壳牌加油站(漷县站)", "Lon_Lat": "116.8009,39.7746", "Longitude": 116.8009, "Latitude": 39.7746, "Gdtype": "汽车服务;加油站;壳牌", "Prov": "北京市", "City": "北京市", "Address": "京塘路与漷兴二街交叉口向南100米", "Operator": "壳牌" }, "geometry": { "type": "Point", "coordinates": [ 116.8009, 39.7746 ] } },
{ "type": "Feature", "properties": { "Name": "中国石化北安河加油站", "Lon_Lat": "116.136027,40.05331", "Longitude": 116.136027, "Latitude": 40.05331, "Gdtype": "汽车服务;加油站;中国石化", "Prov": "北京市", "City": "北京市", "Address": "周家巷村东", "Operator": "中国石化" }, "geometry": { "type": "Point", "coordinates": [ 116.136027, 40.05331 ] } },
{ "type": "Feature", "properties": { "Name": "中国石油奥东加油站", "Lon_Lat": "116.50611,40.024271", "Longitude": 116.50611, "Latitude": 40.024271, "Gdtype": "汽车服务;加油站;中国石油", "Prov": "北京市", "City": "北京市", "Address": "来广营东路17号", "Operator": "中国石油" }, "geometry": { "type": "Point", "coordinates": [ 116.50611, 40.024271 ] } },
{ "type": "Feature", "properties": { "Name": "中国石化加油站", "Lon_Lat": "116.617563,39.934926", "Longitude": 116.617563, "Latitude": 39.934926, "Gdtype": "汽车服务;加油站;中国石化", "Prov": "北京市", "City": "北京市", "Address": "常营乡东高路", "Operator": "中国石化" }, "geometry": { "type": "Point", "coordinates": [ 116.617563, 39.934926 ] } },
{ "type": "Feature", "properties": { "Name": "中国石化滨河加油站", "Lon_Lat": "117.095679,40.135566", "Longitude": 117.095679, "Latitude": 40.135566, "Gdtype": "汽车服务;加油站;中国石化", "Prov": "北京市", "City": "北京市", "Address": "滨河工业区西环南路9号", "Operator": "中国石化" }, "geometry": { "type": "Point", "coordinates": [ 117.095679, 40.135566 ] } },
{ "type": "Feature", "properties": { "Name": "中国石油新大加油站", "Lon_Lat": "116.218431,39.70311", "Longitude": 116.218431, "Latitude": 39.70311, "Gdtype": "汽车服务;加油站;加油站", "Prov": "北京市", "City": "北京市", "Address": "葫芦垡村", "Operator": "中国石油" }, "geometry": { "type": "Point", "coordinates": [ 116.218431, 39.70311 ] } },
{ "type": "Feature", "properties": { "Name": "中国石化加油站(暂停营业)", "Lon_Lat": "116.734434,39.928535", "Longitude": 116.734434, "Latitude": 39.928535, "Gdtype": "汽车服务;加油站;中国石化", "Prov": "北京市", "City": "北京市", "Address": "丁各庄村", "Operator": "中国石化" }, "geometry": { "type": "Point", "coordinates": [ 116.734434, 39.928535 ] } },
{ "type": "Feature", "properties": { "Name": "中国石油中博加油站", "Lon_Lat": "116.527426,39.94092", "Longitude": 116.527426, "Latitude": 39.94092, "Gdtype": "汽车服务;加油站;中国石油", "Prov": "北京市", "City": "北京市", "Address": "姚家园路76号", "Operator": "中国石油" }, "geometry": { "type": "Point", "coordinates": [ 116.527426, 39.94092 ] } },
{ "type": "Feature", "properties": { "Name": "中国石化加油站", "Lon_Lat": "116.32831,39.592309", "Longitude": 116.32831, "Latitude": 39.592309, "Gdtype": "汽车服务;加油站;中国石化", "Prov": "北京市", "City": "北京市", "Address": "东黑垡村", "Operator": "中国石化" }, "geometry": { "type": "Point", "coordinates": [ 116.32831, 39.592309 ] } },
{ "type": "Feature", "properties": { "Name": "中国石化加油站", "Lon_Lat": "116.542992,39.943397", "Longitude": 116.542992, "Latitude": 39.943397, "Gdtype": "汽车服务;加油站;中国石化", "Prov": "北京市", "City": "北京市", "Address": "姚家园北口", "Operator": "中国石化" }, "geometry": { "type": "Point", "coordinates": [ 116.542992, 39.943397 ] } },
{ "type": "Feature", "properties": { "Name": "中国石化北苑路加油站", "Lon_Lat": "116.416518,39.993987", "Longitude": 116.416518, "Latitude": 39.993987, "Gdtype": "汽车服务;加油站;中国石化", "Prov": "北京市", "City": "北京市", "Address": "大屯北苑路182号", "Operator": "中国石化" }, "geometry": { "type": "Point", "coordinates": [ 116.416518, 39.993987 ] } },
{ "type": "Feature", "properties": { "Name": "中国石化航天长峰加油站", "Lon_Lat": "116.267385,39.917829", "Longitude": 116.267385, "Latitude": 39.917829, "Gdtype": "汽车服务;加油站;中国石化", "Prov": "北京市", "City": "北京市", "Address": "金沟河路9号", "Operator": "中国石化" }, "geometry": { "type": "Point", "coordinates": [ 116.267385, 39.917829 ] } },
{ "type": "Feature", "properties": { "Name": "中国石化科创街加油站", "Lon_Lat": "116.559516,39.800940", "Longitude": 116.559516, "Latitude": 39.80094, "Gdtype": "汽车服务;加油站;中国石化", "Prov": "北京市", "City": "北京市", "Address": [ ], "Operator": "中国石化" }, "geometry": { "type": "Point", "coordinates": [ 116.559516, 39.80094 ] } },
{ "type": "Feature", "properties": { "Name": "中国石化加油站", "Lon_Lat": "116.451937,39.806803", "Longitude": 116.451937, "Latitude": 39.806803, "Gdtype": "汽车服务;加油站;中国石化", "Prov": "北京市", "City": "北京市", "Address": "旧宫东路59号", "Operator": "中国石化" }, "geometry": { "type": "Point", "coordinates": [ 116.451937, 39.806803 ] } },
{ "type": "Feature", "properties": { "Name": "道达尔加油站", "Lon_Lat": "116.521058,39.893401", "Longitude": 116.521058, "Latitude": 39.893401, "Gdtype": "汽车服务;加油站;道达尔", "Prov": "北京市", "City": "北京市", "Address": null, "Operator": "中化道达尔" }, "geometry": { "type": "Point", "coordinates": [ 116.521058, 39.893401 ] } },
{ "type": "Feature", "properties": { "Name": "中国石化凭祥加油站", "Lon_Lat": "116.281029,39.940766", "Longitude": 116.281029, "Latitude": 39.940766, "Gdtype": "汽车服务;加油站;中国石化", "Prov": "北京市", "City": "北京市", "Address": "彰化路与金庄路交叉口东南角", "Operator": "中国石化" }, "geometry": { "type": "Point", "coordinates": [ 116.281029, 39.940766 ] } },
{ "type": "Feature", "properties": { "Name": "北京珊瑚路加油站(暂停营业)", "Lon_Lat": "116.453155,39.822045", "Longitude": 116.453155, "Latitude": 39.822045, "Gdtype": "汽车服务;加油站;加油站", "Prov": "北京市", "City": "北京市", "Address": "小红门珊瑚路", "Operator": "其他" }, "geometry": { "type": "Point", "coordinates": [ 116.453155, 39.822045 ] } },
{ "type": "Feature", "properties": { "Name": "中国石油特许加盟长谷经贸加油站", "Lon_Lat": "117.019442,40.143041", "Longitude": 117.019442, "Latitude": 40.143041, "Gdtype": "汽车服务;加油站;加油站", "Prov": "北京市", "City": "北京市", "Address": "峰云街7号", "Operator": "中国石油" }, "geometry": { "type": "Point", "coordinates": [ 117.019442, 40.143041 ] } },
{ "type": "Feature", "properties": { "Name": "中国石化龙禹加油站", "Lon_Lat": "116.436868,39.556828", "Longitude": 116.436868, "Latitude": 39.556828, "Gdtype": "汽车服务;加油站;中国石化", "Prov": "北京市", "City": "北京市", "Address": "礼贤镇大礼路与磁大路交叉处向东礼贤镇政府东侧", "Operator": "中国石化" }, "geometry": { "type": "Point", "coordinates": [ 116.436868, 39.556828 ] } },
{ "type": "Feature", "properties": { "Name": "中国石化太平京张加油站", "Lon_Lat": "115.943599,40.519602", "Longitude": 115.943599, "Latitude": 40.519602, "Gdtype": "汽车服务;加油站;中国石化", "Prov": "北京市", "City": "北京市", "Address": "北京市延庆县张山营镇靳家堡村", "Operator": "中国石化" }, "geometry": { "type": "Point", "coordinates": [ 115.943599, 40.519602 ] } },
{ "type": "Feature", "properties": { "Name": "中国石化富友加油站", "Lon_Lat": "116.405777,39.961364", "Longitude": 116.405777, "Latitude": 39.961364, "Gdtype": "汽车服务;加油站;中国石化", "Prov": "北京市", "City": "北京市", "Address": "安外大街11号北门", "Operator": "中国石化" }, "geometry": { "type": "Point", "coordinates": [ 116.405777, 39.961364 ] } },
{ "type": "Feature", "properties": { "Name": "中国石化加油站", "Lon_Lat": "116.273831,40.186565", "Longitude": 116.273831, "Latitude": 40.186565, "Gdtype": "汽车服务;加油站;中国石化", "Prov": "北京市", "City": "北京市", "Address": "南邵镇南丰路", "Operator": "中国石化" }, "geometry": { "type": "Point", "coordinates": [ 116.273831, 40.186565 ] } },
{ "type": "Feature", "properties": { "Name": "中国石油京开高速加油站", "Lon_Lat": "116.322484,39.48928", "Longitude": 116.322484, "Latitude": 39.48928, "Gdtype": "汽车服务;加油站;加油站", "Prov": "北京市", "City": "北京市", "Address": "榆垡镇106国道", "Operator": "中国石油" }, "geometry": { "type": "Point", "coordinates": [ 116.322484, 39.48928 ] } },
{ "type": "Feature", "properties": { "Name": "壳牌加油站(京密路站)", "Lon_Lat": "116.650155,40.232348", "Longitude": 116.650155, "Latitude": 40.232348, "Gdtype": "汽车服务;加油站;壳牌", "Prov": "北京市", "City": "北京市", "Address": "牛栏山第一小学向北600米路东(富密路与京沈路岔道口)", "Operator": "壳牌" }, "geometry": { "type": "Point", "coordinates": [ 116.650155, 40.232348 ] } },
{ "type": "Feature", "properties": { "Name": "中国石化兴达加油站", "Lon_Lat": "116.329300,39.702707", "Longitude": 116.3293, "Latitude": 39.702707, "Gdtype": "汽车服务;加油站;中国石化", "Prov": "北京市", "City": "北京市", "Address": "黄良路口北侧", "Operator": "中国石化" }, "geometry": { "type": "Point", "coordinates": [ 116.3293, 39.702707 ] } },
{ "type": "Feature", "properties": { "Name": "中国石油慧普苗圃加油站", "Lon_Lat": "116.217412,39.968828", "Longitude": 116.217412, "Latitude": 39.968828, "Gdtype": "汽车服务;加油站;中国石油", "Prov": "北京市", "City": "北京市", "Address": "北辛庄路甲12号", "Operator": "中国石油" }, "geometry": { "type": "Point", "coordinates": [ 116.217412, 39.968828 ] } },
{ "type": "Feature", "properties": { "Name": "中国石化雁翅加油站", "Lon_Lat": "115.902126,40.036509", "Longitude": 115.902126, "Latitude": 40.036509, "Gdtype": "汽车服务;加油站;中国石化", "Prov": "北京市", "City": "北京市", "Address": "雁翅村", "Operator": "中国石化" }, "geometry": { "type": "Point", "coordinates": [ 115.902126, 40.036509 ] } },
{ "type": "Feature", "properties": { "Name": "中国石化红远洋加油站", "Lon_Lat": "116.343402,39.765541", "Longitude": 116.343402, "Latitude": 39.765541, "Gdtype": "汽车服务;加油站;中国石化", "Prov": "北京市", "City": "北京市", "Address": "前高米店村东", "Operator": "中国石化" }, "geometry": { "type": "Point", "coordinates": [ 116.343402, 39.765541 ] } },
{ "type": "Feature", "properties": { "Name": "中国石化燕交加油站", "Lon_Lat": "115.984683,39.626044", "Longitude": 115.984683, "Latitude": 39.626044, "Gdtype": "汽车服务;加油站;中国石化", "Prov": "北京市", "City": "北京市", "Address": "二站村村西房琉路路西10米", "Operator": "中国石化" }, "geometry": { "type": "Point", "coordinates": [ 115.984683, 39.626044 ] } },
{ "type": "Feature", "properties": { "Name": "中国石化加油站", "Lon_Lat": "116.345955,39.857045", "Longitude": 116.345955, "Latitude": 39.857045, "Gdtype": "汽车服务;加油站;中国石化", "Prov": "北京市", "City": "北京市", "Address": "梆子井甲1号", "Operator": "中国石化" }, "geometry": { "type": "Point", "coordinates": [ 116.345955, 39.857045 ] } },
{ "type": "Feature", "properties": { "Name": "道达尔加油站", "Lon_Lat": "116.454149,39.982298", "Longitude": 116.454149, "Latitude": 39.982298, "Gdtype": "汽车服务;加油站;道达尔", "Prov": "北京市", "City": "北京市", "Address": "北四环东路辅路望京桥西北角", "Operator": "中化道达尔" }, "geometry": { "type": "Point", "coordinates": [ 116.454149, 39.982298 ] } },
{ "type": "Feature", "properties": { "Name": "燕山盛祥加油站", "Lon_Lat": "117.113371,40.117268", "Longitude": 117.113371, "Latitude": 40.117268, "Gdtype": "汽车服务;加油站;加油站", "Prov": "北京市", "City": "北京市", "Address": "东高村镇南埝头西路76号西北方向100米", "Operator": "其他" }, "geometry": { "type": "Point", "coordinates": [ 117.113371, 40.117268 ] } },
{ "type": "Feature", "properties": { "Name": "中国石化京东海苑加油站", "Lon_Lat": "116.766423,39.883092", "Longitude": 116.766423, "Latitude": 39.883092, "Gdtype": "汽车服务;加油站;中国石化", "Prov": "北京市", "City": "北京市", "Address": "宋郎路东侧(潞城镇南刘各庄村)", "Operator": "中国石化" }, "geometry": { "type": "Point", "coordinates": [ 116.766423, 39.883092 ] } },
{ "type": "Feature", "properties": { "Name": "中国石油远升加油站", "Lon_Lat": "117.105055,40.13822", "Longitude": 117.105055, "Latitude": 40.13822, "Gdtype": "汽车服务;加油站;加油站", "Prov": "北京市", "City": "北京市", "Address": "林荫南街3号", "Operator": "中国石油" }, "geometry": { "type": "Point", "coordinates": [ 117.105055, 40.13822 ] } },
{ "type": "Feature", "properties": { "Name": "壳牌北城加油站", "Lon_Lat": "116.657419,39.929577", "Longitude": 116.657419, "Latitude": 39.929577, "Gdtype": "汽车服务;加油站;壳牌", "Prov": "北京市", "City": "北京市", "Address": null, "Operator": "壳牌" }, "geometry": { "type": "Point", "coordinates": [ 116.657419, 39.929577 ] } },
{ "type": "Feature", "properties": { "Name": "中国石化通航加油站", "Lon_Lat": "117.188131,40.16883", "Longitude": 117.188131, "Latitude": 40.16883, "Gdtype": "汽车服务;加油站;中国石化", "Prov": "北京市", "City": "北京市", "Address": "张辛庄村", "Operator": "中国石化" }, "geometry": { "type": "Point", "coordinates": [ 117.188131, 40.16883 ] } },
{ "type": "Feature", "properties": { "Name": "中国石化加油站", "Lon_Lat": "116.256919,40.146460", "Longitude": 116.256919, "Latitude": 40.14646, "Gdtype": "汽车服务;加油站;中国石化", "Prov": "北京市", "City": "北京市", "Address": "京藏高速新元科技园东侧", "Operator": "中国石化" }, "geometry": { "type": "Point", "coordinates": [ 116.256919, 40.14646 ] } },
{ "type": "Feature", "properties": { "Name": "中国石化窦店加油站", "Lon_Lat": "116.078607,39.653291", "Longitude": 116.078607, "Latitude": 39.653291, "Gdtype": "汽车服务;加油站;中国石化", "Prov": "北京市", "City": "北京市", "Address": "窦店镇窦店村", "Operator": "中国石化" }, "geometry": { "type": "Point", "coordinates": [ 116.078607, 39.653291 ] } },
{ "type": "Feature", "properties": { "Name": "中化道达尔加油站", "Lon_Lat": "116.360850,40.011834", "Longitude": 116.36085, "Latitude": 40.011834, "Gdtype": "汽车服务;加油站;中化道达尔", "Prov": "北京市", "City": "北京市", "Address": "双泉堡169号(八达岭高速辅路清河收费站西南侧)", "Operator": "中化道达尔" }, "geometry": { "type": "Point", "coordinates": [ 116.36085, 40.011834 ] } },
{ "type": "Feature", "properties": { "Name": "中化石油加油站", "Lon_Lat": "116.769191,40.238615", "Longitude": 116.769191, "Latitude": 40.238615, "Gdtype": "汽车服务;加油站;加油站", "Prov": "北京市", "City": "北京市", "Address": null, "Operator": "其他" }, "geometry": { "type": "Point", "coordinates": [ 116.769191, 40.238615 ] } },
{ "type": "Feature", "properties": { "Name": "中国石化三阳加油站", "Lon_Lat": "116.139943,40.14667", "Longitude": 116.139943, "Latitude": 40.14667, "Gdtype": "汽车服务;加油站;中国石化", "Prov": "北京市", "City": "北京市", "Address": "阳坊镇北侧", "Operator": "中国石化" }, "geometry": { "type": "Point", "coordinates": [ 116.139943, 40.14667 ] } },
{ "type": "Feature", "properties": { "Name": "中国石油顺实加油站", "Lon_Lat": "116.686864,40.038381", "Longitude": 116.686864, "Latitude": 40.038381, "Gdtype": "汽车服务;加油站;加油站", "Prov": "北京市", "City": "北京市", "Address": "育才东路9号", "Operator": "中国石油" }, "geometry": { "type": "Point", "coordinates": [ 116.686864, 40.038381 ] } },
{ "type": "Feature", "properties": { "Name": "中国石化华龙加油站", "Lon_Lat": "116.688002,39.924496", "Longitude": 116.688002, "Latitude": 39.924496, "Gdtype": "汽车服务;加油站;中国石化", "Prov": "北京市", "City": "北京市", "Address": "龙旺庄村南", "Operator": "中国石化" }, "geometry": { "type": "Point", "coordinates": [ 116.688002, 39.924496 ] } },
{ "type": "Feature", "properties": { "Name": "中化道达尔北京西红门加油站", "Lon_Lat": "116.326498,39.797535", "Longitude": 116.326498, "Latitude": 39.797535, "Gdtype": "汽车服务;加油站;中化道达尔", "Prov": "北京市", "City": "北京市", "Address": "西红门京良路21号", "Operator": "中化道达尔" }, "geometry": { "type": "Point", "coordinates": [ 116.326498, 39.797535 ] } },
{ "type": "Feature", "properties": { "Name": "中国石油加油站", "Lon_Lat": "116.518564,39.826433", "Longitude": 116.518564, "Latitude": 39.826433, "Gdtype": "汽车服务;加油站;中国石油", "Prov": "北京市", "City": "北京市", "Address": "亦庄五环路金色漫香林南水北调北门", "Operator": "中国石油" }, "geometry": { "type": "Point", "coordinates": [ 116.518564, 39.826433 ] } },
{ "type": "Feature", "properties": { "Name": "壳牌加油站(槐房路站)", "Lon_Lat": "116.377391,39.811664", "Longitude": 116.377391, "Latitude": 39.811664, "Gdtype": "汽车服务;加油站;壳牌", "Prov": "北京市", "City": "北京市", "Address": "南苑镇槐房路44号(南苑公园北)", "Operator": "壳牌" }, "geometry": { "type": "Point", "coordinates": [ 116.377391, 39.811664 ] } },
{ "type": "Feature", "properties": { "Name": "方润石油加油站(腾远站)", "Lon_Lat": "116.49759,39.960678", "Longitude": 116.49759, "Latitude": 39.960678, "Gdtype": "汽车服务;加油站;加油站", "Prov": "北京市", "City": "北京市", "Address": "酒仙桥路52号", "Operator": "其他" }, "geometry": { "type": "Point", "coordinates": [ 116.49759, 39.960678 ] } },
{ "type": "Feature", "properties": { "Name": "中国石化加油站", "Lon_Lat": "116.472247,39.836946", "Longitude": 116.472247, "Latitude": 39.836946, "Gdtype": "汽车服务;加油站;中国石化", "Prov": "北京市", "City": "北京市", "Address": "东四环南路甲1号(平房)", "Operator": "中国石化" }, "geometry": { "type": "Point", "coordinates": [ 116.472247, 39.836946 ] } },
{ "type": "Feature", "properties": { "Name": "中国石油北汽加油站", "Lon_Lat": "116.420914,40.002233", "Longitude": 116.420914, "Latitude": 40.002233, "Gdtype": "汽车服务;加油站;中国石油", "Prov": "北京市", "City": "北京市", "Address": "大屯路238号", "Operator": "中国石油" }, "geometry": { "type": "Point", "coordinates": [ 116.420914, 40.002233 ] } },
{ "type": "Feature", "properties": { "Name": "中国石化金星加油站", "Lon_Lat": "116.38036,39.771093", "Longitude": 116.38036, "Latitude": 39.771093, "Gdtype": "汽车服务;加油站;中国石化", "Prov": "北京市", "City": "北京市", "Address": "团河路", "Operator": "中国石化" }, "geometry": { "type": "Point", "coordinates": [ 116.38036, 39.771093 ] } },
{ "type": "Feature", "properties": { "Name": "中国石油利易泰加油站", "Lon_Lat": "116.757914,40.336146", "Longitude": 116.757914, "Latitude": 40.336146, "Gdtype": "汽车服务;加油站;加油站", "Prov": "北京市", "City": "北京市", "Address": "京密路与西统路交叉口东150米", "Operator": "中国石油" }, "geometry": { "type": "Point", "coordinates": [ 116.757914, 40.336146 ] } },
{ "type": "Feature", "properties": { "Name": "中国石油京胜京昌加油站", "Lon_Lat": "115.896584,40.358300", "Longitude": 115.896584, "Latitude": 40.3583, "Gdtype": "汽车服务;加油站;中国石油", "Prov": "北京市", "City": "北京市", "Address": "八达岭工业开发区八达岭高速公路市界收费站东200米", "Operator": "中国石油" }, "geometry": { "type": "Point", "coordinates": [ 115.896584, 40.3583 ] } },
{ "type": "Feature", "properties": { "Name": "中国石化东沙百胜加油站", "Lon_Lat": "116.29976,40.169053", "Longitude": 116.29976, "Latitude": 40.169053, "Gdtype": "汽车服务;加油站;中国石化", "Prov": "北京市", "City": "北京市", "Address": "东沙屯村", "Operator": "中国石化" }, "geometry": { "type": "Point", "coordinates": [ 116.29976, 40.169053 ] } },
{ "type": "Feature", "properties": { "Name": "中国石化成寿寺加油站", "Lon_Lat": "116.443679,39.858392", "Longitude": 116.443679, "Latitude": 39.858392, "Gdtype": "汽车服务;加油站;中国石化", "Prov": "北京市", "City": "北京市", "Address": "成寿寺方庄桥南东侧200(南三环东路方庄桥)家世界西面", "Operator": "中国石化" }, "geometry": { "type": "Point", "coordinates": [ 116.443679, 39.858392 ] } },
{ "type": "Feature", "properties": { "Name": "中国石油华荣加油站", "Lon_Lat": "116.380027,39.742713", "Longitude": 116.380027, "Latitude": 39.742713, "Gdtype": "汽车服务;加油站;加油站", "Prov": "北京市", "City": "北京市", "Address": "团河农场东500米兴亦路南侧(沐和街临2号院)", "Operator": "中国石油" }, "geometry": { "type": "Point", "coordinates": [ 116.380027, 39.742713 ] } },
{ "type": "Feature", "properties": { "Name": "中国石化双利加油站", "Lon_Lat": "116.77444,40.244782", "Longitude": 116.77444, "Latitude": 40.244782, "Gdtype": "汽车服务;加油站;中国石化", "Prov": "北京市", "City": "北京市", "Address": "木林镇西侧100米处", "Operator": "中国石化" }, "geometry": { "type": "Point", "coordinates": [ 116.77444, 40.244782 ] } },
{ "type": "Feature", "properties": { "Name": "中国石化房山京石路加油站一站加油站", "Lon_Lat": "116.081079,39.628899", "Longitude": 116.081079, "Latitude": 39.628899, "Gdtype": "汽车服务;加油站;中国石化", "Prov": "北京市", "City": "北京市", "Address": "窦店镇丁各庄村西", "Operator": "中国石化" }, "geometry": { "type": "Point", "coordinates": [ 116.081079, 39.628899 ] } },
{ "type": "Feature", "properties": { "Name": "中国石化甘棠加油站", "Lon_Lat": "116.807271,39.854648", "Longitude": 116.807271, "Latitude": 39.854648, "Gdtype": "汽车服务;加油站;加油站", "Prov": "北京市", "City": "北京市", "Address": "潞城镇侉子店村西", "Operator": "中国石化" }, "geometry": { "type": "Point", "coordinates": [ 116.807271, 39.854648 ] } },
{ "type": "Feature", "properties": { "Name": "中国石化海宏加油站", "Lon_Lat": "116.657276,39.936788", "Longitude": 116.657276, "Latitude": 39.936788, "Gdtype": "汽车服务;加油站;中国石化", "Prov": "北京市", "City": "北京市", "Address": "永顺镇范庄村西", "Operator": "中国石化" }, "geometry": { "type": "Point", "coordinates": [ 116.657276, 39.936788 ] } },
{ "type": "Feature", "properties": { "Name": "中国石化加油站(暂停营业)", "Lon_Lat": "116.586823,40.118768", "Longitude": 116.586823, "Latitude": 40.118768, "Gdtype": "汽车服务;加油站;中国石化", "Prov": "北京市", "City": "北京市", "Address": "顺平路后沙峪段1号枯柳树环岛向东路北机场北线对面", "Operator": "中国石化" }, "geometry": { "type": "Point", "coordinates": [ 116.586823, 40.118768 ] } },
{ "type": "Feature", "properties": { "Name": "中国石化国凯加油站", "Lon_Lat": "116.468496,39.812302", "Longitude": 116.468496, "Latitude": 39.812302, "Gdtype": "汽车服务;加油站;中国石化", "Prov": "北京市", "City": "北京市", "Address": "旧宫镇小红门路成寿寺路南口", "Operator": "中国石化" }, "geometry": { "type": "Point", "coordinates": [ 116.468496, 39.812302 ] } },
{ "type": "Feature", "properties": { "Name": "中国石化三元回龙观加油站", "Lon_Lat": "116.322479,40.076421", "Longitude": 116.322479, "Latitude": 40.076421, "Gdtype": "汽车服务;加油站;中国石化", "Prov": "北京市", "City": "北京市", "Address": "回龙观西大街101号", "Operator": "中国石化" }, "geometry": { "type": "Point", "coordinates": [ 116.322479, 40.076421 ] } },
{ "type": "Feature", "properties": { "Name": "中国石油慧普山根加油站", "Lon_Lat": "116.208007,39.974129", "Longitude": 116.208007, "Latitude": 39.974129, "Gdtype": "汽车服务;加油站;中国石油", "Prov": "北京市", "City": "北京市", "Address": "香山南路28号平房(香山南路与闵庄路交叉口北)", "Operator": "中国石油" }, "geometry": { "type": "Point", "coordinates": [ 116.208007, 39.974129 ] } },
{ "type": "Feature", "properties": { "Name": "中国航油加油站(一纬路)", "Lon_Lat": "116.621162,40.049623", "Longitude": 116.621162, "Latitude": 40.049623, "Gdtype": "汽车服务;加油站;加油站", "Prov": "北京市", "City": "北京市", "Address": "四经路附近", "Operator": "其他" }, "geometry": { "type": "Point", "coordinates": [ 116.621162, 40.049623 ] } },
{ "type": "Feature", "properties": { "Name": "众诚连锁加油站(暂停营业)", "Lon_Lat": "116.310554,39.869775", "Longitude": 116.310554, "Latitude": 39.869775, "Gdtype": "汽车服务;加油站;加油站", "Prov": "北京市", "City": "北京市", "Address": "西局南街", "Operator": "其他" }, "geometry": { "type": "Point", "coordinates": [ 116.310554, 39.869775 ] } },
{ "type": "Feature", "properties": { "Name": "中国石化滨河路加油站", "Lon_Lat": "116.112866,39.93101", "Longitude": 116.112866, "Latitude": 39.93101, "Gdtype": "汽车服务;加油站;中国石化", "Prov": "北京市", "City": "北京市", "Address": "门头沟滨河路 (交通支队对面)", "Operator": "中国石化" }, "geometry": { "type": "Point", "coordinates": [ 116.112866, 39.93101 ] } },
{ "type": "Feature", "properties": { "Name": "中国石化友盛利达加油站", "Lon_Lat": "116.137578,39.60618", "Longitude": 116.137578, "Latitude": 39.60618, "Gdtype": "汽车服务;加油站;中国石化", "Prov": "北京市", "City": "北京市", "Address": "石村村北", "Operator": "中国石化" }, "geometry": { "type": "Point", "coordinates": [ 116.137578, 39.60618 ] } },
{ "type": "Feature", "properties": { "Name": "中国石化加油站(暂停营业)", "Lon_Lat": "115.959209,39.737195", "Longitude": 115.959209, "Latitude": 39.737195, "Gdtype": "汽车服务;加油站;中国石化", "Prov": "北京市", "City": "北京市", "Address": "向阳路30号", "Operator": "中国石化" }, "geometry": { "type": "Point", "coordinates": [ 115.959209, 39.737195 ] } },
{ "type": "Feature", "properties": { "Name": "加油站", "Lon_Lat": "116.264581,40.032902", "Longitude": 116.264581, "Latitude": 40.032902, "Gdtype": "汽车服务;加油站;加油站", "Prov": "北京市", "City": "北京市", "Address": "黑山扈路19号", "Operator": "其他" }, "geometry": { "type": "Point", "coordinates": [ 116.264581, 40.032902 ] } },
{ "type": "Feature", "properties": { "Name": "中国石化南环加油站", "Lon_Lat": "116.636953,40.309084", "Longitude": 116.636953, "Latitude": 40.309084, "Gdtype": "汽车服务;加油站;中国石化", "Prov": "北京市", "City": "北京市", "Address": "南环路东段", "Operator": "中国石化" }, "geometry": { "type": "Point", "coordinates": [ 116.636953, 40.309084 ] } },
{ "type": "Feature", "properties": { "Name": "中国石油富华兆元加油站", "Lon_Lat": "116.566837,39.806895", "Longitude": 116.566837, "Latitude": 39.806895, "Gdtype": "汽车服务;加油站;中国石油", "Prov": "北京市", "City": "北京市", "Address": "台湖镇嘉创五路13号", "Operator": "中国石油" }, "geometry": { "type": "Point", "coordinates": [ 116.566837, 39.806895 ] } },
{ "type": "Feature", "properties": { "Name": "中国石化航桥加油站", "Lon_Lat": "116.585917,40.28839", "Longitude": 116.585917, "Latitude": 40.28839, "Gdtype": "汽车服务;加油站;中国石化", "Prov": "北京市", "City": "北京市", "Address": "前桥梓村东", "Operator": "中国石化" }, "geometry": { "type": "Point", "coordinates": [ 116.585917, 40.28839 ] } },
{ "type": "Feature", "properties": { "Name": "中国石化加油站", "Lon_Lat": "116.46259,39.792291", "Longitude": 116.46259, "Latitude": 39.792291, "Gdtype": "汽车服务;加油站;中国石化", "Prov": "北京市", "City": "北京市", "Address": "南五环服务区南侧", "Operator": "中国石化" }, "geometry": { "type": "Point", "coordinates": [ 116.46259, 39.792291 ] } },
{ "type": "Feature", "properties": { "Name": "中国石化三间房加油站", "Lon_Lat": "116.572485,39.914912", "Longitude": 116.572485, "Latitude": 39.914912, "Gdtype": "汽车服务;加油站;中国石化", "Prov": "北京市", "City": "北京市", "Address": "朝阳辅路(生物研究所北墙外)", "Operator": "中国石化" }, "geometry": { "type": "Point", "coordinates": [ 116.572485, 39.914912 ] } },
{ "type": "Feature", "properties": { "Name": "中国石化京宇加油站", "Lon_Lat": "117.07092,40.144489", "Longitude": 117.07092, "Latitude": 40.144489, "Gdtype": "汽车服务;加油站;中国石化", "Prov": "北京市", "City": "北京市", "Address": "鲁各庄村南", "Operator": "中国石化" }, "geometry": { "type": "Point", "coordinates": [ 117.07092, 40.144489 ] } },
{ "type": "Feature", "properties": { "Name": "中国石油龙江奔达加油站", "Lon_Lat": "116.325434,39.85086", "Longitude": 116.325434, "Latitude": 39.85086, "Gdtype": "汽车服务;加油站;中国石油", "Prov": "北京市", "City": "北京市", "Address": "纪家庙村东100米", "Operator": "中国石油" }, "geometry": { "type": "Point", "coordinates": [ 116.325434, 39.85086 ] } },
{ "type": "Feature", "properties": { "Name": "中国石化华建加油站", "Lon_Lat": "116.281915,39.752591", "Longitude": 116.281915, "Latitude": 39.752591, "Gdtype": "汽车服务;加油站;中国石化", "Prov": "北京市", "City": "北京市", "Address": "黄村镇黄鹅路11号", "Operator": "中国石化" }, "geometry": { "type": "Point", "coordinates": [ 116.281915, 39.752591 ] } },
{ "type": "Feature", "properties": { "Name": "中国石化于家坟加油站(暂停营业)", "Lon_Lat": "116.433802,39.852533", "Longitude": 116.433802, "Latitude": 39.852533, "Gdtype": "汽车服务;加油站;中国石化", "Prov": "北京市", "City": "北京市", "Address": "铁匠营横1条22号(塑料泡沫有限公司对面)", "Operator": "中国石化" }, "geometry": { "type": "Point", "coordinates": [ 116.433802, 39.852533 ] } },
{ "type": "Feature", "properties": { "Name": "中国石化三元朝阳加油站(皮村路)", "Lon_Lat": "116.623136,39.987626", "Longitude": 116.623136, "Latitude": 39.987626, "Gdtype": "汽车服务;加油站;中国石化", "Prov": "北京市", "City": "北京市", "Address": "金盏乡皮村环岛西石化加油站", "Operator": "中国石化" }, "geometry": { "type": "Point", "coordinates": [ 116.623136, 39.987626 ] } },
{ "type": "Feature", "properties": { "Name": "中福石油加油站(长虹西路)", "Lon_Lat": "116.116011,39.723914", "Longitude": 116.116011, "Latitude": 39.723914, "Gdtype": "汽车服务;加油站;加油站", "Prov": "北京市", "City": "北京市", "Address": "长虹西路31附近", "Operator": "其他" }, "geometry": { "type": "Point", "coordinates": [ 116.116011, 39.723914 ] } },
{ "type": "Feature", "properties": { "Name": "中国石化加油站", "Lon_Lat": "117.005809,40.140081", "Longitude": 117.005809, "Latitude": 40.140081, "Gdtype": "汽车服务;加油站;中国石化", "Prov": "北京市", "City": "北京市", "Address": "云峰寺村", "Operator": "中国石化" }, "geometry": { "type": "Point", "coordinates": [ 117.005809, 40.140081 ] } },
{ "type": "Feature", "properties": { "Name": "中化石油加油站", "Lon_Lat": "116.644849,40.219739", "Longitude": 116.644849, "Latitude": 40.219739, "Gdtype": "汽车服务;加油站;加油站", "Prov": "北京市", "City": "北京市", "Address": "牛栏山镇京密路牛山段4号", "Operator": "其他" }, "geometry": { "type": "Point", "coordinates": [ 116.644849, 40.219739 ] } },
{ "type": "Feature", "properties": { "Name": "中国石化超强力加油站", "Lon_Lat": "116.248,39.862532", "Longitude": 116.248, "Latitude": 39.862532, "Gdtype": "汽车服务;加油站;中国石化", "Prov": "北京市", "City": "北京市", "Address": "五里店小屯路南口300米", "Operator": "中国石化" }, "geometry": { "type": "Point", "coordinates": [ 116.248, 39.862532 ] } },
{ "type": "Feature", "properties": { "Name": "中国石化加油站", "Lon_Lat": "116.2437,39.854135", "Longitude": 116.2437, "Latitude": 39.854135, "Gdtype": "汽车服务;加油站;中国石化", "Prov": "北京市", "City": "北京市", "Address": "西五里店178号", "Operator": "中国石化" }, "geometry": { "type": "Point", "coordinates": [ 116.2437, 39.854135 ] } },
{ "type": "Feature", "properties": { "Name": "壳牌加油站(小红门站)", "Lon_Lat": "116.454368,39.817773", "Longitude": 116.454368, "Latitude": 39.817773, "Gdtype": "汽车服务;加油站;壳牌", "Prov": "北京市", "City": "北京市", "Address": "小红门路11号", "Operator": "壳牌" }, "geometry": { "type": "Point", "coordinates": [ 116.454368, 39.817773 ] } },
{ "type": "Feature", "properties": { "Name": "中国石化日坛加油站", "Lon_Lat": "116.440572,39.911988", "Longitude": 116.440572, "Latitude": 39.911988, "Gdtype": "汽车服务;加油站;中国石化", "Prov": "北京市", "City": "北京市", "Address": "建外大街日坛路9号", "Operator": "中国石化" }, "geometry": { "type": "Point", "coordinates": [ 116.440572, 39.911988 ] } },
{ "type": "Feature", "properties": { "Name": "中国石化白庙加油站", "Lon_Lat": "116.766436,39.943338", "Longitude": 116.766436, "Latitude": 39.943338, "Gdtype": "汽车服务;加油站;中国石化", "Prov": "北京市", "City": "北京市", "Address": "宋庄镇白庙村委会西1000米", "Operator": "中国石化" }, "geometry": { "type": "Point", "coordinates": [ 116.766436, 39.943338 ] } },
{ "type": "Feature", "properties": { "Name": "加油站(暂停营业)", "Lon_Lat": "116.995963,40.565763", "Longitude": 116.995963, "Latitude": 40.565763, "Gdtype": "汽车服务;加油站;加油站", "Prov": "北京市", "City": "北京市", "Address": "琉辛路与后半路交叉口西北约60米", "Operator": "其他" }, "geometry": { "type": "Point", "coordinates": [ 116.995963, 40.565763 ] } },
{ "type": "Feature", "properties": { "Name": "中国石化刘店加油站", "Lon_Lat": "117.021454,40.237324", "Longitude": 117.021454, "Latitude": 40.237324, "Gdtype": "汽车服务;加油站;中国石化", "Prov": "北京市", "City": "北京市", "Address": "刘店村", "Operator": "中国石化" }, "geometry": { "type": "Point", "coordinates": [ 117.021454, 40.237324 ] } },
{ "type": "Feature", "properties": { "Name": "中国石化丰华加油站", "Lon_Lat": "116.387787,39.842762", "Longitude": 116.387787, "Latitude": 39.842762, "Gdtype": "汽车服务;加油站;中国石化", "Prov": "北京市", "City": "北京市", "Address": "大红门西路13号(角门东地铁站C东南口步行340米)", "Operator": "中国石化" }, "geometry": { "type": "Point", "coordinates": [ 116.387787, 39.842762 ] } },
{ "type": "Feature", "properties": { "Name": "中国石化山城加油站", "Lon_Lat": "116.013462,39.791214", "Longitude": 116.013462, "Latitude": 39.791214, "Gdtype": "汽车服务;加油站;中国石化", "Prov": "北京市", "City": "北京市", "Address": "漫水河村", "Operator": "中国石化" }, "geometry": { "type": "Point", "coordinates": [ 116.013462, 39.791214 ] } },
{ "type": "Feature", "properties": { "Name": "中国石化石楼加油站", "Lon_Lat": "115.979225,39.646372", "Longitude": 115.979225, "Latitude": 39.646372, "Gdtype": "汽车服务;加油站;中国石化", "Prov": "北京市", "City": "北京市", "Address": "石楼村", "Operator": "中国石化" }, "geometry": { "type": "Point", "coordinates": [ 115.979225, 39.646372 ] } },
{ "type": "Feature", "properties": { "Name": "中国石油安燕加油站", "Lon_Lat": "116.411402,39.94957", "Longitude": 116.411402, "Latitude": 39.94957, "Gdtype": "汽车服务;加油站;中国石油", "Prov": "北京市", "City": "北京市", "Address": "安定门桥东北角(安定门地铁站B东北口步行280米)", "Operator": "中国石油" }, "geometry": { "type": "Point", "coordinates": [ 116.411402, 39.94957 ] } },
{ "type": "Feature", "properties": { "Name": "中国石油同顺来加油站", "Lon_Lat": "116.515143,40.165257", "Longitude": 116.515143, "Latitude": 40.165257, "Gdtype": "汽车服务;加油站;中国石油", "Prov": "北京市", "City": "北京市", "Address": "高丽营镇顺沙路与白良路交叉口", "Operator": "中国石油" }, "geometry": { "type": "Point", "coordinates": [ 116.515143, 40.165257 ] } },
{ "type": "Feature", "properties": { "Name": "中国石化昌盛宏海加油站", "Lon_Lat": "116.106488,39.687127", "Longitude": 116.106488, "Latitude": 39.687127, "Gdtype": "汽车服务;加油站;中国石化", "Prov": "北京市", "City": "北京市", "Address": "阎村镇大十三里村西", "Operator": "中国石化" }, "geometry": { "type": "Point", "coordinates": [ 116.106488, 39.687127 ] } },
{ "type": "Feature", "properties": { "Name": "旺平东加油站", "Lon_Lat": "116.5465,39.949974", "Longitude": 116.5465, "Latitude": 39.949974, "Gdtype": "汽车服务;加油站;加油站", "Prov": "北京市", "City": "北京市", "Address": "东坝中路114号", "Operator": "其他" }, "geometry": { "type": "Point", "coordinates": [ 116.5465, 39.949974 ] } },
{ "type": "Feature", "properties": { "Name": "中国石化西关兴昌加油站", "Lon_Lat": "116.22412,40.206274", "Longitude": 116.22412, "Latitude": 40.206274, "Gdtype": "汽车服务;加油站;中国石化", "Prov": "北京市", "City": "北京市", "Address": "西关环岛南水屯村北", "Operator": "中国石化" }, "geometry": { "type": "Point", "coordinates": [ 116.22412, 40.206274 ] } },
{ "type": "Feature", "properties": { "Name": "天金石油加油站", "Lon_Lat": "116.435598,39.729688", "Longitude": 116.435598, "Latitude": 39.729688, "Gdtype": "汽车服务;加油站;加油站", "Prov": "北京市", "City": "北京市", "Address": [ ], "Operator": "其他" }, "geometry": { "type": "Point", "coordinates": [ 116.435598, 39.729688 ] } },
{ "type": "Feature", "properties": { "Name": "壳牌房易路加油站", "Lon_Lat": "115.918435,39.625563", "Longitude": 115.918435, "Latitude": 39.625563, "Gdtype": "汽车服务;加油站;壳牌", "Prov": "北京市", "City": "北京市", "Address": "房易路西桥向南200米路西", "Operator": "壳牌" }, "geometry": { "type": "Point", "coordinates": [ 115.918435, 39.625563 ] } },
{ "type": "Feature", "properties": { "Name": "中国石化中外运加油站", "Lon_Lat": "116.253908,39.858742", "Longitude": 116.253908, "Latitude": 39.858742, "Gdtype": "汽车服务;加油站;中国石化", "Prov": "北京市", "City": "北京市", "Address": "五里店260号,紧邻京实丰田4S店", "Operator": "中国石化" }, "geometry": { "type": "Point", "coordinates": [ 116.253908, 39.858742 ] } },
{ "type": "Feature", "properties": { "Name": "中国石油魏善庄加油站", "Lon_Lat": "116.385941,39.616411", "Longitude": 116.385941, "Latitude": 39.616411, "Gdtype": "汽车服务;加油站;中国石油", "Prov": "北京市", "City": "北京市", "Address": "东大路与庞安路交叉口东北100米", "Operator": "中国石油" }, "geometry": { "type": "Point", "coordinates": [ 116.385941, 39.616411 ] } },
{ "type": "Feature", "properties": { "Name": "佰强石化(兴海加油站)", "Lon_Lat": "116.348470,39.722381", "Longitude": 116.34847, "Latitude": 39.722381, "Gdtype": "汽车服务;加油站;加油站", "Prov": "北京市", "City": "北京市", "Address": "海北路与海子角北街交汇处东100米路北", "Operator": "其他" }, "geometry": { "type": "Point", "coordinates": [ 116.34847, 39.722381 ] } },
{ "type": "Feature", "properties": { "Name": "小海豚加油站", "Lon_Lat": "116.657170,39.949583", "Longitude": 116.65717, "Latitude": 39.949583, "Gdtype": "汽车服务;加油站;加油站", "Prov": "北京市", "City": "北京市", "Address": "永顺地区北马庄村(通顺路路东,翠福园小区路东向)", "Operator": "其他" }, "geometry": { "type": "Point", "coordinates": [ 116.65717, 39.949583 ] } },
{ "type": "Feature", "properties": { "Name": "中国石油特许加盟丰台亚源加油站", "Lon_Lat": "116.357928,39.854106", "Longitude": 116.357928, "Latitude": 39.854106, "Gdtype": "汽车服务;加油站;中国石油", "Prov": "北京市", "City": "北京市", "Address": "右安门外中顶村680号", "Operator": "中国石油" }, "geometry": { "type": "Point", "coordinates": [ 116.357928, 39.854106 ] } },
{ "type": "Feature", "properties": { "Name": "中国石油京胜望京南加油站", "Lon_Lat": "116.482516,40.013722", "Longitude": 116.482516, "Latitude": 40.013722, "Gdtype": "汽车服务;加油站;中国石油", "Prov": "北京市", "City": "北京市", "Address": "来广营乡(广泽桥东200米)", "Operator": "中国石油" }, "geometry": { "type": "Point", "coordinates": [ 116.482516, 40.013722 ] } },
{ "type": "Feature", "properties": { "Name": "燕山盛祥石油飞速达加油站", "Lon_Lat": "117.207485,40.168995", "Longitude": 117.207485, "Latitude": 40.168995, "Gdtype": "汽车服务;加油站;加油站", "Prov": "北京市", "City": "北京市", "Address": "乐河镇平蓟路南独乐河集贸市场旁边", "Operator": "其他" }, "geometry": { "type": "Point", "coordinates": [ 117.207485, 40.168995 ] } },
{ "type": "Feature", "properties": { "Name": "中国石化甘营加油站", "Lon_Lat": "117.224518,40.149662", "Longitude": 117.224518, "Latitude": 40.149662, "Gdtype": "汽车服务;加油站;中国石化", "Prov": "北京市", "City": "北京市", "Address": "南独乐河镇甘营村政府东50米路北", "Operator": "中国石化" }, "geometry": { "type": "Point", "coordinates": [ 117.224518, 40.149662 ] } },
{ "type": "Feature", "properties": { "Name": "中化石油加油站", "Lon_Lat": "116.76093,39.847519", "Longitude": 116.76093, "Latitude": 39.847519, "Gdtype": "汽车服务;加油站;加油站", "Prov": "北京市", "City": "北京市", "Address": "103国道", "Operator": "其他" }, "geometry": { "type": "Point", "coordinates": [ 116.76093, 39.847519 ] } },
{ "type": "Feature", "properties": { "Name": "中国石油韩村河加油站", "Lon_Lat": "115.958186,39.603649", "Longitude": 115.958186, "Latitude": 39.603649, "Gdtype": "汽车服务;加油站;中国石油", "Prov": "北京市", "City": "北京市", "Address": "岳琉路40号", "Operator": "中国石油" }, "geometry": { "type": "Point", "coordinates": [ 115.958186, 39.603649 ] } },
{ "type": "Feature", "properties": { "Name": "中图能源加油站(白龙马站)", "Lon_Lat": "116.62086,39.62224", "Longitude": 116.62086, "Latitude": 39.62224, "Gdtype": "汽车服务;加油站;加油站", "Prov": "北京市", "City": "北京市", "Address": "首都环线高速北京白龙马石油加油站", "Operator": "其他" }, "geometry": { "type": "Point", "coordinates": [ 116.62086, 39.62224 ] } },
{ "type": "Feature", "properties": { "Name": "中国石化精丽荣加油站", "Lon_Lat": "115.954037,40.426324", "Longitude": 115.954037, "Latitude": 40.426324, "Gdtype": "汽车服务;加油站;中国石化", "Prov": "北京市", "City": "北京市", "Address": "下屯村西(下屯桥东,延康路路东)", "Operator": "中国石化" }, "geometry": { "type": "Point", "coordinates": [ 115.954037, 40.426324 ] } },
{ "type": "Feature", "properties": { "Name": "中国石化三元亦庄加油站", "Lon_Lat": "116.449848,39.817547", "Longitude": 116.449848, "Latitude": 39.817547, "Gdtype": "汽车服务;加油站;中国石化", "Prov": "北京市", "City": "北京市", "Address": "旧宫镇吉百利路临11号", "Operator": "中国石化" }, "geometry": { "type": "Point", "coordinates": [ 116.449848, 39.817547 ] } },
{ "type": "Feature", "properties": { "Name": "中国石化燕通加油站", "Lon_Lat": "116.771673,39.715312", "Longitude": 116.771673, "Latitude": 39.715312, "Gdtype": "汽车服务;加油站;中国石化", "Prov": "北京市", "City": "北京市", "Address": "永乐店镇新西庄村", "Operator": "中国石化" }, "geometry": { "type": "Point", "coordinates": [ 116.771673, 39.715312 ] } },
{ "type": "Feature", "properties": { "Name": "中国石化松树峪加油站", "Lon_Lat": "117.148891,40.555852", "Longitude": 117.148891, "Latitude": 40.555852, "Gdtype": "汽车服务;加油站;中国石化", "Prov": "北京市", "City": "北京市", "Address": "松树峪村", "Operator": "中国石化" }, "geometry": { "type": "Point", "coordinates": [ 117.148891, 40.555852 ] } },
{ "type": "Feature", "properties": { "Name": "中国石化腾达加油站", "Lon_Lat": "116.610989,39.849269", "Longitude": 116.610989, "Latitude": 39.849269, "Gdtype": "汽车服务;加油站;中国石化", "Prov": "北京市", "City": "北京市", "Address": "台湖镇口子村临3号", "Operator": "中国石化" }, "geometry": { "type": "Point", "coordinates": [ 116.610989, 39.849269 ] } },
{ "type": "Feature", "properties": { "Name": "中国石化齐万方加油站", "Lon_Lat": "116.332338,39.704162", "Longitude": 116.332338, "Latitude": 39.704162, "Gdtype": "汽车服务;加油站;中国石化", "Prov": "北京市", "City": "北京市", "Address": "黄村矿业路6号", "Operator": "中国石化" }, "geometry": { "type": "Point", "coordinates": [ 116.332338, 39.704162 ] } },
{ "type": "Feature", "properties": { "Name": "中国国际能源加油站", "Lon_Lat": "116.726432,40.13461", "Longitude": 116.726432, "Latitude": 40.13461, "Gdtype": "汽车服务;加油站;加油站", "Prov": "北京市", "City": "北京市", "Address": "天河小区北侧", "Operator": "其他" }, "geometry": { "type": "Point", "coordinates": [ 116.726432, 40.13461 ] } },
{ "type": "Feature", "properties": { "Name": "中化石油加油站", "Lon_Lat": "116.070670,40.177417", "Longitude": 116.07067, "Latitude": 40.177417, "Gdtype": "汽车服务;加油站;加油站", "Prov": "北京市", "City": "北京市", "Address": "创新路与南雁路交叉口北100米", "Operator": "其他" }, "geometry": { "type": "Point", "coordinates": [ 116.07067, 40.177417 ] } },
{ "type": "Feature", "properties": { "Name": "中国石化奥运加油站", "Lon_Lat": "116.558021,40.089584", "Longitude": 116.558021, "Latitude": 40.089584, "Gdtype": "汽车服务;加油站;中国石化", "Prov": "北京市", "City": "北京市", "Address": "空港B区喇苏营西侧富亿通旁边", "Operator": "中国石化" }, "geometry": { "type": "Point", "coordinates": [ 116.558021, 40.089584 ] } },
{ "type": "Feature", "properties": { "Name": "中国石化兴礼洼加油站", "Lon_Lat": "116.063476,39.597791", "Longitude": 116.063476, "Latitude": 39.597791, "Gdtype": "汽车服务;加油站;中国石化", "Prov": "北京市", "City": "北京市", "Address": "琉璃河地区兴礼村", "Operator": "中国石化" }, "geometry": { "type": "Point", "coordinates": [ 116.063476, 39.597791 ] } },
{ "type": "Feature", "properties": { "Name": "中国石化靳家堡加油站", "Lon_Lat": "115.963035,40.52084", "Longitude": 115.963035, "Latitude": 40.52084, "Gdtype": "汽车服务;加油站;中国石化", "Prov": "北京市", "City": "北京市", "Address": "京银路附近", "Operator": "中国石化" }, "geometry": { "type": "Point", "coordinates": [ 115.963035, 40.52084 ] } },
{ "type": "Feature", "properties": { "Name": "中国石油首汽19号站", "Lon_Lat": "117.247274,40.176965", "Longitude": 117.247274, "Latitude": 40.176965, "Gdtype": "汽车服务;加油站;中国石油", "Prov": "北京市", "City": "北京市", "Address": "金海湖镇平蓟路胡庄村段,与胡黑路交叉处西侧路北", "Operator": "中国石油" }, "geometry": { "type": "Point", "coordinates": [ 117.247274, 40.176965 ] } },
{ "type": "Feature", "properties": { "Name": "中国石油来广营加油站", "Lon_Lat": "116.461492,40.023926", "Longitude": 116.461492, "Latitude": 40.023926, "Gdtype": "汽车服务;加油站;加油站", "Prov": "北京市", "City": "北京市", "Address": "来广营北路1号", "Operator": "中国石油" }, "geometry": { "type": "Point", "coordinates": [ 116.461492, 40.023926 ] } },
{ "type": "Feature", "properties": { "Name": "中国石油首汽加油站", "Lon_Lat": "116.379454,39.834326", "Longitude": 116.379454, "Latitude": 39.834326, "Gdtype": "汽车服务;加油站;中国石油", "Prov": "北京市", "City": "北京市", "Address": "马家堡南路北天津庄95号", "Operator": "中国石油" }, "geometry": { "type": "Point", "coordinates": [ 116.379454, 39.834326 ] } },
{ "type": "Feature", "properties": { "Name": "中国石化宛丰加油站", "Lon_Lat": "116.207901,39.845091", "Longitude": 116.207901, "Latitude": 39.845091, "Gdtype": "汽车服务;加油站;中国石化", "Prov": "北京市", "City": "北京市", "Address": "卢沟桥桥西街159号", "Operator": "中国石化" }, "geometry": { "type": "Point", "coordinates": [ 116.207901, 39.845091 ] } },
{ "type": "Feature", "properties": { "Name": "中国石油东方动力加油站", "Lon_Lat": "116.966511,40.407678", "Longitude": 116.966511, "Latitude": 40.407678, "Gdtype": "汽车服务;加油站;加油站", "Prov": "北京市", "City": "北京市", "Address": "101国道与密古路交叉口西100米路北", "Operator": "中国石油" }, "geometry": { "type": "Point", "coordinates": [ 116.966511, 40.407678 ] } },
{ "type": "Feature", "properties": { "Name": "中国石化崇文门加油站", "Lon_Lat": "116.421177,39.900272", "Longitude": 116.421177, "Latitude": 39.900272, "Gdtype": "汽车服务;加油站;中国石化", "Prov": "北京市", "City": "北京市", "Address": "崇文门东大街甲22号", "Operator": "中国石化" }, "geometry": { "type": "Point", "coordinates": [ 116.421177, 39.900272 ] } },
{ "type": "Feature", "properties": { "Name": "中国石化燕东加油站", "Lon_Lat": "116.196283,39.711671", "Longitude": 116.196283, "Latitude": 39.711671, "Gdtype": "汽车服务;加油站;中国石化", "Prov": "北京市", "City": "北京市", "Address": "长阳镇葫芦垡村西", "Operator": "中国石化" }, "geometry": { "type": "Point", "coordinates": [ 116.196283, 39.711671 ] } },
{ "type": "Feature", "properties": { "Name": "中国石油特许加盟龙泉加油站", "Lon_Lat": "115.924875,39.676182", "Longitude": 115.924875, "Latitude": 39.676182, "Gdtype": "汽车服务;加油站;中国石油", "Prov": "北京市", "City": "北京市", "Address": "周口店娄子水村东北侧", "Operator": "中国石油" }, "geometry": { "type": "Point", "coordinates": [ 115.924875, 39.676182 ] } },
{ "type": "Feature", "properties": { "Name": "中国石油燕兴加油站", "Lon_Lat": "116.324582,39.505877", "Longitude": 116.324582, "Latitude": 39.505877, "Gdtype": "汽车服务;加油站;中国石油", "Prov": "北京市", "City": "北京市", "Address": "榆顺路7号", "Operator": "中国石油" }, "geometry": { "type": "Point", "coordinates": [ 116.324582, 39.505877 ] } },
{ "type": "Feature", "properties": { "Name": "中国石化加油站", "Lon_Lat": "116.346533,39.857003", "Longitude": 116.346533, "Latitude": 39.857003, "Gdtype": "汽车服务;加油站;中国石化", "Prov": "北京市", "City": "北京市", "Address": [ ], "Operator": "中国石化" }, "geometry": { "type": "Point", "coordinates": [ 116.346533, 39.857003 ] } },
{ "type": "Feature", "properties": { "Name": "中国石化延柏加油站", "Lon_Lat": "116.079107,40.528172", "Longitude": 116.079107, "Latitude": 40.528172, "Gdtype": "汽车服务;加油站;中国石化", "Prov": "北京市", "City": "北京市", "Address": "大柏老村", "Operator": "中国石化" }, "geometry": { "type": "Point", "coordinates": [ 116.079107, 40.528172 ] } },
{ "type": "Feature", "properties": { "Name": "中国石油田家府服务区加油站", "Lon_Lat": "116.669845,39.840207", "Longitude": 116.669845, "Latitude": 39.840207, "Gdtype": "汽车服务;加油站;中国石油", "Prov": "北京市", "City": "北京市", "Address": "京沈高速路服务区台湖镇田家府服务区", "Operator": "中国石油" }, "geometry": { "type": "Point", "coordinates": [ 116.669845, 39.840207 ] } },
{ "type": "Feature", "properties": { "Name": "加油站洗车房", "Lon_Lat": "116.328351,39.848651", "Longitude": 116.328351, "Latitude": 39.848651, "Gdtype": "汽车服务;洗车场;洗车场|汽车服务;加油站;加油站", "Prov": "北京市", "City": "北京市", "Address": "夏家胡同117号", "Operator": "其他" }, "geometry": { "type": "Point", "coordinates": [ 116.328351, 39.848651 ] } },
{ "type": "Feature", "properties": { "Name": "中国石油鑫邦达加油站", "Lon_Lat": "116.520547,39.798973", "Longitude": 116.520547, "Latitude": 39.798973, "Gdtype": "汽车服务;加油站;中国石油", "Prov": "北京市", "City": "北京市", "Address": "同济北路26号", "Operator": "中国石油" }, "geometry": { "type": "Point", "coordinates": [ 116.520547, 39.798973 ] } },
{ "type": "Feature", "properties": { "Name": "中国石化大山子加油站", "Lon_Lat": "116.489179,39.978936", "Longitude": 116.489179, "Latitude": 39.978936, "Gdtype": "汽车服务;加油站;中国石化", "Prov": "北京市", "City": "北京市", "Address": "酒仙桥路13号", "Operator": "中国石化" }, "geometry": { "type": "Point", "coordinates": [ 116.489179, 39.978936 ] } },
{ "type": "Feature", "properties": { "Name": "中国石油鑫世恒通加油站", "Lon_Lat": "116.327819,39.606530", "Longitude": 116.327819, "Latitude": 39.60653, "Gdtype": "汽车服务;加油站;中国石油", "Prov": "北京市", "City": "北京市", "Address": "薛营村东500米", "Operator": "中国石油" }, "geometry": { "type": "Point", "coordinates": [ 116.327819, 39.60653 ] } },
{ "type": "Feature", "properties": { "Name": "中国石化巩华加油站", "Lon_Lat": "116.244993,40.121829", "Longitude": 116.244993, "Latitude": 40.121829, "Gdtype": "汽车服务;加油站;中国石化", "Prov": "北京市", "City": "北京市", "Address": "沙阳路沙河西路北50米", "Operator": "中国石化" }, "geometry": { "type": "Point", "coordinates": [ 116.244993, 40.121829 ] } },
{ "type": "Feature", "properties": { "Name": "中国石油特许加盟龙山加油站", "Lon_Lat": "115.99559,39.724976", "Longitude": 115.99559, "Latitude": 39.724976, "Gdtype": "汽车服务;加油站;中国石油", "Prov": "北京市", "City": "北京市", "Address": "大件路燕化动力厂斜对面", "Operator": "中国石油" }, "geometry": { "type": "Point", "coordinates": [ 115.99559, 39.724976 ] } },
{ "type": "Feature", "properties": { "Name": "中国石油北汽宣武门加油站", "Lon_Lat": "116.373164,39.899202", "Longitude": 116.373164, "Latitude": 39.899202, "Gdtype": "汽车服务;加油站;中国石油", "Prov": "北京市", "City": "北京市", "Address": "宣武门西大街2号楼东", "Operator": "中国石油" }, "geometry": { "type": "Point", "coordinates": [ 116.373164, 39.899202 ] } },
{ "type": "Feature", "properties": { "Name": "燕港石化加油站", "Lon_Lat": "116.335560,39.977003", "Longitude": 116.33556, "Latitude": 39.977003, "Gdtype": "汽车服务;加油站;中国石油", "Prov": "北京市", "City": "北京市", "Address": "知春路53号", "Operator": "中国石油" }, "geometry": { "type": "Point", "coordinates": [ 116.33556, 39.977003 ] } },
{ "type": "Feature", "properties": { "Name": "中国石油前苇沟加油站", "Lon_Lat": "116.555392,40.025528", "Longitude": 116.555392, "Latitude": 40.025528, "Gdtype": "汽车服务;加油站;中国石油", "Prov": "北京市", "City": "北京市", "Address": "前苇沟村甲1号", "Operator": "中国石油" }, "geometry": { "type": "Point", "coordinates": [ 116.555392, 40.025528 ] } },
{ "type": "Feature", "properties": { "Name": "中国石化龙禹加油站(密云区水政监察大队西)", "Lon_Lat": "116.832254,40.346394", "Longitude": 116.832254, "Latitude": 40.346394, "Gdtype": "汽车服务;加油站;中国石化", "Prov": "北京市", "City": "北京市", "Address": "寨镇潮白河大桥西侧", "Operator": "中国石化" }, "geometry": { "type": "Point", "coordinates": [ 116.832254, 40.346394 ] } },
{ "type": "Feature", "properties": { "Name": "中国石油中图春兴加油站", "Lon_Lat": "116.038008,39.765192", "Longitude": 116.038008, "Latitude": 39.765192, "Gdtype": "汽车服务;加油站;加油站", "Prov": "北京市", "City": "北京市", "Address": "阎河路", "Operator": "中国石油" }, "geometry": { "type": "Point", "coordinates": [ 116.038008, 39.765192 ] } },
{ "type": "Feature", "properties": { "Name": "中国石化加油站(暂停营业)", "Lon_Lat": "116.115348,39.651624", "Longitude": 116.115348, "Latitude": 39.651624, "Gdtype": "汽车服务;加油站;中国石化", "Prov": "北京市", "City": "北京市", "Address": "005县道,窦店镇房窑路与紫码路交汇处向北路东(交道中心家园北)", "Operator": "中国石化" }, "geometry": { "type": "Point", "coordinates": [ 116.115348, 39.651624 ] } },
{ "type": "Feature", "properties": { "Name": "中国石化沙坨加油站", "Lon_Lat": "116.413899,40.207197", "Longitude": 116.413899, "Latitude": 40.207197, "Gdtype": "汽车服务;加油站;中国石化", "Prov": "北京市", "City": "北京市", "Address": "沙坨村西", "Operator": "中国石化" }, "geometry": { "type": "Point", "coordinates": [ 116.413899, 40.207197 ] } },
{ "type": "Feature", "properties": { "Name": "中国石油华路怀柔加油站", "Lon_Lat": "116.644314,40.300108", "Longitude": 116.644314, "Latitude": 40.300108, "Gdtype": "汽车服务;加油站;中国石油", "Prov": "北京市", "City": "北京市", "Address": "京密路辅路与迎宾南路交汇路口向北路东,怀柔镇政府附近", "Operator": "中国石油" }, "geometry": { "type": "Point", "coordinates": [ 116.644314, 40.300108 ] } },
{ "type": "Feature", "properties": { "Name": "中国石油南湖加油站", "Lon_Lat": "116.457685,39.979838", "Longitude": 116.457685, "Latitude": 39.979838, "Gdtype": "汽车服务;加油站;加油站", "Prov": "北京市", "City": "北京市", "Address": "北四环东路17号", "Operator": "中国石油" }, "geometry": { "type": "Point", "coordinates": [ 116.457685, 39.979838 ] } },
{ "type": "Feature", "properties": { "Name": "中国石油新昌加油站", "Lon_Lat": "116.262681,40.138893", "Longitude": 116.262681, "Latitude": 40.138893, "Gdtype": "汽车服务;加油站;中国石油", "Prov": "北京市", "City": "北京市", "Address": "G6辅路和G6京藏高速百沙路入口的交叉口附近", "Operator": "中国石油" }, "geometry": { "type": "Point", "coordinates": [ 116.262681, 40.138893 ] } },
{ "type": "Feature", "properties": { "Name": "中国石化三元七里渠加油站", "Lon_Lat": "116.305284,40.112258", "Longitude": 116.305284, "Latitude": 40.112258, "Gdtype": "汽车服务;加油站;中国石化", "Prov": "北京市", "City": "北京市", "Address": "定泗路与豆各庄路交汇处向东路北,冠芳园附近", "Operator": "中国石化" }, "geometry": { "type": "Point", "coordinates": [ 116.305284, 40.112258 ] } },
{ "type": "Feature", "properties": { "Name": "中国石化周家巷北加油站", "Lon_Lat": "116.135674,40.062541", "Longitude": 116.135674, "Latitude": 40.062541, "Gdtype": "汽车服务;加油站;中国石化", "Prov": "北京市", "City": "北京市", "Address": "周家巷村北六环主路16.5-17.5公里处北", "Operator": "中国石化" }, "geometry": { "type": "Point", "coordinates": [ 116.135674, 40.062541 ] } },
{ "type": "Feature", "properties": { "Name": "中化石油北京石化加油站", "Lon_Lat": "116.527738,40.098424", "Longitude": 116.527738, "Latitude": 40.098424, "Gdtype": "汽车服务;加油站;加油站", "Prov": "北京市", "City": "北京市", "Address": "罗马环岛东侧200米路北", "Operator": "其他" }, "geometry": { "type": "Point", "coordinates": [ 116.527738, 40.098424 ] } },
{ "type": "Feature", "properties": { "Name": "中国石化通州副中心加油站(不对外开放)", "Lon_Lat": "116.714008,39.906854", "Longitude": 116.714008, "Latitude": 39.906854, "Gdtype": "汽车服务;加油站;中国石化", "Prov": "北京市", "City": "北京市", "Address": "宏安街与涌翠西路交叉口", "Operator": "中国石化" }, "geometry": { "type": "Point", "coordinates": [ 116.714008, 39.906854 ] } },
{ "type": "Feature", "properties": { "Name": "中国石油首汽八号加油站", "Lon_Lat": "116.468272,39.961417", "Longitude": 116.468272, "Latitude": 39.961417, "Gdtype": "汽车服务;加油站;加油站", "Prov": "北京市", "City": "北京市", "Address": "霄云路24号", "Operator": "中国石油" }, "geometry": { "type": "Point", "coordinates": [ 116.468272, 39.961417 ] } },
{ "type": "Feature", "properties": { "Name": "中国石化加油站", "Lon_Lat": "116.423601,39.991124", "Longitude": 116.423601, "Latitude": 39.991124, "Gdtype": "汽车服务;加油站;中国石化", "Prov": "北京市", "City": "北京市", "Address": "北四环东路101号", "Operator": "中国石化" }, "geometry": { "type": "Point", "coordinates": [ 116.423601, 39.991124 ] } },
{ "type": "Feature", "properties": { "Name": "中国石化石美泉加油站", "Lon_Lat": "116.248447,39.897597", "Longitude": 116.248447, "Latitude": 39.897597, "Gdtype": "汽车服务;加油站;中国石化", "Prov": "北京市", "City": "北京市", "Address": "玉泉路南石槽", "Operator": "中国石化" }, "geometry": { "type": "Point", "coordinates": [ 116.248447, 39.897597 ] } },
{ "type": "Feature", "properties": { "Name": "中国石油北苑加油站", "Lon_Lat": "116.441134,40.027744", "Longitude": 116.441134, "Latitude": 40.027744, "Gdtype": "汽车服务;加油站;中国石油", "Prov": "北京市", "City": "北京市", "Address": "北苑东路350号", "Operator": "中国石油" }, "geometry": { "type": "Point", "coordinates": [ 116.441134, 40.027744 ] } },
{ "type": "Feature", "properties": { "Name": "中国石化龙禹玉泉加油站", "Lon_Lat": "116.257155,39.973896", "Longitude": 116.257155, "Latitude": 39.973896, "Gdtype": "汽车服务;加油站;中国石化", "Prov": "北京市", "City": "北京市", "Address": "四季青镇闵庄路3号(麦当劳得来速旁)", "Operator": "中国石化" }, "geometry": { "type": "Point", "coordinates": [ 116.257155, 39.973896 ] } },
{ "type": "Feature", "properties": { "Name": "中国国际能源农林路加油站", "Lon_Lat": "115.984093,39.689146", "Longitude": 115.984093, "Latitude": 39.689146, "Gdtype": "汽车服务;加油站;加油站", "Prov": "北京市", "City": "北京市", "Address": "农林路西侧", "Operator": "其他" }, "geometry": { "type": "Point", "coordinates": [ 115.984093, 39.689146 ] } },
{ "type": "Feature", "properties": { "Name": "中国石油顺如意加油站", "Lon_Lat": "116.937228,40.397977", "Longitude": 116.937228, "Latitude": 40.397977, "Gdtype": "汽车服务;加油站;中国石油", "Prov": "北京市", "City": "北京市", "Address": "京承高速密云服务区内", "Operator": "中国石油" }, "geometry": { "type": "Point", "coordinates": [ 116.937228, 40.397977 ] } },
{ "type": "Feature", "properties": { "Name": "众诚连锁加油站", "Lon_Lat": "116.569027,39.809798", "Longitude": 116.569027, "Latitude": 39.809798, "Gdtype": "汽车服务;加油站;加油站", "Prov": "北京市", "City": "北京市", "Address": "中关村科技园区通州园光机电一体化产业基地兴光六街1号", "Operator": "其他" }, "geometry": { "type": "Point", "coordinates": [ 116.569027, 39.809798 ] } },
{ "type": "Feature", "properties": { "Name": "中化石油北京石化恒亮加油站", "Lon_Lat": "116.634288,40.139097", "Longitude": 116.634288, "Latitude": 40.139097, "Gdtype": "汽车服务;加油站;加油站", "Prov": "北京市", "City": "北京市", "Address": "仁和地区西外街21号", "Operator": "其他" }, "geometry": { "type": "Point", "coordinates": [ 116.634288, 40.139097 ] } },
{ "type": "Feature", "properties": { "Name": "中国石化白家庄加油站", "Lon_Lat": "116.464808,39.928678", "Longitude": 116.464808, "Latitude": 39.928678, "Gdtype": "汽车服务;加油站;中国石化", "Prov": "北京市", "City": "北京市", "Address": "白家庄东里甲23号", "Operator": "中国石化" }, "geometry": { "type": "Point", "coordinates": [ 116.464808, 39.928678 ] } },
{ "type": "Feature", "properties": { "Name": "中国石化古北口加油站", "Lon_Lat": "117.162586,40.694523", "Longitude": 117.162586, "Latitude": 40.694523, "Gdtype": "汽车服务;加油站;中国石化", "Prov": "北京市", "City": "北京市", "Address": "古北口镇政府西侧100米处", "Operator": "中国石化" }, "geometry": { "type": "Point", "coordinates": [ 117.162586, 40.694523 ] } },
{ "type": "Feature", "properties": { "Name": "中国石化汤顺加油站", "Lon_Lat": "116.375763,40.174130", "Longitude": 116.375763, "Latitude": 40.17413, "Gdtype": "汽车服务;加油站;加油站", "Prov": "北京市", "City": "北京市", "Address": "小汤山镇大汤山村", "Operator": "中国石化" }, "geometry": { "type": "Point", "coordinates": [ 116.375763, 40.17413 ] } },
{ "type": "Feature", "properties": { "Name": "中国石化益特诺加油站", "Lon_Lat": "116.53545,39.82383", "Longitude": 116.53545, "Latitude": 39.82383, "Gdtype": "汽车服务;加油站;中国石化", "Prov": "北京市", "City": "北京市", "Address": "亦庄镇渠羊路北", "Operator": "中国石化" }, "geometry": { "type": "Point", "coordinates": [ 116.53545, 39.82383 ] } },
{ "type": "Feature", "properties": { "Name": "中国石化加油站", "Lon_Lat": "116.462103,39.792829", "Longitude": 116.462103, "Latitude": 39.792829, "Gdtype": "汽车服务;加油站;中国石化", "Prov": "北京市", "City": "北京市", "Address": "Ｓ５０南五环与加油站交叉口东北约180米", "Operator": "中国石化" }, "geometry": { "type": "Point", "coordinates": [ 116.462103, 39.792829 ] } },
{ "type": "Feature", "properties": { "Name": "中国石油环美加油站", "Lon_Lat": "116.196437,39.928719", "Longitude": 116.196437, "Latitude": 39.928719, "Gdtype": "汽车服务;加油站;中国石油", "Prov": "北京市", "City": "北京市", "Address": "杨庄北区", "Operator": "中国石油" }, "geometry": { "type": "Point", "coordinates": [ 116.196437, 39.928719 ] } },
{ "type": "Feature", "properties": { "Name": "中国石化西关加油站", "Lon_Lat": "116.218213,40.216754", "Longitude": 116.218213, "Latitude": 40.216754, "Gdtype": "汽车服务;加油站;中国石化", "Prov": "北京市", "City": "北京市", "Address": "西关槐树巷南", "Operator": "中国石化" }, "geometry": { "type": "Point", "coordinates": [ 116.218213, 40.216754 ] } },
{ "type": "Feature", "properties": { "Name": "中国石化大灰厂加油站", "Lon_Lat": "116.1187,39.845485", "Longitude": 116.1187, "Latitude": 39.845485, "Gdtype": "汽车服务;加油站;中国石化", "Prov": "北京市", "City": "北京市", "Address": "大灰厂村南", "Operator": "中国石化" }, "geometry": { "type": "Point", "coordinates": [ 116.1187, 39.845485 ] } },
{ "type": "Feature", "properties": { "Name": "中国石化欣怡乐加油站", "Lon_Lat": "116.632532,39.891717", "Longitude": 116.632532, "Latitude": 39.891717, "Gdtype": "汽车服务;加油站;中国石化", "Prov": "北京市", "City": "北京市", "Address": "李老庄村", "Operator": "中国石化" }, "geometry": { "type": "Point", "coordinates": [ 116.632532, 39.891717 ] } },
{ "type": "Feature", "properties": { "Name": "众生中油北清加油站", "Lon_Lat": "116.252304,40.076486", "Longitude": 116.252304, "Latitude": 40.076486, "Gdtype": "汽车服务;加油站;加油站", "Prov": "北京市", "City": "北京市", "Address": "西北旺北清路77号", "Operator": "其他" }, "geometry": { "type": "Point", "coordinates": [ 116.252304, 40.076486 ] } },
{ "type": "Feature", "properties": { "Name": "加油站(暂停营业)", "Lon_Lat": "116.248028,39.691393", "Longitude": 116.248028, "Latitude": 39.691393, "Gdtype": "汽车服务;加油站;加油站", "Prov": "北京市", "City": "北京市", "Address": "桑马房路与左堤路交叉路口往南约100米", "Operator": "其他" }, "geometry": { "type": "Point", "coordinates": [ 116.248028, 39.691393 ] } },
{ "type": "Feature", "properties": { "Name": "龙瑞森长陵加油站", "Lon_Lat": "116.238221,40.289422", "Longitude": 116.238221, "Latitude": 40.289422, "Gdtype": "汽车服务;加油站;加油站", "Prov": "北京市", "City": "北京市", "Address": "定陵机场路与昭陵路交叉口西100米", "Operator": "其他" }, "geometry": { "type": "Point", "coordinates": [ 116.238221, 40.289422 ] } },
{ "type": "Feature", "properties": { "Name": "中图能源五行加油站", "Lon_Lat": "116.663235,40.32152", "Longitude": 116.663235, "Latitude": 40.32152, "Gdtype": "汽车服务;加油站;加油站", "Prov": "北京市", "City": "北京市", "Address": "怀柔镇王化村京密路", "Operator": "其他" }, "geometry": { "type": "Point", "coordinates": [ 116.663235, 40.32152 ] } },
{ "type": "Feature", "properties": { "Name": "天龙加油站(陡子峪乡派出所南)", "Lon_Lat": "117.318446,40.285019", "Longitude": 117.318446, "Latitude": 40.285019, "Gdtype": "汽车服务;加油站;加油站", "Prov": "北京市", "City": "北京市", "Address": "沥水沟村怀勤百货商店南侧兴隆县公安局陡子峪乡派出所附近", "Operator": "其他" }, "geometry": { "type": "Point", "coordinates": [ 117.318446, 40.285019 ] } },
{ "type": "Feature", "properties": { "Name": "中国石油驰华加油站", "Lon_Lat": "116.326185,39.625007", "Longitude": 116.326185, "Latitude": 39.625007, "Gdtype": "汽车服务;加油站;加油站", "Prov": "北京市", "City": "北京市", "Address": "庞各庄镇大广高速辅路东侧", "Operator": "中国石油" }, "geometry": { "type": "Point", "coordinates": [ 116.326185, 39.625007 ] } },
{ "type": "Feature", "properties": { "Name": "能链大柳树加油站", "Lon_Lat": "116.509739,39.873881", "Longitude": 116.509739, "Latitude": 39.873881, "Gdtype": "汽车服务;加油站;加油站", "Prov": "北京市", "City": "北京市", "Address": "化工路王四营路1号", "Operator": "其他" }, "geometry": { "type": "Point", "coordinates": [ 116.509739, 39.873881 ] } },
{ "type": "Feature", "properties": { "Name": "中国石油开研加油站", "Lon_Lat": "116.505056,39.954289", "Longitude": 116.505056, "Latitude": 39.954289, "Gdtype": "汽车服务;加油站;中国石油", "Prov": "北京市", "City": "北京市", "Address": "东风南路20号(朝阳气象局旁)", "Operator": "中国石油" }, "geometry": { "type": "Point", "coordinates": [ 116.505056, 39.954289 ] } },
{ "type": "Feature", "properties": { "Name": "中国石化陵石加油站(暂停营业)", "Lon_Lat": "116.213506,40.243833", "Longitude": 116.213506, "Latitude": 40.243833, "Gdtype": "汽车服务;加油站;中国石化", "Prov": "北京市", "City": "北京市", "Address": "涧头村东", "Operator": "中国石化" }, "geometry": { "type": "Point", "coordinates": [ 116.213506, 40.243833 ] } },
{ "type": "Feature", "properties": { "Name": "中国石化城市联建加油站", "Lon_Lat": "116.554072,39.868264", "Longitude": 116.554072, "Latitude": 39.868264, "Gdtype": "汽车服务;加油站;中国石化", "Prov": "北京市", "City": "北京市", "Address": "王四营乡道口村白鹿司路南", "Operator": "中国石化" }, "geometry": { "type": "Point", "coordinates": [ 116.554072, 39.868264 ] } },
{ "type": "Feature", "properties": { "Name": "中国石油燕鑫兆元加油站", "Lon_Lat": "116.484177,39.900796", "Longitude": 116.484177, "Latitude": 39.900796, "Gdtype": "汽车服务;加油站;加油站", "Prov": "北京市", "City": "北京市", "Address": "百子湾路27号", "Operator": "中国石油" }, "geometry": { "type": "Point", "coordinates": [ 116.484177, 39.900796 ] } },
{ "type": "Feature", "properties": { "Name": "十三陵加油站", "Lon_Lat": "116.21139,40.234566", "Longitude": 116.21139, "Latitude": 40.234566, "Gdtype": "汽车服务;加油站;加油站", "Prov": "北京市", "City": "北京市", "Address": "北大分校路附近", "Operator": "其他" }, "geometry": { "type": "Point", "coordinates": [ 116.21139, 40.234566 ] } },
{ "type": "Feature", "properties": { "Name": "中国石油首汽十七号加油站", "Lon_Lat": "117.123421,40.127848", "Longitude": 117.123421, "Latitude": 40.127848, "Gdtype": "汽车服务;加油站;加油站", "Prov": "北京市", "City": "北京市", "Address": "新平东路东寺渠村南", "Operator": "中国石油" }, "geometry": { "type": "Point", "coordinates": [ 117.123421, 40.127848 ] } },
{ "type": "Feature", "properties": { "Name": "中国石化幽燕加油站", "Lon_Lat": "116.056588,39.627355", "Longitude": 116.056588, "Latitude": 39.627355, "Gdtype": "汽车服务;加油站;中国石化", "Prov": "北京市", "City": "北京市", "Address": "琉璃河地区董家林村", "Operator": "中国石化" }, "geometry": { "type": "Point", "coordinates": [ 116.056588, 39.627355 ] } },
{ "type": "Feature", "properties": { "Name": "壳牌加油站(大郊亭站)", "Lon_Lat": "116.499054,39.893564", "Longitude": 116.499054, "Latitude": 39.893564, "Gdtype": "汽车服务;加油站;壳牌", "Prov": "北京市", "City": "北京市", "Address": "石门村路与广渠路交叉口东北角", "Operator": "壳牌" }, "geometry": { "type": "Point", "coordinates": [ 116.499054, 39.893564 ] } },
{ "type": "Feature", "properties": { "Name": "中国石化观音堂东加油站", "Lon_Lat": "116.548647,39.887574", "Longitude": 116.548647, "Latitude": 39.887574, "Gdtype": "汽车服务;加油站;中国石化", "Prov": "北京市", "City": "北京市", "Address": "南花园村五环路,观音堂段东侧", "Operator": "中国石化" }, "geometry": { "type": "Point", "coordinates": [ 116.548647, 39.887574 ] } },
{ "type": "Feature", "properties": { "Name": "中国石油首发能源北京鑫京台加油站", "Lon_Lat": "116.456201,39.670597", "Longitude": 116.456201, "Latitude": 39.670597, "Gdtype": "汽车服务;加油站;中国石油", "Prov": "北京市", "City": "北京市", "Address": "魏善庄镇京台高速进京方向", "Operator": "中国石油" }, "geometry": { "type": "Point", "coordinates": [ 116.456201, 39.670597 ] } },
{ "type": "Feature", "properties": { "Name": "中国石化融兴街加油站", "Lon_Lat": "116.500395,39.717775", "Longitude": 116.500395, "Latitude": 39.717775, "Gdtype": "汽车服务;加油站;中国石化", "Prov": "北京市", "City": "北京市", "Address": "经济技术开发区融兴南二街19号院1号", "Operator": "中国石化" }, "geometry": { "type": "Point", "coordinates": [ 116.500395, 39.717775 ] } },
{ "type": "Feature", "properties": { "Name": "飞驰加油站", "Lon_Lat": "116.123185,39.706050", "Longitude": 116.123185, "Latitude": 39.70605, "Gdtype": "汽车服务;加油站;加油站", "Prov": "北京市", "City": "北京市", "Address": "阎村镇肖庄村村西", "Operator": "其他" }, "geometry": { "type": "Point", "coordinates": [ 116.123185, 39.70605 ] } },
{ "type": "Feature", "properties": { "Name": "中国石油常营加油站", "Lon_Lat": "116.582499,39.923999", "Longitude": 116.582499, "Latitude": 39.923999, "Gdtype": "汽车服务;加油站;加油站", "Prov": "北京市", "City": "北京市", "Address": "朝阳北路24号", "Operator": "中国石油" }, "geometry": { "type": "Point", "coordinates": [ 116.582499, 39.923999 ] } },
{ "type": "Feature", "properties": { "Name": "中国石油岳上加油站", "Lon_Lat": "116.838776,39.813192", "Longitude": 116.838776, "Latitude": 39.813192, "Gdtype": "汽车服务;加油站;中国石油", "Prov": "北京市", "City": "北京市", "Address": "西集镇杜柳棵小学旁", "Operator": "中国石油" }, "geometry": { "type": "Point", "coordinates": [ 116.838776, 39.813192 ] } },
{ "type": "Feature", "properties": { "Name": "中国石油天坛东路加油站", "Lon_Lat": "116.421637,39.876543", "Longitude": 116.421637, "Latitude": 39.876543, "Gdtype": "汽车服务;加油站;中国石油", "Prov": "北京市", "City": "北京市", "Address": "天坛东路76号", "Operator": "中国石油" }, "geometry": { "type": "Point", "coordinates": [ 116.421637, 39.876543 ] } },
{ "type": "Feature", "properties": { "Name": "中国石化加油站", "Lon_Lat": "116.645403,40.237539", "Longitude": 116.645403, "Latitude": 40.237539, "Gdtype": "汽车服务;加油站;中国石化", "Prov": "北京市", "City": "北京市", "Address": "牛山地区富各庄村东", "Operator": "中国石化" }, "geometry": { "type": "Point", "coordinates": [ 116.645403, 40.237539 ] } },
{ "type": "Feature", "properties": { "Name": "中国石化觅康加油站", "Lon_Lat": "116.88284,39.71913", "Longitude": 116.88284, "Latitude": 39.71913, "Gdtype": "汽车服务;加油站;加油站", "Prov": "北京市", "City": "北京市", "Address": "漷县镇觅子店村北口", "Operator": "中国石化" }, "geometry": { "type": "Point", "coordinates": [ 116.88284, 39.71913 ] } },
{ "type": "Feature", "properties": { "Name": "中国石油华星加油站", "Lon_Lat": "116.323021,39.506397", "Longitude": 116.323021, "Latitude": 39.506397, "Gdtype": "汽车服务;加油站;加油站", "Prov": "北京市", "City": "北京市", "Address": "榆垡镇胡林分场", "Operator": "中国石油" }, "geometry": { "type": "Point", "coordinates": [ 116.323021, 39.506397 ] } },
{ "type": "Feature", "properties": { "Name": "中国石油特许加盟丰胜加油站", "Lon_Lat": "116.245406,39.890082", "Longitude": 116.245406, "Latitude": 39.890082, "Gdtype": "汽车服务;加油站;中国石油", "Prov": "北京市", "City": "北京市", "Address": "吴家村路乙21号", "Operator": "中国石油" }, "geometry": { "type": "Point", "coordinates": [ 116.245406, 39.890082 ] } },
{ "type": "Feature", "properties": { "Name": "中国石化南环加油站(南华大街)", "Lon_Lat": "116.637081,40.308984", "Longitude": 116.637081, "Latitude": 40.308984, "Gdtype": "汽车服务;加油站;中国石化", "Prov": "北京市", "City": "北京市", "Address": "南华大街3号", "Operator": "中国石化" }, "geometry": { "type": "Point", "coordinates": [ 116.637081, 40.308984 ] } },
{ "type": "Feature", "properties": { "Name": "中国石化平谷平安加油站", "Lon_Lat": "117.164877,40.125178", "Longitude": 117.164877, "Latitude": 40.125178, "Gdtype": "汽车服务;加油站;中国石化", "Prov": "北京市", "City": "北京市", "Address": "夏各庄镇安固村北", "Operator": "中国石化" }, "geometry": { "type": "Point", "coordinates": [ 117.164877, 40.125178 ] } },
{ "type": "Feature", "properties": { "Name": "中国石化燕北加油站(暂停营业)", "Lon_Lat": "116.056467,40.425878", "Longitude": 116.056467, "Latitude": 40.425878, "Gdtype": "汽车服务;加油站;中国石化", "Prov": "北京市", "City": "北京市", "Address": "西二道河乡西红山村北", "Operator": "中国石化" }, "geometry": { "type": "Point", "coordinates": [ 116.056467, 40.425878 ] } },
{ "type": "Feature", "properties": { "Name": "中国石化加油站(暂停营业)", "Lon_Lat": "116.203219,39.752249", "Longitude": 116.203219, "Latitude": 39.752249, "Gdtype": "汽车服务;加油站;中国石化", "Prov": "北京市", "City": "北京市", "Address": "长阳镇长阳路北侧", "Operator": "中国石化" }, "geometry": { "type": "Point", "coordinates": [ 116.203219, 39.752249 ] } },
{ "type": "Feature", "properties": { "Name": "中国石化南辛庄加油站", "Lon_Lat": "116.45197,39.832007", "Longitude": 116.45197, "Latitude": 39.832007, "Gdtype": "汽车服务;加油站;中国石化", "Prov": "北京市", "City": "北京市", "Address": "南四环中路72号院1号", "Operator": "中国石化" }, "geometry": { "type": "Point", "coordinates": [ 116.45197, 39.832007 ] } },
{ "type": "Feature", "properties": { "Name": "中国石化海淀京铁加油站", "Lon_Lat": "116.332547,39.99065", "Longitude": 116.332547, "Latitude": 39.99065, "Gdtype": "汽车服务;加油站;中国石化", "Prov": "北京市", "City": "北京市", "Address": "中关村东路3号", "Operator": "中国石化" }, "geometry": { "type": "Point", "coordinates": [ 116.332547, 39.99065 ] } },
{ "type": "Feature", "properties": { "Name": "燕林加油站(暂停营业)", "Lon_Lat": "116.264663,40.032856", "Longitude": 116.264663, "Latitude": 40.032856, "Gdtype": "汽车服务;加油站;加油站", "Prov": "北京市", "City": "北京市", "Address": "黑山扈路19号", "Operator": "其他" }, "geometry": { "type": "Point", "coordinates": [ 116.264663, 40.032856 ] } },
{ "type": "Feature", "properties": { "Name": "中国石油特许加盟风华顺加油站", "Lon_Lat": "116.778679,40.067097", "Longitude": 116.778679, "Latitude": 40.067097, "Gdtype": "汽车服务;加油站;加油站", "Prov": "北京市", "City": "北京市", "Address": "龙塘路箭杆河桥西", "Operator": "中国石油" }, "geometry": { "type": "Point", "coordinates": [ 116.778679, 40.067097 ] } },
{ "type": "Feature", "properties": { "Name": "中国石油柳荫加油站", "Lon_Lat": "116.405259,39.959114", "Longitude": 116.405259, "Latitude": 39.959114, "Gdtype": "汽车服务;加油站;中国石油", "Prov": "北京市", "City": "北京市", "Address": "青年湖北街3号", "Operator": "中国石油" }, "geometry": { "type": "Point", "coordinates": [ 116.405259, 39.959114 ] } },
{ "type": "Feature", "properties": { "Name": "中国石化加油站", "Lon_Lat": "116.269003,40.128934", "Longitude": 116.269003, "Latitude": 40.128934, "Gdtype": "汽车服务;加油站;中国石化", "Prov": "北京市", "City": "北京市", "Address": "沙河镇巩华城大街67号", "Operator": "中国石化" }, "geometry": { "type": "Point", "coordinates": [ 116.269003, 40.128934 ] } },
{ "type": "Feature", "properties": { "Name": "中国石油光华路加油站", "Lon_Lat": "116.472048,39.913838", "Longitude": 116.472048, "Latitude": 39.913838, "Gdtype": "汽车服务;加油站;中国石油", "Prov": "北京市", "City": "北京市", "Address": "光华路与郎家园西路交汇处", "Operator": "中国石油" }, "geometry": { "type": "Point", "coordinates": [ 116.472048, 39.913838 ] } },
{ "type": "Feature", "properties": { "Name": "中国石化新兴加油站", "Lon_Lat": "115.929281,39.644096", "Longitude": 115.929281, "Latitude": 39.644096, "Gdtype": "汽车服务;加油站;中国石化", "Prov": "北京市", "City": "北京市", "Address": "周口店镇房易路南韩继村路段路东", "Operator": "中国石化" }, "geometry": { "type": "Point", "coordinates": [ 115.929281, 39.644096 ] } },
{ "type": "Feature", "properties": { "Name": "中化道达尔加油站", "Lon_Lat": "116.453981,39.982207", "Longitude": 116.453981, "Latitude": 39.982207, "Gdtype": "汽车服务;加油站;中化道达尔", "Prov": "北京市", "City": "北京市", "Address": "北四环东路与望京西路交叉口西北200米", "Operator": "中化道达尔" }, "geometry": { "type": "Point", "coordinates": [ 116.453981, 39.982207 ] } },
{ "type": "Feature", "properties": { "Name": "北京畅通途加油站", "Lon_Lat": "116.009101,40.451875", "Longitude": 116.009101, "Latitude": 40.451875, "Gdtype": "汽车服务;加油站;加油站", "Prov": "北京市", "City": "北京市", "Address": "延庆镇莲花池村东南", "Operator": "其他" }, "geometry": { "type": "Point", "coordinates": [ 116.009101, 40.451875 ] } },
{ "type": "Feature", "properties": { "Name": "中国石化永乐店服务区加油站", "Lon_Lat": "116.810044,39.643390", "Longitude": 116.810044, "Latitude": 39.64339, "Gdtype": "汽车服务;加油站;中国石化", "Prov": "北京市", "City": "北京市", "Address": "京津高速附近", "Operator": "中国石化" }, "geometry": { "type": "Point", "coordinates": [ 116.810044, 39.64339 ] } },
{ "type": "Feature", "properties": { "Name": "中国石化华山中原加油站", "Lon_Lat": "117.075898,40.283274", "Longitude": 117.075898, "Latitude": 40.283274, "Gdtype": "汽车服务;加油站;中国石化", "Prov": "北京市", "City": "北京市", "Address": "大华山村", "Operator": "中国石化" }, "geometry": { "type": "Point", "coordinates": [ 117.075898, 40.283274 ] } },
{ "type": "Feature", "properties": { "Name": "中国石化昌平北方加油站(满白路)", "Lon_Lat": "116.232659,40.183975", "Longitude": 116.232659, "Latitude": 40.183975, "Gdtype": "汽车服务;加油站;中国石化", "Prov": "北京市", "City": "北京市", "Address": [ ], "Operator": "中国石化" }, "geometry": { "type": "Point", "coordinates": [ 116.232659, 40.183975 ] } },
{ "type": "Feature", "properties": { "Name": "中国石油鲁谷加油站", "Lon_Lat": "116.214767,39.902927", "Longitude": 116.214767, "Latitude": 39.902927, "Gdtype": "汽车服务;加油站;加油站", "Prov": "北京市", "City": "北京市", "Address": "翠园西街8号", "Operator": "中国石油" }, "geometry": { "type": "Point", "coordinates": [ 116.214767, 39.902927 ] } },
{ "type": "Feature", "properties": { "Name": "中国石化迪生加油站", "Lon_Lat": "116.635638,40.264462", "Longitude": 116.635638, "Latitude": 40.264462, "Gdtype": "汽车服务;加油站;中国石化", "Prov": "北京市", "City": "北京市", "Address": "庙城镇赵各庄路口西侧", "Operator": "中国石化" }, "geometry": { "type": "Point", "coordinates": [ 116.635638, 40.264462 ] } },
{ "type": "Feature", "properties": { "Name": "中国石化东风街加油站", "Lon_Lat": "115.965955,39.759535", "Longitude": 115.965955, "Latitude": 39.759535, "Gdtype": "汽车服务;加油站;中国石化", "Prov": "北京市", "City": "北京市", "Address": "燕山双泉路1号", "Operator": "中国石化" }, "geometry": { "type": "Point", "coordinates": [ 115.965955, 39.759535 ] } },
{ "type": "Feature", "properties": { "Name": "中国石化华京顺加油站", "Lon_Lat": "116.620862,40.118078", "Longitude": 116.620862, "Latitude": 40.118078, "Gdtype": "汽车服务;加油站;中国石化", "Prov": "北京市", "City": "北京市", "Address": "南法信顺平路望泉桥西侧路北100米", "Operator": "中国石化" }, "geometry": { "type": "Point", "coordinates": [ 116.620862, 40.118078 ] } },
{ "type": "Feature", "properties": { "Name": "壳牌北城加油站", "Lon_Lat": "116.657360,39.929638", "Longitude": 116.65736, "Latitude": 39.929638, "Gdtype": "汽车服务;加油站;壳牌", "Prov": "北京市", "City": "北京市", "Address": [ ], "Operator": "壳牌" }, "geometry": { "type": "Point", "coordinates": [ 116.65736, 39.929638 ] } },
{ "type": "Feature", "properties": { "Name": "中国石化长操加油站", "Lon_Lat": "115.786133,39.804034", "Longitude": 115.786133, "Latitude": 39.804034, "Gdtype": "汽车服务;加油站;中国石化", "Prov": "北京市", "City": "北京市", "Address": "京昆路与108国道复线交叉口东北100米", "Operator": "中国石化" }, "geometry": { "type": "Point", "coordinates": [ 115.786133, 39.804034 ] } },
{ "type": "Feature", "properties": { "Name": "江华燕山盛祥石油加油站", "Lon_Lat": "117.061738,40.19347", "Longitude": 117.061738, "Latitude": 40.19347, "Gdtype": "汽车服务;加油站;加油站", "Prov": "北京市", "City": "北京市", "Address": "平关路与杨杏路交汇处向南路东乐政务中心幼儿园附近", "Operator": "其他" }, "geometry": { "type": "Point", "coordinates": [ 117.061738, 40.19347 ] } },
{ "type": "Feature", "properties": { "Name": "中国石化百善南加油站", "Lon_Lat": "116.322381,40.174024", "Longitude": 116.322381, "Latitude": 40.174024, "Gdtype": "汽车服务;加油站;中国石化", "Prov": "北京市", "City": "北京市", "Address": "百善北六环主路175-176公里南侧", "Operator": "中国石化" }, "geometry": { "type": "Point", "coordinates": [ 116.322381, 40.174024 ] } },
{ "type": "Feature", "properties": { "Name": "中国石化太平中孚加油站", "Lon_Lat": "116.167963,39.722781", "Longitude": 116.167963, "Latitude": 39.722781, "Gdtype": "汽车服务;加油站;加油站", "Prov": "北京市", "City": "北京市", "Address": "良乡地区东羊庄村南", "Operator": "中国石化" }, "geometry": { "type": "Point", "coordinates": [ 116.167963, 39.722781 ] } },
{ "type": "Feature", "properties": { "Name": "中国石油京兰源加油站", "Lon_Lat": "115.641612,39.944576", "Longitude": 115.641612, "Latitude": 39.944576, "Gdtype": "汽车服务;加油站;中国石油", "Prov": "北京市", "City": "北京市", "Address": [ ], "Operator": "中国石油" }, "geometry": { "type": "Point", "coordinates": [ 115.641612, 39.944576 ] } },
{ "type": "Feature", "properties": { "Name": "中国石化太师屯服务区加油站", "Lon_Lat": "117.154760,40.560831", "Longitude": 117.15476, "Latitude": 40.560831, "Gdtype": "汽车服务;加油站;中国石化", "Prov": "北京市", "City": "北京市", "Address": "太师屯镇京承高速太师屯服务区内北侧", "Operator": "中国石化" }, "geometry": { "type": "Point", "coordinates": [ 117.15476, 40.560831 ] } },
{ "type": "Feature", "properties": { "Name": "中化道达尔北京京东物资加油站", "Lon_Lat": "116.037891,39.701672", "Longitude": 116.037891, "Latitude": 39.701672, "Gdtype": "汽车服务;加油站;中化道达尔", "Prov": "北京市", "City": "北京市", "Address": "大于路兴东大街268号", "Operator": "中化道达尔" }, "geometry": { "type": "Point", "coordinates": [ 116.037891, 39.701672 ] } },
{ "type": "Feature", "properties": { "Name": "燕化兴隆加油站(暂停营业)", "Lon_Lat": "116.044674,40.432374", "Longitude": 116.044674, "Latitude": 40.432374, "Gdtype": "汽车服务;加油站;加油站", "Prov": "北京市", "City": "北京市", "Address": "京银路国道110,高庙屯村村委会段", "Operator": "其他" }, "geometry": { "type": "Point", "coordinates": [ 116.044674, 40.432374 ] } },
{ "type": "Feature", "properties": { "Name": "中国石化永来顺加油站", "Lon_Lat": "116.155068,40.527413", "Longitude": 116.155068, "Latitude": 40.527413, "Gdtype": "汽车服务;加油站;中国石化", "Prov": "北京市", "City": "北京市", "Address": "西关村北", "Operator": "中国石化" }, "geometry": { "type": "Point", "coordinates": [ 116.155068, 40.527413 ] } },
{ "type": "Feature", "properties": { "Name": "燕山盛祥石油加油站", "Lon_Lat": "117.273298,40.180286", "Longitude": 117.273298, "Latitude": 40.180286, "Gdtype": "汽车服务;加油站;加油站", "Prov": "北京市", "City": "北京市", "Address": "金海湖韩庄南街105号", "Operator": "其他" }, "geometry": { "type": "Point", "coordinates": [ 117.273298, 40.180286 ] } },
{ "type": "Feature", "properties": { "Name": "燕山盛祥加油站", "Lon_Lat": "117.147,40.161549", "Longitude": 117.147, "Latitude": 40.161549, "Gdtype": "汽车服务;加油站;加油站", "Prov": "北京市", "City": "北京市", "Address": "张各庄北路与贤王庄北路交叉口东北100米", "Operator": "其他" }, "geometry": { "type": "Point", "coordinates": [ 117.147, 40.161549 ] } },
{ "type": "Feature", "properties": { "Name": "中国石化展览路加油站", "Lon_Lat": "116.344462,39.927019", "Longitude": 116.344462, "Latitude": 39.927019, "Gdtype": "汽车服务;加油站;中国石化", "Prov": "北京市", "City": "北京市", "Address": "百万庄南口34号", "Operator": "中国石化" }, "geometry": { "type": "Point", "coordinates": [ 116.344462, 39.927019 ] } },
{ "type": "Feature", "properties": { "Name": "四联加油站(暂停营业)", "Lon_Lat": "115.862472,39.809555", "Longitude": 115.862472, "Latitude": 39.809555, "Gdtype": "汽车服务;加油站;加油站", "Prov": "北京市", "City": "北京市", "Address": "108国道复线西50米", "Operator": "其他" }, "geometry": { "type": "Point", "coordinates": [ 115.862472, 39.809555 ] } },
{ "type": "Feature", "properties": { "Name": "中国石化顺锦加油站", "Lon_Lat": "116.616602,40.15542", "Longitude": 116.616602, "Latitude": 40.15542, "Gdtype": "汽车服务;加油站;中国石化", "Prov": "北京市", "City": "北京市", "Address": "马坡地区衙门村", "Operator": "中国石化" }, "geometry": { "type": "Point", "coordinates": [ 116.616602, 40.15542 ] } },
{ "type": "Feature", "properties": { "Name": "中国石油京东天源加油站", "Lon_Lat": "116.703127,39.833832", "Longitude": 116.703127, "Latitude": 39.833832, "Gdtype": "汽车服务;加油站;加油站", "Prov": "北京市", "City": "北京市", "Address": "张采路临8号", "Operator": "中国石油" }, "geometry": { "type": "Point", "coordinates": [ 116.703127, 39.833832 ] } },
{ "type": "Feature", "properties": { "Name": "中国石化密溪路加油站", "Lon_Lat": "116.840976,40.465939", "Longitude": 116.840976, "Latitude": 40.465939, "Gdtype": "汽车服务;加油站;中国石化", "Prov": "北京市", "City": "北京市", "Address": "溪翁庄村南", "Operator": "中国石化" }, "geometry": { "type": "Point", "coordinates": [ 116.840976, 40.465939 ] } },
{ "type": "Feature", "properties": { "Name": "中国石化高井加油站", "Lon_Lat": "116.538016,39.91571", "Longitude": 116.538016, "Latitude": 39.91571, "Gdtype": "汽车服务;加油站;中国石化", "Prov": "北京市", "City": "北京市", "Address": "朝阳路民航医院东侧700米", "Operator": "中国石化" }, "geometry": { "type": "Point", "coordinates": [ 116.538016, 39.91571 ] } },
{ "type": "Feature", "properties": { "Name": "中国石化和平里加油站", "Lon_Lat": "116.411728,39.959437", "Longitude": 116.411728, "Latitude": 39.959437, "Gdtype": "汽车服务;加油站;中国石化", "Prov": "北京市", "City": "北京市", "Address": "和平里北街23号", "Operator": "中国石化" }, "geometry": { "type": "Point", "coordinates": [ 116.411728, 39.959437 ] } },
{ "type": "Feature", "properties": { "Name": "佰强石化加油站(顺丰鑫成站)", "Lon_Lat": "116.428668,39.565067", "Longitude": 116.428668, "Latitude": 39.565067, "Gdtype": "汽车服务;加油站;加油站", "Prov": "北京市", "City": "北京市", "Address": "小马房村北", "Operator": "其他" }, "geometry": { "type": "Point", "coordinates": [ 116.428668, 39.565067 ] } },
{ "type": "Feature", "properties": { "Name": "加油站", "Lon_Lat": "115.66883,39.856804", "Longitude": 115.66883, "Latitude": 39.856804, "Gdtype": "汽车服务;加油站;加油站", "Prov": "北京市", "City": "北京市", "Address": "贾史公路西50米", "Operator": "其他" }, "geometry": { "type": "Point", "coordinates": [ 115.66883, 39.856804 ] } },
{ "type": "Feature", "properties": { "Name": "中国石化姚家园加油站", "Lon_Lat": "116.494000,39.933561", "Longitude": 116.494, "Latitude": 39.933561, "Gdtype": "汽车服务;加油站;中国石化", "Prov": "北京市", "City": "北京市", "Address": "苇子坑100号", "Operator": "中国石化" }, "geometry": { "type": "Point", "coordinates": [ 116.494, 39.933561 ] } },
{ "type": "Feature", "properties": { "Name": "中国石化国普加油站", "Lon_Lat": "116.056542,39.705227", "Longitude": 116.056542, "Latitude": 39.705227, "Gdtype": "汽车服务;加油站;中国石化", "Prov": "北京市", "City": "北京市", "Address": "西坟村东", "Operator": "中国石化" }, "geometry": { "type": "Point", "coordinates": [ 116.056542, 39.705227 ] } },
{ "type": "Feature", "properties": { "Name": "石五联加油站", "Lon_Lat": "116.47689,39.898824", "Longitude": 116.47689, "Latitude": 39.898824, "Gdtype": "汽车服务;加油站;加油站", "Prov": "北京市", "City": "北京市", "Address": "西大望路20号", "Operator": "其他" }, "geometry": { "type": "Point", "coordinates": [ 116.47689, 39.898824 ] } },
{ "type": "Feature", "properties": { "Name": "中国石化加油站", "Lon_Lat": "116.799192,40.357171", "Longitude": 116.799192, "Latitude": 40.357171, "Gdtype": "汽车服务;加油站;中国石化", "Prov": "北京市", "City": "北京市", "Address": "十里堡镇", "Operator": "中国石化" }, "geometry": { "type": "Point", "coordinates": [ 116.799192, 40.357171 ] } },
{ "type": "Feature", "properties": { "Name": "中国国燃远东加油站", "Lon_Lat": "116.798899,39.818822", "Longitude": 116.798899, "Latitude": 39.818822, "Gdtype": "汽车服务;加油站;加油站", "Prov": "北京市", "City": "北京市", "Address": "西集镇沙古堆村", "Operator": "其他" }, "geometry": { "type": "Point", "coordinates": [ 116.798899, 39.818822 ] } },
{ "type": "Feature", "properties": { "Name": "北京鸿润达源加油站", "Lon_Lat": "115.546044,39.711087", "Longitude": 115.546044, "Latitude": 39.711087, "Gdtype": "汽车服务;加油站;加油站", "Prov": "北京市", "City": "北京市", "Address": "蒲洼乡议合涞宝路鸿润达源加油站", "Operator": "其他" }, "geometry": { "type": "Point", "coordinates": [ 115.546044, 39.711087 ] } },
{ "type": "Feature", "properties": { "Name": "中国石化燕云加油站", "Lon_Lat": "115.843725,39.594161", "Longitude": 115.843725, "Latitude": 39.594161, "Gdtype": "汽车服务;加油站;中国石化", "Prov": "北京市", "City": "北京市", "Address": "三座庵村", "Operator": "中国石化" }, "geometry": { "type": "Point", "coordinates": [ 115.843725, 39.594161 ] } },
{ "type": "Feature", "properties": { "Name": "中国石化建飞翔加油站", "Lon_Lat": "115.981893,39.656887", "Longitude": 115.981893, "Latitude": 39.656887, "Gdtype": "汽车服务;加油站;中国石化", "Prov": "北京市", "City": "北京市", "Address": "石楼镇北大桥西", "Operator": "中国石化" }, "geometry": { "type": "Point", "coordinates": [ 115.981893, 39.656887 ] } },
{ "type": "Feature", "properties": { "Name": "中国石化世博加油站", "Lon_Lat": "116.289343,40.148856", "Longitude": 116.289343, "Latitude": 40.148856, "Gdtype": "汽车服务;加油站;中国石化", "Prov": "北京市", "City": "北京市", "Address": "丰善村(沙河地铁站B2东口步行240米)", "Operator": "中国石化" }, "geometry": { "type": "Point", "coordinates": [ 116.289343, 40.148856 ] } },
{ "type": "Feature", "properties": { "Name": "壳牌加油站(临河里站)", "Lon_Lat": "116.677335,39.876302", "Longitude": 116.677335, "Latitude": 39.876302, "Gdtype": "汽车服务;加油站;壳牌", "Prov": "北京市", "City": "北京市", "Address": "临河里北侧京津公路103国道", "Operator": "壳牌" }, "geometry": { "type": "Point", "coordinates": [ 116.677335, 39.876302 ] } },
{ "type": "Feature", "properties": { "Name": "中国石化劲松加油站", "Lon_Lat": "116.446802,39.878507", "Longitude": 116.446802, "Latitude": 39.878507, "Gdtype": "汽车服务;加油站;中国石化", "Prov": "北京市", "City": "北京市", "Address": "劲松七区725号临1号楼", "Operator": "中国石化" }, "geometry": { "type": "Point", "coordinates": [ 116.446802, 39.878507 ] } },
{ "type": "Feature", "properties": { "Name": "中国石化鑫溪凯旋北方加油站", "Lon_Lat": "116.849582,40.387234", "Longitude": 116.849582, "Latitude": 40.387234, "Gdtype": "汽车服务;加油站;中国石化", "Prov": "北京市", "City": "北京市", "Address": "密溪路东侧", "Operator": "中国石化" }, "geometry": { "type": "Point", "coordinates": [ 116.849582, 40.387234 ] } },
{ "type": "Feature", "properties": { "Name": "中国石化燕山路加油站(自助站)", "Lon_Lat": "116.028627,39.721800", "Longitude": 116.028627, "Latitude": 39.7218, "Gdtype": "汽车服务;加油站;中国石化", "Prov": "北京市", "City": "北京市", "Address": [ ], "Operator": "中国石化" }, "geometry": { "type": "Point", "coordinates": [ 116.028627, 39.7218 ] } },
{ "type": "Feature", "properties": { "Name": "中图能源穗联加油站", "Lon_Lat": "116.238314,40.18579", "Longitude": 116.238314, "Latitude": 40.18579, "Gdtype": "汽车服务;加油站;加油站", "Prov": "北京市", "City": "北京市", "Address": "马池口镇白浮村", "Operator": "其他" }, "geometry": { "type": "Point", "coordinates": [ 116.238314, 40.18579 ] } },
{ "type": "Feature", "properties": { "Name": "中国石化京航加油站", "Lon_Lat": "116.408994,40.177866", "Longitude": 116.408994, "Latitude": 40.177866, "Gdtype": "汽车服务;加油站;中国石化", "Prov": "北京市", "City": "北京市", "Address": "大柳树村东", "Operator": "中国石化" }, "geometry": { "type": "Point", "coordinates": [ 116.408994, 40.177866 ] } },
{ "type": "Feature", "properties": { "Name": "中国石油黎明加油站(暂停营业)", "Lon_Lat": "116.068655,39.661853", "Longitude": 116.068655, "Latitude": 39.661853, "Gdtype": "汽车服务;加油站;中国石油", "Prov": "北京市", "City": "北京市", "Address": "南大路15号", "Operator": "中国石油" }, "geometry": { "type": "Point", "coordinates": [ 116.068655, 39.661853 ] } },
{ "type": "Feature", "properties": { "Name": "中国石化奥运加油站", "Lon_Lat": "116.557845,40.090162", "Longitude": 116.557845, "Latitude": 40.090162, "Gdtype": "汽车服务;加油站;中国石化", "Prov": "北京市", "City": "北京市", "Address": "京密路西侧", "Operator": "中国石化" }, "geometry": { "type": "Point", "coordinates": [ 116.557845, 40.090162 ] } },
{ "type": "Feature", "properties": { "Name": "中国石化长子营加油站", "Lon_Lat": "116.592616,39.684221", "Longitude": 116.592616, "Latitude": 39.684221, "Gdtype": "汽车服务;加油站;中国石化", "Prov": "北京市", "City": "北京市", "Address": "北京市大兴区长子营镇三八桥北", "Operator": "中国石化" }, "geometry": { "type": "Point", "coordinates": [ 116.592616, 39.684221 ] } },
{ "type": "Feature", "properties": { "Name": "壳牌加油站(杨镇站)", "Lon_Lat": "116.849369,40.153118", "Longitude": 116.849369, "Latitude": 40.153118, "Gdtype": "汽车服务;加油站;壳牌", "Prov": "北京市", "City": "北京市", "Address": "杨镇杜庄村西200米路北", "Operator": "壳牌" }, "geometry": { "type": "Point", "coordinates": [ 116.849369, 40.153118 ] } },
{ "type": "Feature", "properties": { "Name": "中国石化熊畅加油站", "Lon_Lat": "117.13302,40.286635", "Longitude": 117.13302, "Latitude": 40.286635, "Gdtype": "汽车服务;加油站;中国石化", "Prov": "北京市", "City": "北京市", "Address": "熊儿寨乡熊南路与平程路交汇处路东", "Operator": "中国石化" }, "geometry": { "type": "Point", "coordinates": [ 117.13302, 40.286635 ] } },
{ "type": "Feature", "properties": { "Name": "中国石化八里桥加油站", "Lon_Lat": "116.624924,39.905971", "Longitude": 116.624924, "Latitude": 39.905971, "Gdtype": "汽车服务;加油站;中国石化", "Prov": "北京市", "City": "北京市", "Address": "八里桥南街8号", "Operator": "中国石化" }, "geometry": { "type": "Point", "coordinates": [ 116.624924, 39.905971 ] } },
{ "type": "Feature", "properties": { "Name": "中国石化九龙加油站", "Lon_Lat": "116.712522,40.099761", "Longitude": 116.712522, "Latitude": 40.099761, "Gdtype": "汽车服务;加油站;中国石化", "Prov": "北京市", "City": "北京市", "Address": "河南村东", "Operator": "中国石化" }, "geometry": { "type": "Point", "coordinates": [ 116.712522, 40.099761 ] } },
{ "type": "Feature", "properties": { "Name": "石油特许加盟华北石门加油站", "Lon_Lat": "116.12909,39.953581", "Longitude": 116.12909, "Latitude": 39.953581, "Gdtype": "汽车服务;加油站;加油站", "Prov": "北京市", "City": "北京市", "Address": "石门路298号", "Operator": "其他" }, "geometry": { "type": "Point", "coordinates": [ 116.12909, 39.953581 ] } },
{ "type": "Feature", "properties": { "Name": "中国石油祥威加油站", "Lon_Lat": "116.84494,40.360133", "Longitude": 116.84494, "Latitude": 40.360133, "Gdtype": "汽车服务;加油站;加油站", "Prov": "北京市", "City": "北京市", "Address": "密云镇长安新村", "Operator": "中国石油" }, "geometry": { "type": "Point", "coordinates": [ 116.84494, 40.360133 ] } },
{ "type": "Feature", "properties": { "Name": "中化石油加油站", "Lon_Lat": "116.689906,39.916623", "Longitude": 116.689906, "Latitude": 39.916623, "Gdtype": "汽车服务;加油站;加油站", "Prov": "北京市", "City": "北京市", "Address": "芙蓉东路大顺斋食品厂大门北", "Operator": "其他" }, "geometry": { "type": "Point", "coordinates": [ 116.689906, 39.916623 ] } },
{ "type": "Feature", "properties": { "Name": "中国石化分钟寺加油站", "Lon_Lat": "116.447014,39.859485", "Longitude": 116.447014, "Latitude": 39.859485, "Gdtype": "汽车服务;加油站;中国石化", "Prov": "北京市", "City": "北京市", "Address": "南三环东路13号", "Operator": "中国石化" }, "geometry": { "type": "Point", "coordinates": [ 116.447014, 39.859485 ] } },
{ "type": "Feature", "properties": { "Name": "中国石化京实永发加油站", "Lon_Lat": "116.418064,40.003367", "Longitude": 116.418064, "Latitude": 40.003367, "Gdtype": "汽车服务;加油站;中国石化", "Prov": "北京市", "City": "北京市", "Address": "安外大屯(北郊灌瓶厂)西南侧", "Operator": "中国石化" }, "geometry": { "type": "Point", "coordinates": [ 116.418064, 40.003367 ] } },
{ "type": "Feature", "properties": { "Name": "中国石化三间房东路加油站", "Lon_Lat": "116.577678,39.91758", "Longitude": 116.577678, "Latitude": 39.91758, "Gdtype": "汽车服务;加油站;中国石化", "Prov": "北京市", "City": "北京市", "Address": "三间房东路5号", "Operator": "中国石化" }, "geometry": { "type": "Point", "coordinates": [ 116.577678, 39.91758 ] } },
{ "type": "Feature", "properties": { "Name": "中国石油加油站(暂停营业)", "Lon_Lat": "115.979893,39.655979", "Longitude": 115.979893, "Latitude": 39.655979, "Gdtype": "汽车服务;加油站;中国石油", "Prov": "北京市", "City": "北京市", "Address": "顾郑路石楼镇文体广场西南侧约60米", "Operator": "中国石油" }, "geometry": { "type": "Point", "coordinates": [ 115.979893, 39.655979 ] } },
{ "type": "Feature", "properties": { "Name": "小红门路民营加油站", "Lon_Lat": "116.454002,39.853427", "Longitude": 116.454002, "Latitude": 39.853427, "Gdtype": "汽车服务;加油站;加油站", "Prov": "北京市", "City": "北京市", "Address": "分钟寺小红门路倪庄8号", "Operator": "其他" }, "geometry": { "type": "Point", "coordinates": [ 116.454002, 39.853427 ] } },