{
"type": "FeatureCollection",
"name": "中化道尔达",
"crs": { "type": "name", "properties": { "name": "urn:ogc:def:crs:OGC:1.3:CRS84" } },
"features": [
{ "type": "Feature", "properties": { "Name": "中化道达尔昌平加油站", "Lon_Lat": "116.305892,40.082859", "Longitude": 116.305892, "Latitude": 40.082859, "Gdtype": "汽车服务;加油站;中化道达尔", "Prov": "北京市", "City": "北京市", "Address": "回龙观镇二拨子村,八达岭高速进京方向辅路,北清路口南1.5公里", "Operator": "中化道达尔" }, "geometry": { "type": "Point", "coordinates": [ 116.305892, 40.082859 ] } },
{ "type": "Feature", "properties": { "Name": "道达尔加油站", "Lon_Lat": "116.521058,39.893401", "Longitude": 116.521058, "Latitude": 39.893401, "Gdtype": "汽车服务;加油站;道达尔", "Prov": "北京市", "City": "北京市", "Address": null, "Operator": "中化道达尔" }, "geometry": { "type": "Point", "coordinates": [ 116.521058, 39.893401 ] } },
{ "type": "Feature", "properties": { "Name": "道达尔加油站", "Lon_Lat": "116.454149,39.982298", "Longitude": 116.454149, "Latitude": 39.982298, "Gdtype": "汽车服务;加油站;道达尔", "Prov": "北京市", "City": "北京市", "Address": "北四环东路辅路望京桥西北角", "Operator": "中化道达尔" }, "geometry": { "type": "Point", "coordinates": [ 116.454149, 39.982298 ] } },
{ "type": "Feature", "properties": { "Name": "中化道达尔加油站", "Lon_Lat": "116.360850,40.011834", "Longitude": 116.36085, "Latitude": 40.011834, "Gdtype": "汽车服务;加油站;中化道达尔", "Prov": "北京市", "City": "北京市", "Address": "双泉堡169号(八达岭高速辅路清河收费站西南侧)", "Operator": "中化道达尔" }, "geometry": { "type": "Point", "coordinates": [ 116.36085, 40.011834 ] } },
{ "type": "Feature", "properties": { "Name": "中化道达尔北京西红门加油站", "Lon_Lat": "116.326498,39.797535", "Longitude": 116.326498, "Latitude": 39.797535, "Gdtype": "汽车服务;加油站;中化道达尔", "Prov": "北京市", "City": "北京市", "Address": "西红门京良路21号", "Operator": "中化道达尔" }, "geometry": { "type": "Point", "coordinates": [ 116.326498, 39.797535 ] } },
{ "type": "Feature", "properties": { "Name": "中化道达尔加油站", "Lon_Lat": "116.453981,39.982207", "Longitude": 116.453981, "Latitude": 39.982207, "Gdtype": "汽车服务;加油站;中化道达尔", "Prov": "北京市", "City": "北京市", "Address": "北四环东路与望京西路交叉口西北200米", "Operator": "中化道达尔" }, "geometry": { "type": "Point", "coordinates": [ 116.453981, 39.982207 ] } },
{ "type": "Feature", "properties": { "Name": "中化道达尔北京京东物资加油站", "Lon_Lat": "116.037891,39.701672", "Longitude": 116.037891, "Latitude": 39.701672, "Gdtype": "汽车服务;加油站;中化道达尔", "Prov": "北京市", "City": "北京市", "Address": "大于路兴东大街268号", "Operator": "中化道达尔" }, "geometry": { "type": "Point", "coordinates": [ 116.037891, 39.701672 ] } },
{ "type": "Feature", "properties": { "Name": "中化道达尔北京中北孚星加油站", "Lon_Lat": "116.516343,40.01233", "Longitude": 116.516343, "Latitude": 40.01233, "Gdtype": "汽车服务;加油站;中化道达尔", "Prov": "北京市", "City": "北京市", "Address": "北皋村口(机场辅路上,东方养老院旁)", "Operator": "中化道达尔" }, "geometry": { "type": "Point", "coordinates": [ 116.516343, 40.01233 ] } },
{ "type": "Feature", "properties": { "Name": "中化道达尔北京鑫文龙加油站", "Lon_Lat": "116.099927,39.719961", "Longitude": 116.099927, "Latitude": 39.719961, "Gdtype": "汽车服务;加油站;中化道达尔", "Prov": "北京市", "City": "北京市", "Address": "宝马4S店旁", "Operator": "中化道达尔" }, "geometry": { "type": "Point", "coordinates": [ 116.099927, 39.719961 ] } },
{ "type": "Feature", "properties": { "Name": "中化道达尔安利达加油站", "Lon_Lat": "115.984707,39.710954", "Longitude": 115.984707, "Latitude": 39.710954, "Gdtype": "汽车服务;加油站;中化道达尔", "Prov": "北京市", "City": "北京市", "Address": "北庄路与规划二街交叉口东南约220米", "Operator": "中化道达尔" }, "geometry": { "type": "Point", "coordinates": [ 115.984707, 39.710954 ] } },
{ "type": "Feature", "properties": { "Name": "道达尔北关加油站(北关店)", "Lon_Lat": "116.657981,39.933887", "Longitude": 116.657981, "Latitude": 39.933887, "Gdtype": "汽车服务;加油站;道达尔", "Prov": "北京市", "City": "北京市", "Address": "安顺路225号", "Operator": "中化道达尔" }, "geometry": { "type": "Point", "coordinates": [ 116.657981, 39.933887 ] } },
{ "type": "Feature", "properties": { "Name": "中化道达尔北京怀庆加油站", "Lon_Lat": "116.643822,40.301881", "Longitude": 116.643822, "Latitude": 40.301881, "Gdtype": "汽车服务;加油站;中化道达尔", "Prov": "北京市", "City": "北京市", "Address": "迎宾南路临6号", "Operator": "中化道达尔" }, "geometry": { "type": "Point", "coordinates": [ 116.643822, 40.301881 ] } },
{ "type": "Feature", "properties": { "Name": "中化道达尔北京望楚加油站", "Lon_Lat": "116.078656,39.651292", "Longitude": 116.078656, "Latitude": 39.651292, "Gdtype": "汽车服务;加油站;中化道达尔", "Prov": "北京市", "City": "北京市", "Address": "窦店环岛向北200米", "Operator": "中化道达尔" }, "geometry": { "type": "Point", "coordinates": [ 116.078656, 39.651292 ] } },
{ "type": "Feature", "properties": { "Name": "中化道达尔加油站", "Lon_Lat": "116.326532,40.052677", "Longitude": 116.326532, "Latitude": 40.052677, "Gdtype": "汽车服务;加油站;中化道达尔", "Prov": "北京市", "City": "北京市", "Address": "安宁佳园东路与安宁庄路交叉口南约80米", "Operator": "中化道达尔" }, "geometry": { "type": "Point", "coordinates": [ 116.326532, 40.052677 ] } },
{ "type": "Feature", "properties": { "Name": "中化道达尔北京东苇路加油站", "Lon_Lat": "116.565114,40.002403", "Longitude": 116.565114, "Latitude": 40.002403, "Gdtype": "汽车服务;加油站;中化道达尔", "Prov": "北京市", "City": "北京市", "Address": "金盏乡东苇路与南皋路交叉口", "Operator": "中化道达尔" }, "geometry": { "type": "Point", "coordinates": [ 116.565114, 40.002403 ] } },
{ "type": "Feature", "properties": { "Name": "中化道达尔加油站", "Lon_Lat": "116.678604,39.985757", "Longitude": 116.678604, "Latitude": 39.985757, "Gdtype": "汽车服务;加油站;中化道达尔", "Prov": "北京市", "City": "北京市", "Address": "通顺路与徐尹路交叉口东南约80米", "Operator": "中化道达尔" }, "geometry": { "type": "Point", "coordinates": [ 116.678604, 39.985757 ] } },
{ "type": "Feature", "properties": { "Name": "中油燕宾加油站", "Lon_Lat": "116.016422,39.69537", "Longitude": 116.016422, "Latitude": 39.69537, "Gdtype": "汽车服务;加油站;中化道达尔", "Prov": "北京市", "City": "北京市", "Address": "城关街道瓜市村北", "Operator": "中化道达尔" }, "geometry": { "type": "Point", "coordinates": [ 116.016422, 39.69537 ] } },
{ "type": "Feature", "properties": { "Name": "中化道达尔北京北沙滩加油站", "Lon_Lat": "116.360932,40.011961", "Longitude": 116.360932, "Latitude": 40.011961, "Gdtype": "汽车服务;加油站;中化道达尔", "Prov": "北京市", "City": "北京市", "Address": "双泉堡169号(八达岭高速辅路清河收费站西侧)", "Operator": "中化道达尔" }, "geometry": { "type": "Point", "coordinates": [ 116.360932, 40.011961 ] } },
{ "type": "Feature", "properties": { "Name": "中化道达尔北京梨园加油站", "Lon_Lat": "116.629172,39.862917", "Longitude": 116.629172, "Latitude": 39.862917, "Gdtype": "汽车服务;加油站;中化道达尔", "Prov": "北京市", "City": "北京市", "Address": "九棵树西路9号", "Operator": "中化道达尔" }, "geometry": { "type": "Point", "coordinates": [ 116.629172, 39.862917 ] } },
{ "type": "Feature", "properties": { "Name": "中化道达尔通检加油站", "Lon_Lat": "116.657971,39.933897", "Longitude": 116.657971, "Latitude": 39.933897, "Gdtype": "汽车服务;加油站;中化道达尔", "Prov": "北京市", "City": "北京市", "Address": "通顺路北关桥向北1公里路西", "Operator": "中化道达尔" }, "geometry": { "type": "Point", "coordinates": [ 116.657971, 39.933897 ] } },
{ "type": "Feature", "properties": { "Name": "中化道达尔加油站", "Lon_Lat": "116.520776,39.893477", "Longitude": 116.520776, "Latitude": 39.893477, "Gdtype": "汽车服务;加油站;中化道达尔", "Prov": "北京市", "City": "北京市", "Address": "高碑店广渠路方家村", "Operator": "中化道达尔" }, "geometry": { "type": "Point", "coordinates": [ 116.520776, 39.893477 ] } }
]
}
