{
"type": "FeatureCollection",
"name": "中石化",
"crs": { "type": "name", "properties": { "name": "urn:ogc:def:crs:OGC:1.3:CRS84" } },
"features": [
{ "type": "Feature", "properties": { "Name": "中国石化惠忠寺加油站", "Lon_Lat": "116.40847,39.996423", "Longitude": 116.40847, "Latitude": 39.996423, "Gdtype": "汽车服务;加油站;中国石化", "Prov": "北京市", "City": "北京市", "Address": "安慧北里321号", "Operator": "中国石化" }, "geometry": { "type": "Point", "coordinates": [ 116.40847, 39.996423 ] } },
{ "type": "Feature", "properties": { "Name": "中国石化田村山北加油站", "Lon_Lat": "116.238727,39.926499", "Longitude": 116.238727, "Latitude": 39.926499, "Gdtype": "汽车服务;加油站;中国石化", "Prov": "北京市", "City": "北京市", "Address": "田村沙石场路61号", "Operator": "中国石化" }, "geometry": { "type": "Point", "coordinates": [ 116.238727, 39.926499 ] } },
{ "type": "Feature", "properties": { "Name": "中国石化燕府通加油站", "Lon_Lat": "115.987008,39.694317", "Longitude": 115.987008, "Latitude": 39.694317, "Gdtype": "汽车服务;加油站;中国石化", "Prov": "北京市", "City": "北京市", "Address": "兴房大街35号", "Operator": "中国石化" }, "geometry": { "type": "Point", "coordinates": [ 115.987008, 39.694317 ] } },
{ "type": "Feature", "properties": { "Name": "中国石化加油站(暂停营业)", "Lon_Lat": "116.326816,39.681333", "Longitude": 116.326816, "Latitude": 39.681333, "Gdtype": "汽车服务;加油站;中国石化", "Prov": "北京市", "City": "北京市", "Address": "林校路街道兆丰桥南300米路东", "Operator": "中国石化" }, "geometry": { "type": "Point", "coordinates": [ 116.326816, 39.681333 ] } },
{ "type": "Feature", "properties": { "Name": "中国石化顺发加油站", "Lon_Lat": "115.804063,39.546588", "Longitude": 115.804063, "Latitude": 39.546588, "Gdtype": "汽车服务;加油站;中国石化", "Prov": "北京市", "City": "北京市", "Address": "大石窝辛庄村南", "Operator": "中国石化" }, "geometry": { "type": "Point", "coordinates": [ 115.804063, 39.546588 ] } },
{ "type": "Feature", "properties": { "Name": "中国石化新立南加油站", "Lon_Lat": "116.2748,39.690682", "Longitude": 116.2748, "Latitude": 39.690682, "Gdtype": "汽车服务;加油站;加油站", "Prov": "北京市", "City": "北京市", "Address": "新立村六环主路89公里处南", "Operator": "中国石化" }, "geometry": { "type": "Point", "coordinates": [ 116.2748, 39.690682 ] } },
{ "type": "Feature", "properties": { "Name": "中国石化廊桥加油站", "Lon_Lat": "116.783209,39.59702", "Longitude": 116.783209, "Latitude": 39.59702, "Gdtype": "汽车服务;加油站;加油站", "Prov": "北京市", "City": "北京市", "Address": "永乐店镇小甸屯村", "Operator": "中国石化" }, "geometry": { "type": "Point", "coordinates": [ 116.783209, 39.59702 ] } },
{ "type": "Feature", "properties": { "Name": "中国石化裕翠加油站", "Lon_Lat": "116.282867,39.917996", "Longitude": 116.282867, "Latitude": 39.917996, "Gdtype": "汽车服务;加油站;中国石化", "Prov": "北京市", "City": "北京市", "Address": "西翠路15号", "Operator": "中国石化" }, "geometry": { "type": "Point", "coordinates": [ 116.282867, 39.917996 ] } },
{ "type": "Feature", "properties": { "Name": "中国石化加油站(东方快顺站)", "Lon_Lat": "116.973077,40.563672", "Longitude": 116.973077, "Latitude": 40.563672, "Gdtype": "汽车服务;加油站;中国石化", "Prov": "北京市", "City": "北京市", "Address": "燕落村", "Operator": "中国石化" }, "geometry": { "type": "Point", "coordinates": [ 116.973077, 40.563672 ] } },
{ "type": "Feature", "properties": { "Name": "中国石化北砖加油站", "Lon_Lat": "116.360384,40.061761", "Longitude": 116.360384, "Latitude": 40.061761, "Gdtype": "汽车服务;加油站;中国石化", "Prov": "北京市", "City": "北京市", "Address": "建材城西路2号", "Operator": "中国石化" }, "geometry": { "type": "Point", "coordinates": [ 116.360384, 40.061761 ] } },
{ "type": "Feature", "properties": { "Name": "鹏亚加油站", "Lon_Lat": "116.172593,39.751470", "Longitude": 116.172593, "Latitude": 39.75147, "Gdtype": "汽车服务;加油站;中国石化", "Prov": "北京市", "City": "北京市", "Address": "长阳一村", "Operator": "中国石化" }, "geometry": { "type": "Point", "coordinates": [ 116.172593, 39.75147 ] } },
{ "type": "Feature", "properties": { "Name": "中国石化赤达加油站", "Lon_Lat": "116.320034,39.743897", "Longitude": 116.320034, "Latitude": 39.743897, "Gdtype": "汽车服务;加油站;中国石化", "Prov": "北京市", "City": "北京市", "Address": "黄村镇南程庄东口", "Operator": "中国石化" }, "geometry": { "type": "Point", "coordinates": [ 116.320034, 39.743897 ] } },
{ "type": "Feature", "properties": { "Name": "中国石化海达加油站", "Lon_Lat": "117.111834,40.154924", "Longitude": 117.111834, "Latitude": 40.154924, "Gdtype": "汽车服务;加油站;中国石化", "Prov": "北京市", "City": "北京市", "Address": "平谷镇古丰路17号", "Operator": "中国石化" }, "geometry": { "type": "Point", "coordinates": [ 117.111834, 40.154924 ] } },
{ "type": "Feature", "properties": { "Name": "中国石化宣武门加油站", "Lon_Lat": "116.378686,39.89974", "Longitude": 116.378686, "Latitude": 39.89974, "Gdtype": "汽车服务;加油站;中国石化", "Prov": "北京市", "City": "北京市", "Address": "宣武门东大街16号楼前(宣武门地铁站C东南口步行330米)", "Operator": "中国石化" }, "geometry": { "type": "Point", "coordinates": [ 116.378686, 39.89974 ] } },
{ "type": "Feature", "properties": { "Name": "中国石化加油站", "Lon_Lat": "116.018828,40.448186", "Longitude": 116.018828, "Latitude": 40.448186, "Gdtype": "汽车服务;加油站;中国石化", "Prov": "北京市", "City": "北京市", "Address": "姜家台村快速路东", "Operator": "中国石化" }, "geometry": { "type": "Point", "coordinates": [ 116.018828, 40.448186 ] } },
{ "type": "Feature", "properties": { "Name": "中国石化源泊湖加油站", "Lon_Lat": "115.725901,39.56829", "Longitude": 115.725901, "Latitude": 39.56829, "Gdtype": "汽车服务;加油站;中国石化", "Prov": "北京市", "City": "北京市", "Address": "西白岱村", "Operator": "中国石化" }, "geometry": { "type": "Point", "coordinates": [ 115.725901, 39.56829 ] } },
{ "type": "Feature", "properties": { "Name": "中国石化加油站(暂停营业)", "Lon_Lat": "115.807144,40.003068", "Longitude": 115.807144, "Latitude": 40.003068, "Gdtype": "汽车服务;加油站;中国石化", "Prov": "北京市", "City": "北京市", "Address": "法城口桥东南50米", "Operator": "中国石化" }, "geometry": { "type": "Point", "coordinates": [ 115.807144, 40.003068 ] } },
{ "type": "Feature", "properties": { "Name": "中国石化华泰小红门加油站", "Lon_Lat": "116.461453,39.834182", "Longitude": 116.461453, "Latitude": 39.834182, "Gdtype": "汽车服务;加油站;中国石化", "Prov": "北京市", "City": "北京市", "Address": "南四环东路53号", "Operator": "中国石化" }, "geometry": { "type": "Point", "coordinates": [ 116.461453, 39.834182 ] } },
{ "type": "Feature", "properties": { "Name": "中国石化三元五里店加油站(小屯西路)", "Lon_Lat": "116.247031,39.863891", "Longitude": 116.247031, "Latitude": 39.863891, "Gdtype": "汽车服务;加油站;中国石化", "Prov": "北京市", "City": "北京市", "Address": "小屯西路119号", "Operator": "中国石化" }, "geometry": { "type": "Point", "coordinates": [ 116.247031, 39.863891 ] } },
{ "type": "Feature", "properties": { "Name": "中国石化日兴旺加油站", "Lon_Lat": "117.048761,40.209997", "Longitude": 117.048761, "Latitude": 40.209997, "Gdtype": "汽车服务;加油站;中国石化", "Prov": "北京市", "City": "北京市", "Address": "王辛庄镇北辛庄村南", "Operator": "中国石化" }, "geometry": { "type": "Point", "coordinates": [ 117.048761, 40.209997 ] } },
{ "type": "Feature", "properties": { "Name": "中国石化建雄加油站", "Lon_Lat": "116.102215,40.555019", "Longitude": 116.102215, "Latitude": 40.555019, "Gdtype": "汽车服务;加油站;中国石化", "Prov": "北京市", "City": "北京市", "Address": "旧县村", "Operator": "中国石化" }, "geometry": { "type": "Point", "coordinates": [ 116.102215, 40.555019 ] } },
{ "type": "Feature", "properties": { "Name": "中国石化盛磊喜利加油站", "Lon_Lat": "116.542545,39.920479", "Longitude": 116.542545, "Latitude": 39.920479, "Gdtype": "汽车服务;加油站;中国石化", "Prov": "北京市", "City": "北京市", "Address": "大黄庄平房路甲3号", "Operator": "中国石化" }, "geometry": { "type": "Point", "coordinates": [ 116.542545, 39.920479 ] } },
{ "type": "Feature", "properties": { "Name": "中国石化延融加油站", "Lon_Lat": "115.807312,40.452759", "Longitude": 115.807312, "Latitude": 40.452759, "Gdtype": "汽车服务;加油站;中国石化", "Prov": "北京市", "City": "北京市", "Address": "姚家营村", "Operator": "中国石化" }, "geometry": { "type": "Point", "coordinates": [ 115.807312, 40.452759 ] } },
{ "type": "Feature", "properties": { "Name": "中国石化北安河加油站", "Lon_Lat": "116.136027,40.05331", "Longitude": 116.136027, "Latitude": 40.05331, "Gdtype": "汽车服务;加油站;中国石化", "Prov": "北京市", "City": "北京市", "Address": "周家巷村东", "Operator": "中国石化" }, "geometry": { "type": "Point", "coordinates": [ 116.136027, 40.05331 ] } },
{ "type": "Feature", "properties": { "Name": "中国石化加油站", "Lon_Lat": "116.617563,39.934926", "Longitude": 116.617563, "Latitude": 39.934926, "Gdtype": "汽车服务;加油站;中国石化", "Prov": "北京市", "City": "北京市", "Address": "常营乡东高路", "Operator": "中国石化" }, "geometry": { "type": "Point", "coordinates": [ 116.617563, 39.934926 ] } },
{ "type": "Feature", "properties": { "Name": "中国石化滨河加油站", "Lon_Lat": "117.095679,40.135566", "Longitude": 117.095679, "Latitude": 40.135566, "Gdtype": "汽车服务;加油站;中国石化", "Prov": "北京市", "City": "北京市", "Address": "滨河工业区西环南路9号", "Operator": "中国石化" }, "geometry": { "type": "Point", "coordinates": [ 117.095679, 40.135566 ] } },
{ "type": "Feature", "properties": { "Name": "中国石化加油站(暂停营业)", "Lon_Lat": "116.734434,39.928535", "Longitude": 116.734434, "Latitude": 39.928535, "Gdtype": "汽车服务;加油站;中国石化", "Prov": "北京市", "City": "北京市", "Address": "丁各庄村", "Operator": "中国石化" }, "geometry": { "type": "Point", "coordinates": [ 116.734434, 39.928535 ] } },
{ "type": "Feature", "properties": { "Name": "中国石化加油站", "Lon_Lat": "116.32831,39.592309", "Longitude": 116.32831, "Latitude": 39.592309, "Gdtype": "汽车服务;加油站;中国石化", "Prov": "北京市", "City": "北京市", "Address": "东黑垡村", "Operator": "中国石化" }, "geometry": { "type": "Point", "coordinates": [ 116.32831, 39.592309 ] } },
{ "type": "Feature", "properties": { "Name": "中国石化加油站", "Lon_Lat": "116.542992,39.943397", "Longitude": 116.542992, "Latitude": 39.943397, "Gdtype": "汽车服务;加油站;中国石化", "Prov": "北京市", "City": "北京市", "Address": "姚家园北口", "Operator": "中国石化" }, "geometry": { "type": "Point", "coordinates": [ 116.542992, 39.943397 ] } },
{ "type": "Feature", "properties": { "Name": "中国石化北苑路加油站", "Lon_Lat": "116.416518,39.993987", "Longitude": 116.416518, "Latitude": 39.993987, "Gdtype": "汽车服务;加油站;中国石化", "Prov": "北京市", "City": "北京市", "Address": "大屯北苑路182号", "Operator": "中国石化" }, "geometry": { "type": "Point", "coordinates": [ 116.416518, 39.993987 ] } },
{ "type": "Feature", "properties": { "Name": "中国石化航天长峰加油站", "Lon_Lat": "116.267385,39.917829", "Longitude": 116.267385, "Latitude": 39.917829, "Gdtype": "汽车服务;加油站;中国石化", "Prov": "北京市", "City": "北京市", "Address": "金沟河路9号", "Operator": "中国石化" }, "geometry": { "type": "Point", "coordinates": [ 116.267385, 39.917829 ] } },
{ "type": "Feature", "properties": { "Name": "中国石化科创街加油站", "Lon_Lat": "116.559516,39.800940", "Longitude": 116.559516, "Latitude": 39.80094, "Gdtype": "汽车服务;加油站;中国石化", "Prov": "北京市", "City": "北京市", "Address": [ ], "Operator": "中国石化" }, "geometry": { "type": "Point", "coordinates": [ 116.559516, 39.80094 ] } },
{ "type": "Feature", "properties": { "Name": "中国石化加油站", "Lon_Lat": "116.451937,39.806803", "Longitude": 116.451937, "Latitude": 39.806803, "Gdtype": "汽车服务;加油站;中国石化", "Prov": "北京市", "City": "北京市", "Address": "旧宫东路59号", "Operator": "中国石化" }, "geometry": { "type": "Point", "coordinates": [ 116.451937, 39.806803 ] } },
{ "type": "Feature", "properties": { "Name": "中国石化凭祥加油站", "Lon_Lat": "116.281029,39.940766", "Longitude": 116.281029, "Latitude": 39.940766, "Gdtype": "汽车服务;加油站;中国石化", "Prov": "北京市", "City": "北京市", "Address": "彰化路与金庄路交叉口东南角", "Operator": "中国石化" }, "geometry": { "type": "Point", "coordinates": [ 116.281029, 39.940766 ] } },
{ "type": "Feature", "properties": { "Name": "中国石化龙禹加油站", "Lon_Lat": "116.436868,39.556828", "Longitude": 116.436868, "Latitude": 39.556828, "Gdtype": "汽车服务;加油站;中国石化", "Prov": "北京市", "City": "北京市", "Address": "礼贤镇大礼路与磁大路交叉处向东礼贤镇政府东侧", "Operator": "中国石化" }, "geometry": { "type": "Point", "coordinates": [ 116.436868, 39.556828 ] } },
{ "type": "Feature", "properties": { "Name": "中国石化太平京张加油站", "Lon_Lat": "115.943599,40.519602", "Longitude": 115.943599, "Latitude": 40.519602, "Gdtype": "汽车服务;加油站;中国石化", "Prov": "北京市", "City": "北京市", "Address": "北京市延庆县张山营镇靳家堡村", "Operator": "中国石化" }, "geometry": { "type": "Point", "coordinates": [ 115.943599, 40.519602 ] } },
{ "type": "Feature", "properties": { "Name": "中国石化富友加油站", "Lon_Lat": "116.405777,39.961364", "Longitude": 116.405777, "Latitude": 39.961364, "Gdtype": "汽车服务;加油站;中国石化", "Prov": "北京市", "City": "北京市", "Address": "安外大街11号北门", "Operator": "中国石化" }, "geometry": { "type": "Point", "coordinates": [ 116.405777, 39.961364 ] } },
{ "type": "Feature", "properties": { "Name": "中国石化加油站", "Lon_Lat": "116.273831,40.186565", "Longitude": 116.273831, "Latitude": 40.186565, "Gdtype": "汽车服务;加油站;中国石化", "Prov": "北京市", "City": "北京市", "Address": "南邵镇南丰路", "Operator": "中国石化" }, "geometry": { "type": "Point", "coordinates": [ 116.273831, 40.186565 ] } },
{ "type": "Feature", "properties": { "Name": "中国石化兴达加油站", "Lon_Lat": "116.329300,39.702707", "Longitude": 116.3293, "Latitude": 39.702707, "Gdtype": "汽车服务;加油站;中国石化", "Prov": "北京市", "City": "北京市", "Address": "黄良路口北侧", "Operator": "中国石化" }, "geometry": { "type": "Point", "coordinates": [ 116.3293, 39.702707 ] } },
{ "type": "Feature", "properties": { "Name": "中国石化雁翅加油站", "Lon_Lat": "115.902126,40.036509", "Longitude": 115.902126, "Latitude": 40.036509, "Gdtype": "汽车服务;加油站;中国石化", "Prov": "北京市", "City": "北京市", "Address": "雁翅村", "Operator": "中国石化" }, "geometry": { "type": "Point", "coordinates": [ 115.902126, 40.036509 ] } },
{ "type": "Feature", "properties": { "Name": "中国石化红远洋加油站", "Lon_Lat": "116.343402,39.765541", "Longitude": 116.343402, "Latitude": 39.765541, "Gdtype": "汽车服务;加油站;中国石化", "Prov": "北京市", "City": "北京市", "Address": "前高米店村东", "Operator": "中国石化" }, "geometry": { "type": "Point", "coordinates": [ 116.343402, 39.765541 ] } },
{ "type": "Feature", "properties": { "Name": "中国石化燕交加油站", "Lon_Lat": "115.984683,39.626044", "Longitude": 115.984683, "Latitude": 39.626044, "Gdtype": "汽车服务;加油站;中国石化", "Prov": "北京市", "City": "北京市", "Address": "二站村村西房琉路路西10米", "Operator": "中国石化" }, "geometry": { "type": "Point", "coordinates": [ 115.984683, 39.626044 ] } },
{ "type": "Feature", "properties": { "Name": "中国石化加油站", "Lon_Lat": "116.345955,39.857045", "Longitude": 116.345955, "Latitude": 39.857045, "Gdtype": "汽车服务;加油站;中国石化", "Prov": "北京市", "City": "北京市", "Address": "梆子井甲1号", "Operator": "中国石化" }, "geometry": { "type": "Point", "coordinates": [ 116.345955, 39.857045 ] } },
{ "type": "Feature", "properties": { "Name": "中国石化京东海苑加油站", "Lon_Lat": "116.766423,39.883092", "Longitude": 116.766423, "Latitude": 39.883092, "Gdtype": "汽车服务;加油站;中国石化", "Prov": "北京市", "City": "北京市", "Address": "宋郎路东侧(潞城镇南刘各庄村)", "Operator": "中国石化" }, "geometry": { "type": "Point", "coordinates": [ 116.766423, 39.883092 ] } },
{ "type": "Feature", "properties": { "Name": "中国石化通航加油站", "Lon_Lat": "117.188131,40.16883", "Longitude": 117.188131, "Latitude": 40.16883, "Gdtype": "汽车服务;加油站;中国石化", "Prov": "北京市", "City": "北京市", "Address": "张辛庄村", "Operator": "中国石化" }, "geometry": { "type": "Point", "coordinates": [ 117.188131, 40.16883 ] } },
{ "type": "Feature", "properties": { "Name": "中国石化加油站", "Lon_Lat": "116.256919,40.146460", "Longitude": 116.256919, "Latitude": 40.14646, "Gdtype": "汽车服务;加油站;中国石化", "Prov": "北京市", "City": "北京市", "Address": "京藏高速新元科技园东侧", "Operator": "中国石化" }, "geometry": { "type": "Point", "coordinates": [ 116.256919, 40.14646 ] } },
{ "type": "Feature", "properties": { "Name": "中国石化窦店加油站", "Lon_Lat": "116.078607,39.653291", "Longitude": 116.078607, "Latitude": 39.653291, "Gdtype": "汽车服务;加油站;中国石化", "Prov": "北京市", "City": "北京市", "Address": "窦店镇窦店村", "Operator": "中国石化" }, "geometry": { "type": "Point", "coordinates": [ 116.078607, 39.653291 ] } },
{ "type": "Feature", "properties": { "Name": "中国石化三阳加油站", "Lon_Lat": "116.139943,40.14667", "Longitude": 116.139943, "Latitude": 40.14667, "Gdtype": "汽车服务;加油站;中国石化", "Prov": "北京市", "City": "北京市", "Address": "阳坊镇北侧", "Operator": "中国石化" }, "geometry": { "type": "Point", "coordinates": [ 116.139943, 40.14667 ] } },
{ "type": "Feature", "properties": { "Name": "中国石化华龙加油站", "Lon_Lat": "116.688002,39.924496", "Longitude": 116.688002, "Latitude": 39.924496, "Gdtype": "汽车服务;加油站;中国石化", "Prov": "北京市", "City": "北京市", "Address": "龙旺庄村南", "Operator": "中国石化" }, "geometry": { "type": "Point", "coordinates": [ 116.688002, 39.924496 ] } },
{ "type": "Feature", "properties": { "Name": "中国石化加油站", "Lon_Lat": "116.472247,39.836946", "Longitude": 116.472247, "Latitude": 39.836946, "Gdtype": "汽车服务;加油站;中国石化", "Prov": "北京市", "City": "北京市", "Address": "东四环南路甲1号(平房)", "Operator": "中国石化" }, "geometry": { "type": "Point", "coordinates": [ 116.472247, 39.836946 ] } },
{ "type": "Feature", "properties": { "Name": "中国石化金星加油站", "Lon_Lat": "116.38036,39.771093", "Longitude": 116.38036, "Latitude": 39.771093, "Gdtype": "汽车服务;加油站;中国石化", "Prov": "北京市", "City": "北京市", "Address": "团河路", "Operator": "中国石化" }, "geometry": { "type": "Point", "coordinates": [ 116.38036, 39.771093 ] } },
{ "type": "Feature", "properties": { "Name": "中国石化东沙百胜加油站", "Lon_Lat": "116.29976,40.169053", "Longitude": 116.29976, "Latitude": 40.169053, "Gdtype": "汽车服务;加油站;中国石化", "Prov": "北京市", "City": "北京市", "Address": "东沙屯村", "Operator": "中国石化" }, "geometry": { "type": "Point", "coordinates": [ 116.29976, 40.169053 ] } },
{ "type": "Feature", "properties": { "Name": "中国石化成寿寺加油站", "Lon_Lat": "116.443679,39.858392", "Longitude": 116.443679, "Latitude": 39.858392, "Gdtype": "汽车服务;加油站;中国石化", "Prov": "北京市", "City": "北京市", "Address": "成寿寺方庄桥南东侧200(南三环东路方庄桥)家世界西面", "Operator": "中国石化" }, "geometry": { "type": "Point", "coordinates": [ 116.443679, 39.858392 ] } },
{ "type": "Feature", "properties": { "Name": "中国石化双利加油站", "Lon_Lat": "116.77444,40.244782", "Longitude": 116.77444, "Latitude": 40.244782, "Gdtype": "汽车服务;加油站;中国石化", "Prov": "北京市", "City": "北京市", "Address": "木林镇西侧100米处", "Operator": "中国石化" }, "geometry": { "type": "Point", "coordinates": [ 116.77444, 40.244782 ] } },
{ "type": "Feature", "properties": { "Name": "中国石化房山京石路加油站一站加油站", "Lon_Lat": "116.081079,39.628899", "Longitude": 116.081079, "Latitude": 39.628899, "Gdtype": "汽车服务;加油站;中国石化", "Prov": "北京市", "City": "北京市", "Address": "窦店镇丁各庄村西", "Operator": "中国石化" }, "geometry": { "type": "Point", "coordinates": [ 116.081079, 39.628899 ] } },
{ "type": "Feature", "properties": { "Name": "中国石化甘棠加油站", "Lon_Lat": "116.807271,39.854648", "Longitude": 116.807271, "Latitude": 39.854648, "Gdtype": "汽车服务;加油站;加油站", "Prov": "北京市", "City": "北京市", "Address": "潞城镇侉子店村西", "Operator": "中国石化" }, "geometry": { "type": "Point", "coordinates": [ 116.807271, 39.854648 ] } },
{ "type": "Feature", "properties": { "Name": "中国石化海宏加油站", "Lon_Lat": "116.657276,39.936788", "Longitude": 116.657276, "Latitude": 39.936788, "Gdtype": "汽车服务;加油站;中国石化", "Prov": "北京市", "City": "北京市", "Address": "永顺镇范庄村西", "Operator": "中国石化" }, "geometry": { "type": "Point", "coordinates": [ 116.657276, 39.936788 ] } },
{ "type": "Feature", "properties": { "Name": "中国石化加油站(暂停营业)", "Lon_Lat": "116.586823,40.118768", "Longitude": 116.586823, "Latitude": 40.118768, "Gdtype": "汽车服务;加油站;中国石化", "Prov": "北京市", "City": "北京市", "Address": "顺平路后沙峪段1号枯柳树环岛向东路北机场北线对面", "Operator": "中国石化" }, "geometry": { "type": "Point", "coordinates": [ 116.586823, 40.118768 ] } },
{ "type": "Feature", "properties": { "Name": "中国石化国凯加油站", "Lon_Lat": "116.468496,39.812302", "Longitude": 116.468496, "Latitude": 39.812302, "Gdtype": "汽车服务;加油站;中国石化", "Prov": "北京市", "City": "北京市", "Address": "旧宫镇小红门路成寿寺路南口", "Operator": "中国石化" }, "geometry": { "type": "Point", "coordinates": [ 116.468496, 39.812302 ] } },
{ "type": "Feature", "properties": { "Name": "中国石化三元回龙观加油站", "Lon_Lat": "116.322479,40.076421", "Longitude": 116.322479, "Latitude": 40.076421, "Gdtype": "汽车服务;加油站;中国石化", "Prov": "北京市", "City": "北京市", "Address": "回龙观西大街101号", "Operator": "中国石化" }, "geometry": { "type": "Point", "coordinates": [ 116.322479, 40.076421 ] } },
{ "type": "Feature", "properties": { "Name": "中国石化滨河路加油站", "Lon_Lat": "116.112866,39.93101", "Longitude": 116.112866, "Latitude": 39.93101, "Gdtype": "汽车服务;加油站;中国石化", "Prov": "北京市", "City": "北京市", "Address": "门头沟滨河路 (交通支队对面)", "Operator": "中国石化" }, "geometry": { "type": "Point", "coordinates": [ 116.112866, 39.93101 ] } },
{ "type": "Feature", "properties": { "Name": "中国石化友盛利达加油站", "Lon_Lat": "116.137578,39.60618", "Longitude": 116.137578, "Latitude": 39.60618, "Gdtype": "汽车服务;加油站;中国石化", "Prov": "北京市", "City": "北京市", "Address": "石村村北", "Operator": "中国石化" }, "geometry": { "type": "Point", "coordinates": [ 116.137578, 39.60618 ] } },
{ "type": "Feature", "properties": { "Name": "中国石化加油站(暂停营业)", "Lon_Lat": "115.959209,39.737195", "Longitude": 115.959209, "Latitude": 39.737195, "Gdtype": "汽车服务;加油站;中国石化", "Prov": "北京市", "City": "北京市", "Address": "向阳路30号", "Operator": "中国石化" }, "geometry": { "type": "Point", "coordinates": [ 115.959209, 39.737195 ] } },
{ "type": "Feature", "properties": { "Name": "中国石化南环加油站", "Lon_Lat": "116.636953,40.309084", "Longitude": 116.636953, "Latitude": 40.309084, "Gdtype": "汽车服务;加油站;中国石化", "Prov": "北京市", "City": "北京市", "Address": "南环路东段", "Operator": "中国石化" }, "geometry": { "type": "Point", "coordinates": [ 116.636953, 40.309084 ] } },
{ "type": "Feature", "properties": { "Name": "中国石化航桥加油站", "Lon_Lat": "116.585917,40.28839", "Longitude": 116.585917, "Latitude": 40.28839, "Gdtype": "汽车服务;加油站;中国石化", "Prov": "北京市", "City": "北京市", "Address": "前桥梓村东", "Operator": "中国石化" }, "geometry": { "type": "Point", "coordinates": [ 116.585917, 40.28839 ] } },
{ "type": "Feature", "properties": { "Name": "中国石化加油站", "Lon_Lat": "116.46259,39.792291", "Longitude": 116.46259, "Latitude": 39.792291, "Gdtype": "汽车服务;加油站;中国石化", "Prov": "北京市", "City": "北京市", "Address": "南五环服务区南侧", "Operator": "中国石化" }, "geometry": { "type": "Point", "coordinates": [ 116.46259, 39.792291 ] } },
{ "type": "Feature", "properties": { "Name": "中国石化三间房加油站", "Lon_Lat": "116.572485,39.914912", "Longitude": 116.572485, "Latitude": 39.914912, "Gdtype": "汽车服务;加油站;中国石化", "Prov": "北京市", "City": "北京市", "Address": "朝阳辅路(生物研究所北墙外)", "Operator": "中国石化" }, "geometry": { "type": "Point", "coordinates": [ 116.572485, 39.914912 ] } },
{ "type": "Feature", "properties": { "Name": "中国石化京宇加油站", "Lon_Lat": "117.07092,40.144489", "Longitude": 117.07092, "Latitude": 40.144489, "Gdtype": "汽车服务;加油站;中国石化", "Prov": "北京市", "City": "北京市", "Address": "鲁各庄村南", "Operator": "中国石化" }, "geometry": { "type": "Point", "coordinates": [ 117.07092, 40.144489 ] } },
{ "type": "Feature", "properties": { "Name": "中国石化华建加油站", "Lon_Lat": "116.281915,39.752591", "Longitude": 116.281915, "Latitude": 39.752591, "Gdtype": "汽车服务;加油站;中国石化", "Prov": "北京市", "City": "北京市", "Address": "黄村镇黄鹅路11号", "Operator": "中国石化" }, "geometry": { "type": "Point", "coordinates": [ 116.281915, 39.752591 ] } },
{ "type": "Feature", "properties": { "Name": "中国石化于家坟加油站(暂停营业)", "Lon_Lat": "116.433802,39.852533", "Longitude": 116.433802, "Latitude": 39.852533, "Gdtype": "汽车服务;加油站;中国石化", "Prov": "北京市", "City": "北京市", "Address": "铁匠营横1条22号(塑料泡沫有限公司对面)", "Operator": "中国石化" }, "geometry": { "type": "Point", "coordinates": [ 116.433802, 39.852533 ] } },
{ "type": "Feature", "properties": { "Name": "中国石化三元朝阳加油站(皮村路)", "Lon_Lat": "116.623136,39.987626", "Longitude": 116.623136, "Latitude": 39.987626, "Gdtype": "汽车服务;加油站;中国石化", "Prov": "北京市", "City": "北京市", "Address": "金盏乡皮村环岛西石化加油站", "Operator": "中国石化" }, "geometry": { "type": "Point", "coordinates": [ 116.623136, 39.987626 ] } },
{ "type": "Feature", "properties": { "Name": "中国石化加油站", "Lon_Lat": "117.005809,40.140081", "Longitude": 117.005809, "Latitude": 40.140081, "Gdtype": "汽车服务;加油站;中国石化", "Prov": "北京市", "City": "北京市", "Address": "云峰寺村", "Operator": "中国石化" }, "geometry": { "type": "Point", "coordinates": [ 117.005809, 40.140081 ] } },
{ "type": "Feature", "properties": { "Name": "中国石化超强力加油站", "Lon_Lat": "116.248,39.862532", "Longitude": 116.248, "Latitude": 39.862532, "Gdtype": "汽车服务;加油站;中国石化", "Prov": "北京市", "City": "北京市", "Address": "五里店小屯路南口300米", "Operator": "中国石化" }, "geometry": { "type": "Point", "coordinates": [ 116.248, 39.862532 ] } },
{ "type": "Feature", "properties": { "Name": "中国石化加油站", "Lon_Lat": "116.2437,39.854135", "Longitude": 116.2437, "Latitude": 39.854135, "Gdtype": "汽车服务;加油站;中国石化", "Prov": "北京市", "City": "北京市", "Address": "西五里店178号", "Operator": "中国石化" }, "geometry": { "type": "Point", "coordinates": [ 116.2437, 39.854135 ] } },
{ "type": "Feature", "properties": { "Name": "中国石化日坛加油站", "Lon_Lat": "116.440572,39.911988", "Longitude": 116.440572, "Latitude": 39.911988, "Gdtype": "汽车服务;加油站;中国石化", "Prov": "北京市", "City": "北京市", "Address": "建外大街日坛路9号", "Operator": "中国石化" }, "geometry": { "type": "Point", "coordinates": [ 116.440572, 39.911988 ] } },
{ "type": "Feature", "properties": { "Name": "中国石化白庙加油站", "Lon_Lat": "116.766436,39.943338", "Longitude": 116.766436, "Latitude": 39.943338, "Gdtype": "汽车服务;加油站;中国石化", "Prov": "北京市", "City": "北京市", "Address": "宋庄镇白庙村委会西1000米", "Operator": "中国石化" }, "geometry": { "type": "Point", "coordinates": [ 116.766436, 39.943338 ] } },
{ "type": "Feature", "properties": { "Name": "中国石化刘店加油站", "Lon_Lat": "117.021454,40.237324", "Longitude": 117.021454, "Latitude": 40.237324, "Gdtype": "汽车服务;加油站;中国石化", "Prov": "北京市", "City": "北京市", "Address": "刘店村", "Operator": "中国石化" }, "geometry": { "type": "Point", "coordinates": [ 117.021454, 40.237324 ] } },
{ "type": "Feature", "properties": { "Name": "中国石化丰华加油站", "Lon_Lat": "116.387787,39.842762", "Longitude": 116.387787, "Latitude": 39.842762, "Gdtype": "汽车服务;加油站;中国石化", "Prov": "北京市", "City": "北京市", "Address": "大红门西路13号(角门东地铁站C东南口步行340米)", "Operator": "中国石化" }, "geometry": { "type": "Point", "coordinates": [ 116.387787, 39.842762 ] } },
{ "type": "Feature", "properties": { "Name": "中国石化山城加油站", "Lon_Lat": "116.013462,39.791214", "Longitude": 116.013462, "Latitude": 39.791214, "Gdtype": "汽车服务;加油站;中国石化", "Prov": "北京市", "City": "北京市", "Address": "漫水河村", "Operator": "中国石化" }, "geometry": { "type": "Point", "coordinates": [ 116.013462, 39.791214 ] } },
{ "type": "Feature", "properties": { "Name": "中国石化石楼加油站", "Lon_Lat": "115.979225,39.646372", "Longitude": 115.979225, "Latitude": 39.646372, "Gdtype": "汽车服务;加油站;中国石化", "Prov": "北京市", "City": "北京市", "Address": "石楼村", "Operator": "中国石化" }, "geometry": { "type": "Point", "coordinates": [ 115.979225, 39.646372 ] } },
{ "type": "Feature", "properties": { "Name": "中国石化昌盛宏海加油站", "Lon_Lat": "116.106488,39.687127", "Longitude": 116.106488, "Latitude": 39.687127, "Gdtype": "汽车服务;加油站;中国石化", "Prov": "北京市", "City": "北京市", "Address": "阎村镇大十三里村西", "Operator": "中国石化" }, "geometry": { "type": "Point", "coordinates": [ 116.106488, 39.687127 ] } },
{ "type": "Feature", "properties": { "Name": "中国石化西关兴昌加油站", "Lon_Lat": "116.22412,40.206274", "Longitude": 116.22412, "Latitude": 40.206274, "Gdtype": "汽车服务;加油站;中国石化", "Prov": "北京市", "City": "北京市", "Address": "西关环岛南水屯村北", "Operator": "中国石化" }, "geometry": { "type": "Point", "coordinates": [ 116.22412, 40.206274 ] } },
{ "type": "Feature", "properties": { "Name": "中国石化中外运加油站", "Lon_Lat": "116.253908,39.858742", "Longitude": 116.253908, "Latitude": 39.858742, "Gdtype": "汽车服务;加油站;中国石化", "Prov": "北京市", "City": "北京市", "Address": "五里店260号,紧邻京实丰田4S店", "Operator": "中国石化" }, "geometry": { "type": "Point", "coordinates": [ 116.253908, 39.858742 ] } },
{ "type": "Feature", "properties": { "Name": "中国石化甘营加油站", "Lon_Lat": "117.224518,40.149662", "Longitude": 117.224518, "Latitude": 40.149662, "Gdtype": "汽车服务;加油站;中国石化", "Prov": "北京市", "City": "北京市", "Address": "南独乐河镇甘营村政府东50米路北", "Operator": "中国石化" }, "geometry": { "type": "Point", "coordinates": [ 117.224518, 40.149662 ] } },
{ "type": "Feature", "properties": { "Name": "中国石化精丽荣加油站", "Lon_Lat": "115.954037,40.426324", "Longitude": 115.954037, "Latitude": 40.426324, "Gdtype": "汽车服务;加油站;中国石化", "Prov": "北京市", "City": "北京市", "Address": "下屯村西(下屯桥东,延康路路东)", "Operator": "中国石化" }, "geometry": { "type": "Point", "coordinates": [ 115.954037, 40.426324 ] } },
{ "type": "Feature", "properties": { "Name": "中国石化三元亦庄加油站", "Lon_Lat": "116.449848,39.817547", "Longitude": 116.449848, "Latitude": 39.817547, "Gdtype": "汽车服务;加油站;中国石化", "Prov": "北京市", "City": "北京市", "Address": "旧宫镇吉百利路临11号", "Operator": "中国石化" }, "geometry": { "type": "Point", "coordinates": [ 116.449848, 39.817547 ] } },
{ "type": "Feature", "properties": { "Name": "中国石化燕通加油站", "Lon_Lat": "116.771673,39.715312", "Longitude": 116.771673, "Latitude": 39.715312, "Gdtype": "汽车服务;加油站;中国石化", "Prov": "北京市", "City": "北京市", "Address": "永乐店镇新西庄村", "Operator": "中国石化" }, "geometry": { "type": "Point", "coordinates": [ 116.771673, 39.715312 ] } },
{ "type": "Feature", "properties": { "Name": "中国石化松树峪加油站", "Lon_Lat": "117.148891,40.555852", "Longitude": 117.148891, "Latitude": 40.555852, "Gdtype": "汽车服务;加油站;中国石化", "Prov": "北京市", "City": "北京市", "Address": "松树峪村", "Operator": "中国石化" }, "geometry": { "type": "Point", "coordinates": [ 117.148891, 40.555852 ] } },
{ "type": "Feature", "properties": { "Name": "中国石化腾达加油站", "Lon_Lat": "116.610989,39.849269", "Longitude": 116.610989, "Latitude": 39.849269, "Gdtype": "汽车服务;加油站;中国石化", "Prov": "北京市", "City": "北京市", "Address": "台湖镇口子村临3号", "Operator": "中国石化" }, "geometry": { "type": "Point", "coordinates": [ 116.610989, 39.849269 ] } },
{ "type": "Feature", "properties": { "Name": "中国石化齐万方加油站", "Lon_Lat": "116.332338,39.704162", "Longitude": 116.332338, "Latitude": 39.704162, "Gdtype": "汽车服务;加油站;中国石化", "Prov": "北京市", "City": "北京市", "Address": "黄村矿业路6号", "Operator": "中国石化" }, "geometry": { "type": "Point", "coordinates": [ 116.332338, 39.704162 ] } },
{ "type": "Feature", "properties": { "Name": "中国石化奥运加油站", "Lon_Lat": "116.558021,40.089584", "Longitude": 116.558021, "Latitude": 40.089584, "Gdtype": "汽车服务;加油站;中国石化", "Prov": "北京市", "City": "北京市", "Address": "空港B区喇苏营西侧富亿通旁边", "Operator": "中国石化" }, "geometry": { "type": "Point", "coordinates": [ 116.558021, 40.089584 ] } },
{ "type": "Feature", "properties": { "Name": "中国石化兴礼洼加油站", "Lon_Lat": "116.063476,39.597791", "Longitude": 116.063476, "Latitude": 39.597791, "Gdtype": "汽车服务;加油站;中国石化", "Prov": "北京市", "City": "北京市", "Address": "琉璃河地区兴礼村", "Operator": "中国石化" }, "geometry": { "type": "Point", "coordinates": [ 116.063476, 39.597791 ] } },
{ "type": "Feature", "properties": { "Name": "中国石化靳家堡加油站", "Lon_Lat": "115.963035,40.52084", "Longitude": 115.963035, "Latitude": 40.52084, "Gdtype": "汽车服务;加油站;中国石化", "Prov": "北京市", "City": "北京市", "Address": "京银路附近", "Operator": "中国石化" }, "geometry": { "type": "Point", "coordinates": [ 115.963035, 40.52084 ] } },
{ "type": "Feature", "properties": { "Name": "中国石化宛丰加油站", "Lon_Lat": "116.207901,39.845091", "Longitude": 116.207901, "Latitude": 39.845091, "Gdtype": "汽车服务;加油站;中国石化", "Prov": "北京市", "City": "北京市", "Address": "卢沟桥桥西街159号", "Operator": "中国石化" }, "geometry": { "type": "Point", "coordinates": [ 116.207901, 39.845091 ] } },
{ "type": "Feature", "properties": { "Name": "中国石化崇文门加油站", "Lon_Lat": "116.421177,39.900272", "Longitude": 116.421177, "Latitude": 39.900272, "Gdtype": "汽车服务;加油站;中国石化", "Prov": "北京市", "City": "北京市", "Address": "崇文门东大街甲22号", "Operator": "中国石化" }, "geometry": { "type": "Point", "coordinates": [ 116.421177, 39.900272 ] } },
{ "type": "Feature", "properties": { "Name": "中国石化燕东加油站", "Lon_Lat": "116.196283,39.711671", "Longitude": 116.196283, "Latitude": 39.711671, "Gdtype": "汽车服务;加油站;中国石化", "Prov": "北京市", "City": "北京市", "Address": "长阳镇葫芦垡村西", "Operator": "中国石化" }, "geometry": { "type": "Point", "coordinates": [ 116.196283, 39.711671 ] } },
{ "type": "Feature", "properties": { "Name": "中国石化加油站", "Lon_Lat": "116.346533,39.857003", "Longitude": 116.346533, "Latitude": 39.857003, "Gdtype": "汽车服务;加油站;中国石化", "Prov": "北京市", "City": "北京市", "Address": [ ], "Operator": "中国石化" }, "geometry": { "type": "Point", "coordinates": [ 116.346533, 39.857003 ] } },
{ "type": "Feature", "properties": { "Name": "中国石化延柏加油站", "Lon_Lat": "116.079107,40.528172", "Longitude": 116.079107, "Latitude": 40.528172, "Gdtype": "汽车服务;加油站;中国石化", "Prov": "北京市", "City": "北京市", "Address": "大柏老村", "Operator": "中国石化" }, "geometry": { "type": "Point", "coordinates": [ 116.079107, 40.528172 ] } },
{ "type": "Feature", "properties": { "Name": "中国石化大山子加油站", "Lon_Lat": "116.489179,39.978936", "Longitude": 116.489179, "Latitude": 39.978936, "Gdtype": "汽车服务;加油站;中国石化", "Prov": "北京市", "City": "北京市", "Address": "酒仙桥路13号", "Operator": "中国石化" }, "geometry": { "type": "Point", "coordinates": [ 116.489179, 39.978936 ] } },
{ "type": "Feature", "properties": { "Name": "中国石化巩华加油站", "Lon_Lat": "116.244993,40.121829", "Longitude": 116.244993, "Latitude": 40.121829, "Gdtype": "汽车服务;加油站;中国石化", "Prov": "北京市", "City": "北京市", "Address": "沙阳路沙河西路北50米", "Operator": "中国石化" }, "geometry": { "type": "Point", "coordinates": [ 116.244993, 40.121829 ] } },
{ "type": "Feature", "properties": { "Name": "中国石化龙禹加油站(密云区水政监察大队西)", "Lon_Lat": "116.832254,40.346394", "Longitude": 116.832254, "Latitude": 40.346394, "Gdtype": "汽车服务;加油站;中国石化", "Prov": "北京市", "City": "北京市", "Address": "寨镇潮白河大桥西侧", "Operator": "中国石化" }, "geometry": { "type": "Point", "coordinates": [ 116.832254, 40.346394 ] } },
{ "type": "Feature", "properties": { "Name": "中国石化加油站(暂停营业)", "Lon_Lat": "116.115348,39.651624", "Longitude": 116.115348, "Latitude": 39.651624, "Gdtype": "汽车服务;加油站;中国石化", "Prov": "北京市", "City": "北京市", "Address": "005县道,窦店镇房窑路与紫码路交汇处向北路东(交道中心家园北)", "Operator": "中国石化" }, "geometry": { "type": "Point", "coordinates": [ 116.115348, 39.651624 ] } },
{ "type": "Feature", "properties": { "Name": "中国石化沙坨加油站", "Lon_Lat": "116.413899,40.207197", "Longitude": 116.413899, "Latitude": 40.207197, "Gdtype": "汽车服务;加油站;中国石化", "Prov": "北京市", "City": "北京市", "Address": "沙坨村西", "Operator": "中国石化" }, "geometry": { "type": "Point", "coordinates": [ 116.413899, 40.207197 ] } },
{ "type": "Feature", "properties": { "Name": "中国石化三元七里渠加油站", "Lon_Lat": "116.305284,40.112258", "Longitude": 116.305284, "Latitude": 40.112258, "Gdtype": "汽车服务;加油站;中国石化", "Prov": "北京市", "City": "北京市", "Address": "定泗路与豆各庄路交汇处向东路北,冠芳园附近", "Operator": "中国石化" }, "geometry": { "type": "Point", "coordinates": [ 116.305284, 40.112258 ] } },
{ "type": "Feature", "properties": { "Name": "中国石化周家巷北加油站", "Lon_Lat": "116.135674,40.062541", "Longitude": 116.135674, "Latitude": 40.062541, "Gdtype": "汽车服务;加油站;中国石化", "Prov": "北京市", "City": "北京市", "Address": "周家巷村北六环主路16.5-17.5公里处北", "Operator": "中国石化" }, "geometry": { "type": "Point", "coordinates": [ 116.135674, 40.062541 ] } },
{ "type": "Feature", "properties": { "Name": "中国石化通州副中心加油站(不对外开放)", "Lon_Lat": "116.714008,39.906854", "Longitude": 116.714008, "Latitude": 39.906854, "Gdtype": "汽车服务;加油站;中国石化", "Prov": "北京市", "City": "北京市", "Address": "宏安街与涌翠西路交叉口", "Operator": "中国石化" }, "geometry": { "type": "Point", "coordinates": [ 116.714008, 39.906854 ] } },
{ "type": "Feature", "properties": { "Name": "中国石化加油站", "Lon_Lat": "116.423601,39.991124", "Longitude": 116.423601, "Latitude": 39.991124, "Gdtype": "汽车服务;加油站;中国石化", "Prov": "北京市", "City": "北京市", "Address": "北四环东路101号", "Operator": "中国石化" }, "geometry": { "type": "Point", "coordinates": [ 116.423601, 39.991124 ] } },
{ "type": "Feature", "properties": { "Name": "中国石化石美泉加油站", "Lon_Lat": "116.248447,39.897597", "Longitude": 116.248447, "Latitude": 39.897597, "Gdtype": "汽车服务;加油站;中国石化", "Prov": "北京市", "City": "北京市", "Address": "玉泉路南石槽", "Operator": "中国石化" }, "geometry": { "type": "Point", "coordinates": [ 116.248447, 39.897597 ] } },
{ "type": "Feature", "properties": { "Name": "中国石化龙禹玉泉加油站", "Lon_Lat": "116.257155,39.973896", "Longitude": 116.257155, "Latitude": 39.973896, "Gdtype": "汽车服务;加油站;中国石化", "Prov": "北京市", "City": "北京市", "Address": "四季青镇闵庄路3号(麦当劳得来速旁)", "Operator": "中国石化" }, "geometry": { "type": "Point", "coordinates": [ 116.257155, 39.973896 ] } },
{ "type": "Feature", "properties": { "Name": "中国石化白家庄加油站", "Lon_Lat": "116.464808,39.928678", "Longitude": 116.464808, "Latitude": 39.928678, "Gdtype": "汽车服务;加油站;中国石化", "Prov": "北京市", "City": "北京市", "Address": "白家庄东里甲23号", "Operator": "中国石化" }, "geometry": { "type": "Point", "coordinates": [ 116.464808, 39.928678 ] } },
{ "type": "Feature", "properties": { "Name": "中国石化古北口加油站", "Lon_Lat": "117.162586,40.694523", "Longitude": 117.162586, "Latitude": 40.694523, "Gdtype": "汽车服务;加油站;中国石化", "Prov": "北京市", "City": "北京市", "Address": "古北口镇政府西侧100米处", "Operator": "中国石化" }, "geometry": { "type": "Point", "coordinates": [ 117.162586, 40.694523 ] } },
{ "type": "Feature", "properties": { "Name": "中国石化汤顺加油站", "Lon_Lat": "116.375763,40.174130", "Longitude": 116.375763, "Latitude": 40.17413, "Gdtype": "汽车服务;加油站;加油站", "Prov": "北京市", "City": "北京市", "Address": "小汤山镇大汤山村", "Operator": "中国石化" }, "geometry": { "type": "Point", "coordinates": [ 116.375763, 40.17413 ] } },
{ "type": "Feature", "properties": { "Name": "中国石化益特诺加油站", "Lon_Lat": "116.53545,39.82383", "Longitude": 116.53545, "Latitude": 39.82383, "Gdtype": "汽车服务;加油站;中国石化", "Prov": "北京市", "City": "北京市", "Address": "亦庄镇渠羊路北", "Operator": "中国石化" }, "geometry": { "type": "Point", "coordinates": [ 116.53545, 39.82383 ] } },
{ "type": "Feature", "properties": { "Name": "中国石化加油站", "Lon_Lat": "116.462103,39.792829", "Longitude": 116.462103, "Latitude": 39.792829, "Gdtype": "汽车服务;加油站;中国石化", "Prov": "北京市", "City": "北京市", "Address": "Ｓ５０南五环与加油站交叉口东北约180米", "Operator": "中国石化" }, "geometry": { "type": "Point", "coordinates": [ 116.462103, 39.792829 ] } },
{ "type": "Feature", "properties": { "Name": "中国石化西关加油站", "Lon_Lat": "116.218213,40.216754", "Longitude": 116.218213, "Latitude": 40.216754, "Gdtype": "汽车服务;加油站;中国石化", "Prov": "北京市", "City": "北京市", "Address": "西关槐树巷南", "Operator": "中国石化" }, "geometry": { "type": "Point", "coordinates": [ 116.218213, 40.216754 ] } },
{ "type": "Feature", "properties": { "Name": "中国石化大灰厂加油站", "Lon_Lat": "116.1187,39.845485", "Longitude": 116.1187, "Latitude": 39.845485, "Gdtype": "汽车服务;加油站;中国石化", "Prov": "北京市", "City": "北京市", "Address": "大灰厂村南", "Operator": "中国石化" }, "geometry": { "type": "Point", "coordinates": [ 116.1187, 39.845485 ] } },
{ "type": "Feature", "properties": { "Name": "中国石化欣怡乐加油站", "Lon_Lat": "116.632532,39.891717", "Longitude": 116.632532, "Latitude": 39.891717, "Gdtype": "汽车服务;加油站;中国石化", "Prov": "北京市", "City": "北京市", "Address": "李老庄村", "Operator": "中国石化" }, "geometry": { "type": "Point", "coordinates": [ 116.632532, 39.891717 ] } },
{ "type": "Feature", "properties": { "Name": "中国石化陵石加油站(暂停营业)", "Lon_Lat": "116.213506,40.243833", "Longitude": 116.213506, "Latitude": 40.243833, "Gdtype": "汽车服务;加油站;中国石化", "Prov": "北京市", "City": "北京市", "Address": "涧头村东", "Operator": "中国石化" }, "geometry": { "type": "Point", "coordinates": [ 116.213506, 40.243833 ] } },
{ "type": "Feature", "properties": { "Name": "中国石化城市联建加油站", "Lon_Lat": "116.554072,39.868264", "Longitude": 116.554072, "Latitude": 39.868264, "Gdtype": "汽车服务;加油站;中国石化", "Prov": "北京市", "City": "北京市", "Address": "王四营乡道口村白鹿司路南", "Operator": "中国石化" }, "geometry": { "type": "Point", "coordinates": [ 116.554072, 39.868264 ] } },
{ "type": "Feature", "properties": { "Name": "中国石化幽燕加油站", "Lon_Lat": "116.056588,39.627355", "Longitude": 116.056588, "Latitude": 39.627355, "Gdtype": "汽车服务;加油站;中国石化", "Prov": "北京市", "City": "北京市", "Address": "琉璃河地区董家林村", "Operator": "中国石化" }, "geometry": { "type": "Point", "coordinates": [ 116.056588, 39.627355 ] } },
{ "type": "Feature", "properties": { "Name": "中国石化观音堂东加油站", "Lon_Lat": "116.548647,39.887574", "Longitude": 116.548647, "Latitude": 39.887574, "Gdtype": "汽车服务;加油站;中国石化", "Prov": "北京市", "City": "北京市", "Address": "南花园村五环路,观音堂段东侧", "Operator": "中国石化" }, "geometry": { "type": "Point", "coordinates": [ 116.548647, 39.887574 ] } },
{ "type": "Feature", "properties": { "Name": "中国石化融兴街加油站", "Lon_Lat": "116.500395,39.717775", "Longitude": 116.500395, "Latitude": 39.717775, "Gdtype": "汽车服务;加油站;中国石化", "Prov": "北京市", "City": "北京市", "Address": "经济技术开发区融兴南二街19号院1号", "Operator": "中国石化" }, "geometry": { "type": "Point", "coordinates": [ 116.500395, 39.717775 ] } },
{ "type": "Feature", "properties": { "Name": "中国石化加油站", "Lon_Lat": "116.645403,40.237539", "Longitude": 116.645403, "Latitude": 40.237539, "Gdtype": "汽车服务;加油站;中国石化", "Prov": "北京市", "City": "北京市", "Address": "牛山地区富各庄村东", "Operator": "中国石化" }, "geometry": { "type": "Point", "coordinates": [ 116.645403, 40.237539 ] } },
{ "type": "Feature", "properties": { "Name": "中国石化觅康加油站", "Lon_Lat": "116.88284,39.71913", "Longitude": 116.88284, "Latitude": 39.71913, "Gdtype": "汽车服务;加油站;加油站", "Prov": "北京市", "City": "北京市", "Address": "漷县镇觅子店村北口", "Operator": "中国石化" }, "geometry": { "type": "Point", "coordinates": [ 116.88284, 39.71913 ] } },
{ "type": "Feature", "properties": { "Name": "中国石化南环加油站(南华大街)", "Lon_Lat": "116.637081,40.308984", "Longitude": 116.637081, "Latitude": 40.308984, "Gdtype": "汽车服务;加油站;中国石化", "Prov": "北京市", "City": "北京市", "Address": "南华大街3号", "Operator": "中国石化" }, "geometry": { "type": "Point", "coordinates": [ 116.637081, 40.308984 ] } },
{ "type": "Feature", "properties": { "Name": "中国石化平谷平安加油站", "Lon_Lat": "117.164877,40.125178", "Longitude": 117.164877, "Latitude": 40.125178, "Gdtype": "汽车服务;加油站;中国石化", "Prov": "北京市", "City": "北京市", "Address": "夏各庄镇安固村北", "Operator": "中国石化" }, "geometry": { "type": "Point", "coordinates": [ 117.164877, 40.125178 ] } },
{ "type": "Feature", "properties": { "Name": "中国石化燕北加油站(暂停营业)", "Lon_Lat": "116.056467,40.425878", "Longitude": 116.056467, "Latitude": 40.425878, "Gdtype": "汽车服务;加油站;中国石化", "Prov": "北京市", "City": "北京市", "Address": "西二道河乡西红山村北", "Operator": "中国石化" }, "geometry": { "type": "Point", "coordinates": [ 116.056467, 40.425878 ] } },
{ "type": "Feature", "properties": { "Name": "中国石化加油站(暂停营业)", "Lon_Lat": "116.203219,39.752249", "Longitude": 116.203219, "Latitude": 39.752249, "Gdtype": "汽车服务;加油站;中国石化", "Prov": "北京市", "City": "北京市", "Address": "长阳镇长阳路北侧", "Operator": "中国石化" }, "geometry": { "type": "Point", "coordinates": [ 116.203219, 39.752249 ] } },
{ "type": "Feature", "properties": { "Name": "中国石化南辛庄加油站", "Lon_Lat": "116.45197,39.832007", "Longitude": 116.45197, "Latitude": 39.832007, "Gdtype": "汽车服务;加油站;中国石化", "Prov": "北京市", "City": "北京市", "Address": "南四环中路72号院1号", "Operator": "中国石化" }, "geometry": { "type": "Point", "coordinates": [ 116.45197, 39.832007 ] } },
{ "type": "Feature", "properties": { "Name": "中国石化海淀京铁加油站", "Lon_Lat": "116.332547,39.99065", "Longitude": 116.332547, "Latitude": 39.99065, "Gdtype": "汽车服务;加油站;中国石化", "Prov": "北京市", "City": "北京市", "Address": "中关村东路3号", "Operator": "中国石化" }, "geometry": { "type": "Point", "coordinates": [ 116.332547, 39.99065 ] } },
{ "type": "Feature", "properties": { "Name": "中国石化加油站", "Lon_Lat": "116.269003,40.128934", "Longitude": 116.269003, "Latitude": 40.128934, "Gdtype": "汽车服务;加油站;中国石化", "Prov": "北京市", "City": "北京市", "Address": "沙河镇巩华城大街67号", "Operator": "中国石化" }, "geometry": { "type": "Point", "coordinates": [ 116.269003, 40.128934 ] } },
{ "type": "Feature", "properties": { "Name": "中国石化新兴加油站", "Lon_Lat": "115.929281,39.644096", "Longitude": 115.929281, "Latitude": 39.644096, "Gdtype": "汽车服务;加油站;中国石化", "Prov": "北京市", "City": "北京市", "Address": "周口店镇房易路南韩继村路段路东", "Operator": "中国石化" }, "geometry": { "type": "Point", "coordinates": [ 115.929281, 39.644096 ] } },
{ "type": "Feature", "properties": { "Name": "中国石化永乐店服务区加油站", "Lon_Lat": "116.810044,39.643390", "Longitude": 116.810044, "Latitude": 39.64339, "Gdtype": "汽车服务;加油站;中国石化", "Prov": "北京市", "City": "北京市", "Address": "京津高速附近", "Operator": "中国石化" }, "geometry": { "type": "Point", "coordinates": [ 116.810044, 39.64339 ] } },
{ "type": "Feature", "properties": { "Name": "中国石化华山中原加油站", "Lon_Lat": "117.075898,40.283274", "Longitude": 117.075898, "Latitude": 40.283274, "Gdtype": "汽车服务;加油站;中国石化", "Prov": "北京市", "City": "北京市", "Address": "大华山村", "Operator": "中国石化" }, "geometry": { "type": "Point", "coordinates": [ 117.075898, 40.283274 ] } },
{ "type": "Feature", "properties": { "Name": "中国石化昌平北方加油站(满白路)", "Lon_Lat": "116.232659,40.183975", "Longitude": 116.232659, "Latitude": 40.183975, "Gdtype": "汽车服务;加油站;中国石化", "Prov": "北京市", "City": "北京市", "Address": [ ], "Operator": "中国石化" }, "geometry": { "type": "Point", "coordinates": [ 116.232659, 40.183975 ] } },
{ "type": "Feature", "properties": { "Name": "中国石化迪生加油站", "Lon_Lat": "116.635638,40.264462", "Longitude": 116.635638, "Latitude": 40.264462, "Gdtype": "汽车服务;加油站;中国石化", "Prov": "北京市", "City": "北京市", "Address": "庙城镇赵各庄路口西侧", "Operator": "中国石化" }, "geometry": { "type": "Point", "coordinates": [ 116.635638, 40.264462 ] } },
{ "type": "Feature", "properties": { "Name": "中国石化东风街加油站", "Lon_Lat": "115.965955,39.759535", "Longitude": 115.965955, "Latitude": 39.759535, "Gdtype": "汽车服务;加油站;中国石化", "Prov": "北京市", "City": "北京市", "Address": "燕山双泉路1号", "Operator": "中国石化" }, "geometry": { "type": "Point", "coordinates": [ 115.965955, 39.759535 ] } },
{ "type": "Feature", "properties": { "Name": "中国石化华京顺加油站", "Lon_Lat": "116.620862,40.118078", "Longitude": 116.620862, "Latitude": 40.118078, "Gdtype": "汽车服务;加油站;中国石化", "Prov": "北京市", "City": "北京市", "Address": "南法信顺平路望泉桥西侧路北100米", "Operator": "中国石化" }, "geometry": { "type": "Point", "coordinates": [ 116.620862, 40.118078 ] } },
{ "type": "Feature", "properties": { "Name": "中国石化长操加油站", "Lon_Lat": "115.786133,39.804034", "Longitude": 115.786133, "Latitude": 39.804034, "Gdtype": "汽车服务;加油站;中国石化", "Prov": "北京市", "City": "北京市", "Address": "京昆路与108国道复线交叉口东北100米", "Operator": "中国石化" }, "geometry": { "type": "Point", "coordinates": [ 115.786133, 39.804034 ] } },
{ "type": "Feature", "properties": { "Name": "中国石化百善南加油站", "Lon_Lat": "116.322381,40.174024", "Longitude": 116.322381, "Latitude": 40.174024, "Gdtype": "汽车服务;加油站;中国石化", "Prov": "北京市", "City": "北京市", "Address": "百善北六环主路175-176公里南侧", "Operator": "中国石化" }, "geometry": { "type": "Point", "coordinates": [ 116.322381, 40.174024 ] } },
{ "type": "Feature", "properties": { "Name": "中国石化太平中孚加油站", "Lon_Lat": "116.167963,39.722781", "Longitude": 116.167963, "Latitude": 39.722781, "Gdtype": "汽车服务;加油站;加油站", "Prov": "北京市", "City": "北京市", "Address": "良乡地区东羊庄村南", "Operator": "中国石化" }, "geometry": { "type": "Point", "coordinates": [ 116.167963, 39.722781 ] } },
{ "type": "Feature", "properties": { "Name": "中国石化太师屯服务区加油站", "Lon_Lat": "117.154760,40.560831", "Longitude": 117.15476, "Latitude": 40.560831, "Gdtype": "汽车服务;加油站;中国石化", "Prov": "北京市", "City": "北京市", "Address": "太师屯镇京承高速太师屯服务区内北侧", "Operator": "中国石化" }, "geometry": { "type": "Point", "coordinates": [ 117.15476, 40.560831 ] } },
{ "type": "Feature", "properties": { "Name": "中国石化永来顺加油站", "Lon_Lat": "116.155068,40.527413", "Longitude": 116.155068, "Latitude": 40.527413, "Gdtype": "汽车服务;加油站;中国石化", "Prov": "北京市", "City": "北京市", "Address": "西关村北", "Operator": "中国石化" }, "geometry": { "type": "Point", "coordinates": [ 116.155068, 40.527413 ] } },
{ "type": "Feature", "properties": { "Name": "中国石化展览路加油站", "Lon_Lat": "116.344462,39.927019", "Longitude": 116.344462, "Latitude": 39.927019, "Gdtype": "汽车服务;加油站;中国石化", "Prov": "北京市", "City": "北京市", "Address": "百万庄南口34号", "Operator": "中国石化" }, "geometry": { "type": "Point", "coordinates": [ 116.344462, 39.927019 ] } },
{ "type": "Feature", "properties": { "Name": "中国石化顺锦加油站", "Lon_Lat": "116.616602,40.15542", "Longitude": 116.616602, "Latitude": 40.15542, "Gdtype": "汽车服务;加油站;中国石化", "Prov": "北京市", "City": "北京市", "Address": "马坡地区衙门村", "Operator": "中国石化" }, "geometry": { "type": "Point", "coordinates": [ 116.616602, 40.15542 ] } },
{ "type": "Feature", "properties": { "Name": "中国石化密溪路加油站", "Lon_Lat": "116.840976,40.465939", "Longitude": 116.840976, "Latitude": 40.465939, "Gdtype": "汽车服务;加油站;中国石化", "Prov": "北京市", "City": "北京市", "Address": "溪翁庄村南", "Operator": "中国石化" }, "geometry": { "type": "Point", "coordinates": [ 116.840976, 40.465939 ] } },
{ "type": "Feature", "properties": { "Name": "中国石化高井加油站", "Lon_Lat": "116.538016,39.91571", "Longitude": 116.538016, "Latitude": 39.91571, "Gdtype": "汽车服务;加油站;中国石化", "Prov": "北京市", "City": "北京市", "Address": "朝阳路民航医院东侧700米", "Operator": "中国石化" }, "geometry": { "type": "Point", "coordinates": [ 116.538016, 39.91571 ] } },
{ "type": "Feature", "properties": { "Name": "中国石化和平里加油站", "Lon_Lat": "116.411728,39.959437", "Longitude": 116.411728, "Latitude": 39.959437, "Gdtype": "汽车服务;加油站;中国石化", "Prov": "北京市", "City": "北京市", "Address": "和平里北街23号", "Operator": "中国石化" }, "geometry": { "type": "Point", "coordinates": [ 116.411728, 39.959437 ] } },
{ "type": "Feature", "properties": { "Name": "中国石化姚家园加油站", "Lon_Lat": "116.494000,39.933561", "Longitude": 116.494, "Latitude": 39.933561, "Gdtype": "汽车服务;加油站;中国石化", "Prov": "北京市", "City": "北京市", "Address": "苇子坑100号", "Operator": "中国石化" }, "geometry": { "type": "Point", "coordinates": [ 116.494, 39.933561 ] } },
{ "type": "Feature", "properties": { "Name": "中国石化国普加油站", "Lon_Lat": "116.056542,39.705227", "Longitude": 116.056542, "Latitude": 39.705227, "Gdtype": "汽车服务;加油站;中国石化", "Prov": "北京市", "City": "北京市", "Address": "西坟村东", "Operator": "中国石化" }, "geometry": { "type": "Point", "coordinates": [ 116.056542, 39.705227 ] } },
{ "type": "Feature", "properties": { "Name": "中国石化加油站", "Lon_Lat": "116.799192,40.357171", "Longitude": 116.799192, "Latitude": 40.357171, "Gdtype": "汽车服务;加油站;中国石化", "Prov": "北京市", "City": "北京市", "Address": "十里堡镇", "Operator": "中国石化" }, "geometry": { "type": "Point", "coordinates": [ 116.799192, 40.357171 ] } },
{ "type": "Feature", "properties": { "Name": "中国石化燕云加油站", "Lon_Lat": "115.843725,39.594161", "Longitude": 115.843725, "Latitude": 39.594161, "Gdtype": "汽车服务;加油站;中国石化", "Prov": "北京市", "City": "北京市", "Address": "三座庵村", "Operator": "中国石化" }, "geometry": { "type": "Point", "coordinates": [ 115.843725, 39.594161 ] } },
{ "type": "Feature", "properties": { "Name": "中国石化建飞翔加油站", "Lon_Lat": "115.981893,39.656887", "Longitude": 115.981893, "Latitude": 39.656887, "Gdtype": "汽车服务;加油站;中国石化", "Prov": "北京市", "City": "北京市", "Address": "石楼镇北大桥西", "Operator": "中国石化" }, "geometry": { "type": "Point", "coordinates": [ 115.981893, 39.656887 ] } },
{ "type": "Feature", "properties": { "Name": "中国石化世博加油站", "Lon_Lat": "116.289343,40.148856", "Longitude": 116.289343, "Latitude": 40.148856, "Gdtype": "汽车服务;加油站;中国石化", "Prov": "北京市", "City": "北京市", "Address": "丰善村(沙河地铁站B2东口步行240米)", "Operator": "中国石化" }, "geometry": { "type": "Point", "coordinates": [ 116.289343, 40.148856 ] } },
{ "type": "Feature", "properties": { "Name": "中国石化劲松加油站", "Lon_Lat": "116.446802,39.878507", "Longitude": 116.446802, "Latitude": 39.878507, "Gdtype": "汽车服务;加油站;中国石化", "Prov": "北京市", "City": "北京市", "Address": "劲松七区725号临1号楼", "Operator": "中国石化" }, "geometry": { "type": "Point", "coordinates": [ 116.446802, 39.878507 ] } },
{ "type": "Feature", "properties": { "Name": "中国石化鑫溪凯旋北方加油站", "Lon_Lat": "116.849582,40.387234", "Longitude": 116.849582, "Latitude": 40.387234, "Gdtype": "汽车服务;加油站;中国石化", "Prov": "北京市", "City": "北京市", "Address": "密溪路东侧", "Operator": "中国石化" }, "geometry": { "type": "Point", "coordinates": [ 116.849582, 40.387234 ] } },
{ "type": "Feature", "properties": { "Name": "中国石化燕山路加油站(自助站)", "Lon_Lat": "116.028627,39.721800", "Longitude": 116.028627, "Latitude": 39.7218, "Gdtype": "汽车服务;加油站;中国石化", "Prov": "北京市", "City": "北京市", "Address": [ ], "Operator": "中国石化" }, "geometry": { "type": "Point", "coordinates": [ 116.028627, 39.7218 ] } },
{ "type": "Feature", "properties": { "Name": "中国石化京航加油站", "Lon_Lat": "116.408994,40.177866", "Longitude": 116.408994, "Latitude": 40.177866, "Gdtype": "汽车服务;加油站;中国石化", "Prov": "北京市", "City": "北京市", "Address": "大柳树村东", "Operator": "中国石化" }, "geometry": { "type": "Point", "coordinates": [ 116.408994, 40.177866 ] } },
{ "type": "Feature", "properties": { "Name": "中国石化奥运加油站", "Lon_Lat": "116.557845,40.090162", "Longitude": 116.557845, "Latitude": 40.090162, "Gdtype": "汽车服务;加油站;中国石化", "Prov": "北京市", "City": "北京市", "Address": "京密路西侧", "Operator": "中国石化" }, "geometry": { "type": "Point", "coordinates": [ 116.557845, 40.090162 ] } },
{ "type": "Feature", "properties": { "Name": "中国石化长子营加油站", "Lon_Lat": "116.592616,39.684221", "Longitude": 116.592616, "Latitude": 39.684221, "Gdtype": "汽车服务;加油站;中国石化", "Prov": "北京市", "City": "北京市", "Address": "北京市大兴区长子营镇三八桥北", "Operator": "中国石化" }, "geometry": { "type": "Point", "coordinates": [ 116.592616, 39.684221 ] } },
{ "type": "Feature", "properties": { "Name": "中国石化熊畅加油站", "Lon_Lat": "117.13302,40.286635", "Longitude": 117.13302, "Latitude": 40.286635, "Gdtype": "汽车服务;加油站;中国石化", "Prov": "北京市", "City": "北京市", "Address": "熊儿寨乡熊南路与平程路交汇处路东", "Operator": "中国石化" }, "geometry": { "type": "Point", "coordinates": [ 117.13302, 40.286635 ] } },
{ "type": "Feature", "properties": { "Name": "中国石化八里桥加油站", "Lon_Lat": "116.624924,39.905971", "Longitude": 116.624924, "Latitude": 39.905971, "Gdtype": "汽车服务;加油站;中国石化", "Prov": "北京市", "City": "北京市", "Address": "八里桥南街8号", "Operator": "中国石化" }, "geometry": { "type": "Point", "coordinates": [ 116.624924, 39.905971 ] } },
{ "type": "Feature", "properties": { "Name": "中国石化九龙加油站", "Lon_Lat": "116.712522,40.099761", "Longitude": 116.712522, "Latitude": 40.099761, "Gdtype": "汽车服务;加油站;中国石化", "Prov": "北京市", "City": "北京市", "Address": "河南村东", "Operator": "中国石化" }, "geometry": { "type": "Point", "coordinates": [ 116.712522, 40.099761 ] } },
{ "type": "Feature", "properties": { "Name": "中国石化分钟寺加油站", "Lon_Lat": "116.447014,39.859485", "Longitude": 116.447014, "Latitude": 39.859485, "Gdtype": "汽车服务;加油站;中国石化", "Prov": "北京市", "City": "北京市", "Address": "南三环东路13号", "Operator": "中国石化" }, "geometry": { "type": "Point", "coordinates": [ 116.447014, 39.859485 ] } },
{ "type": "Feature", "properties": { "Name": "中国石化京实永发加油站", "Lon_Lat": "116.418064,40.003367", "Longitude": 116.418064, "Latitude": 40.003367, "Gdtype": "汽车服务;加油站;中国石化", "Prov": "北京市", "City": "北京市", "Address": "安外大屯(北郊灌瓶厂)西南侧", "Operator": "中国石化" }, "geometry": { "type": "Point", "coordinates": [ 116.418064, 40.003367 ] } },
{ "type": "Feature", "properties": { "Name": "中国石化三间房东路加油站", "Lon_Lat": "116.577678,39.91758", "Longitude": 116.577678, "Latitude": 39.91758, "Gdtype": "汽车服务;加油站;中国石化", "Prov": "北京市", "City": "北京市", "Address": "三间房东路5号", "Operator": "中国石化" }, "geometry": { "type": "Point", "coordinates": [ 116.577678, 39.91758 ] } },
{ "type": "Feature", "properties": { "Name": "中国石化玉泉加油站(暂停营业)", "Lon_Lat": "116.090837,39.976574", "Longitude": 116.090837, "Latitude": 39.976574, "Gdtype": "汽车服务;加油站;中国石化", "Prov": "北京市", "City": "北京市", "Address": "龙泉务村南加油站", "Operator": "中国石化" }, "geometry": { "type": "Point", "coordinates": [ 116.090837, 39.976574 ] } },
{ "type": "Feature", "properties": { "Name": "中国石化中怀加油站", "Lon_Lat": "116.716735,40.32931", "Longitude": 116.716735, "Latitude": 40.32931, "Gdtype": "汽车服务;加油站;中国石化", "Prov": "北京市", "City": "北京市", "Address": "驸马庄村", "Operator": "中国石化" }, "geometry": { "type": "Point", "coordinates": [ 116.716735, 40.32931 ] } },
{ "type": "Feature", "properties": { "Name": "中国石化京福加油站", "Lon_Lat": "116.071077,39.723775", "Longitude": 116.071077, "Latitude": 39.723775, "Gdtype": "汽车服务;加油站;中国石化", "Prov": "北京市", "City": "北京市", "Address": "阎村镇小董村道口", "Operator": "中国石化" }, "geometry": { "type": "Point", "coordinates": [ 116.071077, 39.723775 ] } },
{ "type": "Feature", "properties": { "Name": "中国石化亚吉加油站", "Lon_Lat": "116.706478,39.88867", "Longitude": 116.706478, "Latitude": 39.88867, "Gdtype": "汽车服务;加油站;加油站", "Prov": "北京市", "City": "北京市", "Address": "永顺镇小圣庙村北", "Operator": "中国石化" }, "geometry": { "type": "Point", "coordinates": [ 116.706478, 39.88867 ] } },
{ "type": "Feature", "properties": { "Name": "中国石化郁花园兴华街加油站", "Lon_Lat": "116.331162,39.775657", "Longitude": 116.331162, "Latitude": 39.775657, "Gdtype": "汽车服务;加油站;中国石化", "Prov": "北京市", "City": "北京市", "Address": "黄村镇郁花园二里小区西北200米", "Operator": "中国石化" }, "geometry": { "type": "Point", "coordinates": [ 116.331162, 39.775657 ] } },
{ "type": "Feature", "properties": { "Name": "中国石化鑫宝山加油站", "Lon_Lat": "116.579154,40.691923", "Longitude": 116.579154, "Latitude": 40.691923, "Gdtype": "汽车服务;加油站;加油站", "Prov": "北京市", "City": "北京市", "Address": "宝山寺村", "Operator": "中国石化" }, "geometry": { "type": "Point", "coordinates": [ 116.579154, 40.691923 ] } },
{ "type": "Feature", "properties": { "Name": "中国石化东鲁加油站(暂停营业)", "Lon_Lat": "116.598616,39.838224", "Longitude": 116.598616, "Latitude": 39.838224, "Gdtype": "汽车服务;加油站;中国石化", "Prov": "北京市", "City": "北京市", "Address": "黑庄户乡大鲁店1队", "Operator": "中国石化" }, "geometry": { "type": "Point", "coordinates": [ 116.598616, 39.838224 ] } },
{ "type": "Feature", "properties": { "Name": "中国石化加油站", "Lon_Lat": "115.935179,39.654502", "Longitude": 115.935179, "Latitude": 39.654502, "Gdtype": "汽车服务;加油站;中国石化", "Prov": "北京市", "City": "北京市", "Address": "周口店地区新街村", "Operator": "中国石化" }, "geometry": { "type": "Point", "coordinates": [ 115.935179, 39.654502 ] } },
{ "type": "Feature", "properties": { "Name": "中国石化隆泉加油站", "Lon_Lat": "116.154681,39.643511", "Longitude": 116.154681, "Latitude": 39.643511, "Gdtype": "汽车服务;加油站;中国石化", "Prov": "北京市", "City": "北京市", "Address": "兴龙庄村", "Operator": "中国石化" }, "geometry": { "type": "Point", "coordinates": [ 116.154681, 39.643511 ] } },
{ "type": "Feature", "properties": { "Name": "中国石化十里居加油站(暂停营业)", "Lon_Lat": "116.489104,39.959107", "Longitude": 116.489104, "Latitude": 39.959107, "Gdtype": "汽车服务;加油站;中国石化", "Prov": "北京市", "City": "北京市", "Address": "亮马桥路9号院北京宝信行对面", "Operator": "中国石化" }, "geometry": { "type": "Point", "coordinates": [ 116.489104, 39.959107 ] } },
{ "type": "Feature", "properties": { "Name": "中国石化加油站(龙庆南路)", "Lon_Lat": "116.000638,40.462845", "Longitude": 116.000638, "Latitude": 40.462845, "Gdtype": "汽车服务;加油站;中国石化", "Prov": "北京市", "City": "北京市", "Address": [ ], "Operator": "中国石化" }, "geometry": { "type": "Point", "coordinates": [ 116.000638, 40.462845 ] } },
{ "type": "Feature", "properties": { "Name": "中国石化台津加油站(暂停营业)", "Lon_Lat": "116.673846,39.880693", "Longitude": 116.673846, "Latitude": 39.880693, "Gdtype": "汽车服务;加油站;中国石化", "Prov": "北京市", "City": "北京市", "Address": "京津公路东侧(梨园镇小街部队路口)", "Operator": "中国石化" }, "geometry": { "type": "Point", "coordinates": [ 116.673846, 39.880693 ] } },
{ "type": "Feature", "properties": { "Name": "中国石化台京加油站(暂停营业)", "Lon_Lat": "117.067933,40.146155", "Longitude": 117.067933, "Latitude": 40.146155, "Gdtype": "汽车服务;加油站;中国石化", "Prov": "北京市", "City": "北京市", "Address": "大兴庄镇鲁各庄村西路北", "Operator": "中国石化" }, "geometry": { "type": "Point", "coordinates": [ 117.067933, 40.146155 ] } },
{ "type": "Feature", "properties": { "Name": "中国石化加油站", "Lon_Lat": "116.250055,40.226278", "Longitude": 116.250055, "Latitude": 40.226278, "Gdtype": "汽车服务;加油站;中国石化", "Prov": "北京市", "City": "北京市", "Address": "松园路", "Operator": "中国石化" }, "geometry": { "type": "Point", "coordinates": [ 116.250055, 40.226278 ] } },
{ "type": "Feature", "properties": { "Name": "中国石化加油站(暂停营业)", "Lon_Lat": "115.988046,39.725819", "Longitude": 115.988046, "Latitude": 39.725819, "Gdtype": "汽车服务;加油站;中国石化", "Prov": "北京市", "City": "北京市", "Address": "大件路9号", "Operator": "中国石化" }, "geometry": { "type": "Point", "coordinates": [ 115.988046, 39.725819 ] } },
{ "type": "Feature", "properties": { "Name": "中国石化东方旺加油站", "Lon_Lat": "116.645924,40.313947", "Longitude": 116.645924, "Latitude": 40.313947, "Gdtype": "汽车服务;加油站;中国石化", "Prov": "北京市", "City": "北京市", "Address": "开放路6号(怀柔区火车站路南)", "Operator": "中国石化" }, "geometry": { "type": "Point", "coordinates": [ 116.645924, 40.313947 ] } },
{ "type": "Feature", "properties": { "Name": "中国石化鑫鑫旺园加油站", "Lon_Lat": "115.987392,40.436658", "Longitude": 115.987392, "Latitude": 40.436658, "Gdtype": "汽车服务;加油站;中国石化", "Prov": "北京市", "City": "北京市", "Address": "延庆镇司家营村南煤厂路", "Operator": "中国石化" }, "geometry": { "type": "Point", "coordinates": [ 115.987392, 40.436658 ] } },
{ "type": "Feature", "properties": { "Name": "中国石化北京龙禹通安源加油站", "Lon_Lat": "116.786878,39.752437", "Longitude": 116.786878, "Latitude": 39.752437, "Gdtype": "汽车服务;加油站;中国石化", "Prov": "北京市", "City": "北京市", "Address": "漷小路附近", "Operator": "中国石化" }, "geometry": { "type": "Point", "coordinates": [ 116.786878, 39.752437 ] } },
{ "type": "Feature", "properties": { "Name": "中国石化华鑫加油站", "Lon_Lat": "116.596025,40.036106", "Longitude": 116.596025, "Latitude": 40.036106, "Gdtype": "汽车服务;加油站;中国石化", "Prov": "北京市", "City": "北京市", "Address": "天竺地区天竺村东南", "Operator": "中国石化" }, "geometry": { "type": "Point", "coordinates": [ 116.596025, 40.036106 ] } },
{ "type": "Feature", "properties": { "Name": "中国石化华电加油站", "Lon_Lat": "116.528661,39.743097", "Longitude": 116.528661, "Latitude": 39.743097, "Gdtype": "汽车服务;加油站;中国石化", "Prov": "北京市", "City": "北京市", "Address": "马驹桥镇大白村西", "Operator": "中国石化" }, "geometry": { "type": "Point", "coordinates": [ 116.528661, 39.743097 ] } },
{ "type": "Feature", "properties": { "Name": "中国石化东大桥加油站", "Lon_Lat": "116.453193,39.921796", "Longitude": 116.453193, "Latitude": 39.921796, "Gdtype": "汽车服务;加油站;中国石化", "Prov": "北京市", "City": "北京市", "Address": "朝外大街关东店33号(东大桥地铁站D2西南口步行190米)", "Operator": "中国石化" }, "geometry": { "type": "Point", "coordinates": [ 116.453193, 39.921796 ] } },
{ "type": "Feature", "properties": { "Name": "中石化源兴园加油站", "Lon_Lat": "116.645165,40.329434", "Longitude": 116.645165, "Latitude": 40.329434, "Gdtype": "汽车服务;加油站;中国石化", "Prov": "北京市", "City": "北京市", "Address": "泉河园二区甲2号", "Operator": "中国石化" }, "geometry": { "type": "Point", "coordinates": [ 116.645165, 40.329434 ] } },
{ "type": "Feature", "properties": { "Name": "中国石化海洪加油站", "Lon_Lat": "116.606899,40.144447", "Longitude": 116.606899, "Latitude": 40.144447, "Gdtype": "汽车服务;加油站;中国石化", "Prov": "北京市", "City": "北京市", "Address": "南法信地区西海洪村西", "Operator": "中国石化" }, "geometry": { "type": "Point", "coordinates": [ 116.606899, 40.144447 ] } },
{ "type": "Feature", "properties": { "Name": "中国石化八大处加油站", "Lon_Lat": "116.213524,39.93309", "Longitude": 116.213524, "Latitude": 39.93309, "Gdtype": "汽车服务;加油站;中国石化", "Prov": "北京市", "City": "北京市", "Address": "西黄村东口", "Operator": "中国石化" }, "geometry": { "type": "Point", "coordinates": [ 116.213524, 39.93309 ] } },
{ "type": "Feature", "properties": { "Name": "中国石化三元德茂加油站", "Lon_Lat": "116.436616,39.775419", "Longitude": 116.436616, "Latitude": 39.775419, "Gdtype": "汽车服务;加油站;中国石化", "Prov": "北京市", "City": "北京市", "Address": "京福路西100米", "Operator": "中国石化" }, "geometry": { "type": "Point", "coordinates": [ 116.436616, 39.775419 ] } },
{ "type": "Feature", "properties": { "Name": "中国石化北务服务区加油站", "Lon_Lat": "116.833679,40.053922", "Longitude": 116.833679, "Latitude": 40.053922, "Gdtype": "汽车服务;加油站;中国石化", "Prov": "北京市", "City": "北京市", "Address": "京平高速公路", "Operator": "中国石化" }, "geometry": { "type": "Point", "coordinates": [ 116.833679, 40.053922 ] } },
{ "type": "Feature", "properties": { "Name": "中国石化华顺顺加油站", "Lon_Lat": "116.681391,40.132219", "Longitude": 116.681391, "Latitude": 40.132219, "Gdtype": "汽车服务;加油站;加油站", "Prov": "北京市", "City": "北京市", "Address": "潮白河大桥东侧", "Operator": "中国石化" }, "geometry": { "type": "Point", "coordinates": [ 116.681391, 40.132219 ] } },
{ "type": "Feature", "properties": { "Name": "中国石化鲁谷加油站", "Lon_Lat": "116.209803,39.904105", "Longitude": 116.209803, "Latitude": 39.904105, "Gdtype": "汽车服务;加油站;中国石化", "Prov": "北京市", "City": "北京市", "Address": "体育场南路北侧", "Operator": "中国石化" }, "geometry": { "type": "Point", "coordinates": [ 116.209803, 39.904105 ] } },
{ "type": "Feature", "properties": { "Name": "中国石化加油站(军红路)(暂停营业)", "Lon_Lat": "115.802039,39.874971", "Longitude": 115.802039, "Latitude": 39.874971, "Gdtype": "汽车服务;加油站;中国石化", "Prov": "北京市", "City": "北京市", "Address": "县道209号大安乡村路段东路北", "Operator": "中国石化" }, "geometry": { "type": "Point", "coordinates": [ 115.802039, 39.874971 ] } },
{ "type": "Feature", "properties": { "Name": "中国石化加油站(暂停营业)", "Lon_Lat": "116.652237,39.650098", "Longitude": 116.652237, "Latitude": 39.650098, "Gdtype": "汽车服务;加油站;中国石化", "Prov": "北京市", "City": "北京市", "Address": "采育镇东庄村委会东南400米", "Operator": "中国石化" }, "geometry": { "type": "Point", "coordinates": [ 116.652237, 39.650098 ] } },
{ "type": "Feature", "properties": { "Name": "中国石化杨闸加油站", "Lon_Lat": "116.599103,39.910443", "Longitude": 116.599103, "Latitude": 39.910443, "Gdtype": "汽车服务;加油站;中国石化", "Prov": "北京市", "City": "北京市", "Address": "杨闸村朗廷大厦南门", "Operator": "中国石化" }, "geometry": { "type": "Point", "coordinates": [ 116.599103, 39.910443 ] } },
{ "type": "Feature", "properties": { "Name": "中国石化长库京西加油站", "Lon_Lat": "116.108044,39.930492", "Longitude": 116.108044, "Latitude": 39.930492, "Gdtype": "汽车服务;加油站;中国石化", "Prov": "北京市", "City": "北京市", "Address": "新桥南大街34号", "Operator": "中国石化" }, "geometry": { "type": "Point", "coordinates": [ 116.108044, 39.930492 ] } },
{ "type": "Feature", "properties": { "Name": "中国石化年福加油站", "Lon_Lat": "116.383928,40.101538", "Longitude": 116.383928, "Latitude": 40.101538, "Gdtype": "汽车服务;加油站;中国石化", "Prov": "北京市", "City": "北京市", "Address": "北七家镇平西府村东", "Operator": "中国石化" }, "geometry": { "type": "Point", "coordinates": [ 116.383928, 40.101538 ] } },
{ "type": "Feature", "properties": { "Name": "中国石化北京站加油站", "Lon_Lat": "116.422854,39.903992", "Longitude": 116.422854, "Latitude": 39.903992, "Gdtype": "汽车服务;加油站;中国石化", "Prov": "北京市", "City": "北京市", "Address": "北京站西街路北(邮局路西,103总站)", "Operator": "中国石化" }, "geometry": { "type": "Point", "coordinates": [ 116.422854, 39.903992 ] } },
{ "type": "Feature", "properties": { "Name": "中国石化大城堡加油站", "Lon_Lat": "115.994241,40.47477", "Longitude": 115.994241, "Latitude": 40.47477, "Gdtype": "汽车服务;加油站;中国石化", "Prov": "北京市", "City": "北京市", "Address": "延庆镇京张路口北火车站道口北", "Operator": "中国石化" }, "geometry": { "type": "Point", "coordinates": [ 115.994241, 40.47477 ] } },
{ "type": "Feature", "properties": { "Name": "中国石化港通加油站", "Lon_Lat": "116.779451,39.830371", "Longitude": 116.779451, "Latitude": 39.830371, "Gdtype": "汽车服务;加油站;中国石化", "Prov": "北京市", "City": "北京市", "Address": "里二泗村", "Operator": "中国石化" }, "geometry": { "type": "Point", "coordinates": [ 116.779451, 39.830371 ] } },
{ "type": "Feature", "properties": { "Name": "中国石化潭柘寺加油站", "Lon_Lat": "116.031897,39.877872", "Longitude": 116.031897, "Latitude": 39.877872, "Gdtype": "汽车服务;加油站;中国石化", "Prov": "北京市", "City": "北京市", "Address": "鲁家滩村西", "Operator": "中国石化" }, "geometry": { "type": "Point", "coordinates": [ 116.031897, 39.877872 ] } },
{ "type": "Feature", "properties": { "Name": "中国石化房山三宝加油站", "Lon_Lat": "115.979101,39.600674", "Longitude": 115.979101, "Latitude": 39.600674, "Gdtype": "汽车服务;加油站;中国石化", "Prov": "北京市", "City": "北京市", "Address": "西东村", "Operator": "中国石化" }, "geometry": { "type": "Point", "coordinates": [ 115.979101, 39.600674 ] } },
{ "type": "Feature", "properties": { "Name": "中国石化德利发加油站", "Lon_Lat": "116.378087,39.797903", "Longitude": 116.378087, "Latitude": 39.797903, "Gdtype": "汽车服务;加油站;中国石化", "Prov": "北京市", "City": "北京市", "Address": "团河路29号", "Operator": "中国石化" }, "geometry": { "type": "Point", "coordinates": [ 116.378087, 39.797903 ] } },
{ "type": "Feature", "properties": { "Name": "中国石化怀闽加油站", "Lon_Lat": "116.725906,40.329504", "Longitude": 116.725906, "Latitude": 40.329504, "Gdtype": "汽车服务;加油站;中国石化", "Prov": "北京市", "City": "北京市", "Address": "北房镇梨园庄村", "Operator": "中国石化" }, "geometry": { "type": "Point", "coordinates": [ 116.725906, 40.329504 ] } },
{ "type": "Feature", "properties": { "Name": "中国石化南宫加油站", "Lon_Lat": "116.159138,39.800897", "Longitude": 116.159138, "Latitude": 39.800897, "Gdtype": "汽车服务;加油站;中国石化", "Prov": "北京市", "City": "北京市", "Address": "王佐镇长青路89号", "Operator": "中国石化" }, "geometry": { "type": "Point", "coordinates": [ 116.159138, 39.800897 ] } },
{ "type": "Feature", "properties": { "Name": "中国石化正兴加油站", "Lon_Lat": "116.339661,39.868613", "Longitude": 116.339661, "Latitude": 39.868613, "Gdtype": "汽车服务;加油站;中国石化", "Prov": "北京市", "City": "北京市", "Address": "三路居村(菜户营桥西嘉年华商务会馆对面)", "Operator": "中国石化" }, "geometry": { "type": "Point", "coordinates": [ 116.339661, 39.868613 ] } },
{ "type": "Feature", "properties": { "Name": "中国石化住海加油站", "Lon_Lat": "116.635726,40.034847", "Longitude": 116.635726, "Latitude": 40.034847, "Gdtype": "汽车服务;加油站;中国石化", "Prov": "北京市", "City": "北京市", "Address": "李桥镇南半壁店村", "Operator": "中国石化" }, "geometry": { "type": "Point", "coordinates": [ 116.635726, 40.034847 ] } },
{ "type": "Feature", "properties": { "Name": "中国石化销售股份有限公司北京密云友谊加油站", "Lon_Lat": "116.870814,40.376664", "Longitude": 116.870814, "Latitude": 40.376664, "Gdtype": "汽车服务;加油站;中国石化", "Prov": "北京市", "City": "北京市", "Address": "京密路气象局南", "Operator": "中国石化" }, "geometry": { "type": "Point", "coordinates": [ 116.870814, 40.376664 ] } },
{ "type": "Feature", "properties": { "Name": "中国石化西永和屯加油站", "Lon_Lat": "116.719231,39.767965", "Longitude": 116.719231, "Latitude": 39.767965, "Gdtype": "汽车服务;加油站;中国石化", "Prov": "北京市", "City": "北京市", "Address": "张家湾镇永和屯村口", "Operator": "中国石化" }, "geometry": { "type": "Point", "coordinates": [ 116.719231, 39.767965 ] } },
{ "type": "Feature", "properties": { "Name": "中国石化加油站", "Lon_Lat": "116.257052,40.146421", "Longitude": 116.257052, "Latitude": 40.146421, "Gdtype": "汽车服务;加油站;中国石化", "Prov": "北京市", "City": "北京市", "Address": "昌平路89号", "Operator": "中国石化" }, "geometry": { "type": "Point", "coordinates": [ 116.257052, 40.146421 ] } },
{ "type": "Feature", "properties": { "Name": "中国石化望京新城加油站", "Lon_Lat": "116.472272,40.001308", "Longitude": 116.472272, "Latitude": 40.001308, "Gdtype": "汽车服务;加油站;中国石化", "Prov": "北京市", "City": "北京市", "Address": "望京体育公园D区", "Operator": "中国石化" }, "geometry": { "type": "Point", "coordinates": [ 116.472272, 40.001308 ] } },
{ "type": "Feature", "properties": { "Name": "中国石化加油站", "Lon_Lat": "116.412294,40.040818", "Longitude": 116.412294, "Latitude": 40.040818, "Gdtype": "汽车服务;加油站;中国石化", "Prov": "北京市", "City": "北京市", "Address": "安立路仰山桥向北第三个红绿灯路东", "Operator": "中国石化" }, "geometry": { "type": "Point", "coordinates": [ 116.412294, 40.040818 ] } },
{ "type": "Feature", "properties": { "Name": "中国石化三元西磁加油站", "Lon_Lat": "116.409659,39.719957", "Longitude": 116.409659, "Latitude": 39.719957, "Gdtype": "汽车服务;加油站;中国石化", "Prov": "北京市", "City": "北京市", "Address": "黄村镇磁各庄桥南", "Operator": "中国石化" }, "geometry": { "type": "Point", "coordinates": [ 116.409659, 39.719957 ] } },
{ "type": "Feature", "properties": { "Name": "中国石化日兴加油站", "Lon_Lat": "117.141946,40.344684", "Longitude": 117.141946, "Latitude": 40.344684, "Gdtype": "汽车服务;加油站;中国石化", "Prov": "北京市", "City": "北京市", "Address": "上营村北", "Operator": "中国石化" }, "geometry": { "type": "Point", "coordinates": [ 117.141946, 40.344684 ] } },
{ "type": "Feature", "properties": { "Name": "中国石化潮河加油站", "Lon_Lat": "116.690745,40.131886", "Longitude": 116.690745, "Latitude": 40.131886, "Gdtype": "汽车服务;加油站;中国石化", "Prov": "北京市", "City": "北京市", "Address": "潮白河大桥东侧路南", "Operator": "中国石化" }, "geometry": { "type": "Point", "coordinates": [ 116.690745, 40.131886 ] } },
{ "type": "Feature", "properties": { "Name": "中国石化中杲加油站", "Lon_Lat": "116.289776,39.696764", "Longitude": 116.289776, "Latitude": 39.696764, "Gdtype": "汽车服务;加油站;中国石化", "Prov": "北京市", "City": "北京市", "Address": "北臧村镇新立村东黄良路北侧", "Operator": "中国石化" }, "geometry": { "type": "Point", "coordinates": [ 116.289776, 39.696764 ] } },
{ "type": "Feature", "properties": { "Name": "中国石化机场路加油站", "Lon_Lat": "116.585122,40.050589", "Longitude": 116.585122, "Latitude": 40.050589, "Gdtype": "汽车服务;加油站;中国石化", "Prov": "北京市", "City": "北京市", "Address": "北京市顺义区天竺镇小天竺西幸福街3号", "Operator": "中国石化" }, "geometry": { "type": "Point", "coordinates": [ 116.585122, 40.050589 ] } },
{ "type": "Feature", "properties": { "Name": "中国石化桥头加油站", "Lon_Lat": "116.833583,40.369067", "Longitude": 116.833583, "Latitude": 40.369067, "Gdtype": "汽车服务;加油站;中国石化", "Prov": "北京市", "City": "北京市", "Address": "西大桥", "Operator": "中国石化" }, "geometry": { "type": "Point", "coordinates": [ 116.833583, 40.369067 ] } },
{ "type": "Feature", "properties": { "Name": "中国石化温百星加油站", "Lon_Lat": "116.155217,40.0918", "Longitude": 116.155217, "Latitude": 40.0918, "Gdtype": "汽车服务;加油站;中国石化", "Prov": "北京市", "City": "北京市", "Address": "前沙涧村南(温阳公路旁)", "Operator": "中国石化" }, "geometry": { "type": "Point", "coordinates": [ 116.155217, 40.0918 ] } },
{ "type": "Feature", "properties": { "Name": "中国石化惠龙腾加油站", "Lon_Lat": "116.463267,40.057089", "Longitude": 116.463267, "Latitude": 40.057089, "Gdtype": "汽车服务;加油站;中国石化", "Prov": "北京市", "City": "北京市", "Address": "来广营北路166号", "Operator": "中国石化" }, "geometry": { "type": "Point", "coordinates": [ 116.463267, 40.057089 ] } },
{ "type": "Feature", "properties": { "Name": "中国石化石银加油站", "Lon_Lat": "116.463277,39.856694", "Longitude": 116.463277, "Latitude": 39.856694, "Gdtype": "汽车服务;加油站;中国石化", "Prov": "北京市", "City": "北京市", "Address": "十里河村三环肿瘤医院南门", "Operator": "中国石化" }, "geometry": { "type": "Point", "coordinates": [ 116.463277, 39.856694 ] } },
{ "type": "Feature", "properties": { "Name": "中国石化新立北加油站", "Lon_Lat": "116.275087,39.691279", "Longitude": 116.275087, "Latitude": 39.691279, "Gdtype": "汽车服务;加油站;中国石化", "Prov": "北京市", "City": "北京市", "Address": "新立村六环主路89公里处北", "Operator": "中国石化" }, "geometry": { "type": "Point", "coordinates": [ 116.275087, 39.691279 ] } },
{ "type": "Feature", "properties": { "Name": "中国石化燕广海加油站", "Lon_Lat": "116.231955,39.891717", "Longitude": 116.231955, "Latitude": 39.891717, "Gdtype": "汽车服务;加油站;中国石化", "Prov": "北京市", "City": "北京市", "Address": "鲁谷大街80号", "Operator": "中国石化" }, "geometry": { "type": "Point", "coordinates": [ 116.231955, 39.891717 ] } },
{ "type": "Feature", "properties": { "Name": "中石化燕北华瑞加油站", "Lon_Lat": "115.637895,39.639626", "Longitude": 115.637895, "Latitude": 39.639626, "Gdtype": "汽车服务;加油站;中国石化", "Prov": "北京市", "City": "北京市", "Address": "十渡镇六渡村", "Operator": "中国石化" }, "geometry": { "type": "Point", "coordinates": [ 115.637895, 39.639626 ] } },
{ "type": "Feature", "properties": { "Name": "中国石化加油站", "Lon_Lat": "116.119988,40.096221", "Longitude": 116.119988, "Latitude": 40.096221, "Gdtype": "汽车服务;加油站;中国石化", "Prov": "北京市", "City": "北京市", "Address": "聂各庄路聂各庄村路段", "Operator": "中国石化" }, "geometry": { "type": "Point", "coordinates": [ 116.119988, 40.096221 ] } },
{ "type": "Feature", "properties": { "Name": "中国石化加油站", "Lon_Lat": "116.780091,39.68478", "Longitude": 116.780091, "Latitude": 39.68478, "Gdtype": "汽车服务;加油站;中国石化", "Prov": "北京市", "City": "北京市", "Address": "永乐店镇德仁务村北", "Operator": "中国石化" }, "geometry": { "type": "Point", "coordinates": [ 116.780091, 39.68478 ] } },
{ "type": "Feature", "properties": { "Name": "中国石化加油站(暂停营业)", "Lon_Lat": "116.754641,40.212769", "Longitude": 116.754641, "Latitude": 40.212769, "Gdtype": "汽车服务;加油站;中国石化", "Prov": "北京市", "City": "北京市", "Address": "北府村(北府顺木路至木林路南上辇红绿灯东边)", "Operator": "中国石化" }, "geometry": { "type": "Point", "coordinates": [ 116.754641, 40.212769 ] } },
{ "type": "Feature", "properties": { "Name": "中国石化左家庄加油站", "Lon_Lat": "116.449444,39.955726", "Longitude": 116.449444, "Latitude": 39.955726, "Gdtype": "汽车服务;加油站;中国石化", "Prov": "北京市", "City": "北京市", "Address": "东直门外香河园中里2号", "Operator": "中国石化" }, "geometry": { "type": "Point", "coordinates": [ 116.449444, 39.955726 ] } },
{ "type": "Feature", "properties": { "Name": "中国石化军庄加油站", "Lon_Lat": "116.09386,39.995139", "Longitude": 116.09386, "Latitude": 39.995139, "Gdtype": "汽车服务;加油站;中国石化", "Prov": "北京市", "City": "北京市", "Address": "军庄村路口", "Operator": "中国石化" }, "geometry": { "type": "Point", "coordinates": [ 116.09386, 39.995139 ] } },
{ "type": "Feature", "properties": { "Name": "中国石化太平湖加油站", "Lon_Lat": "116.365814,39.947011", "Longitude": 116.365814, "Latitude": 39.947011, "Gdtype": "汽车服务;加油站;中国石化", "Prov": "北京市", "City": "北京市", "Address": "德胜门西大街甲5-1号", "Operator": "中国石化" }, "geometry": { "type": "Point", "coordinates": [ 116.365814, 39.947011 ] } },
{ "type": "Feature", "properties": { "Name": "中国石化房山京良加油站", "Lon_Lat": "116.130603,39.712818", "Longitude": 116.130603, "Latitude": 39.712818, "Gdtype": "汽车服务;加油站;加油站", "Prov": "北京市", "City": "北京市", "Address": "良乡地区大南关村南", "Operator": "中国石化" }, "geometry": { "type": "Point", "coordinates": [ 116.130603, 39.712818 ] } },
{ "type": "Feature", "properties": { "Name": "中国石化中原创业加油站", "Lon_Lat": "116.735025,39.931708", "Longitude": 116.735025, "Latitude": 39.931708, "Gdtype": "汽车服务;加油站;中国石化", "Prov": "北京市", "City": "北京市", "Address": "丁各庄村(丁各庄路与宋梁路交叉口向北路东)", "Operator": "中国石化" }, "geometry": { "type": "Point", "coordinates": [ 116.735025, 39.931708 ] } },
{ "type": "Feature", "properties": { "Name": "中国石化大华合智加油站", "Lon_Lat": "116.351735,40.010905", "Longitude": 116.351735, "Latitude": 40.010905, "Gdtype": "汽车服务;加油站;中国石化", "Prov": "北京市", "City": "北京市", "Address": "学院路甲5号", "Operator": "中国石化" }, "geometry": { "type": "Point", "coordinates": [ 116.351735, 40.010905 ] } },
{ "type": "Feature", "properties": { "Name": "中国石化永乐店服务区加油站", "Lon_Lat": "116.812963,39.643440", "Longitude": 116.812963, "Latitude": 39.64344, "Gdtype": "汽车服务;加油站;中国石化", "Prov": "北京市", "City": "北京市", "Address": "京津高速永乐店服务区", "Operator": "中国石化" }, "geometry": { "type": "Point", "coordinates": [ 116.812963, 39.64344 ] } },
{ "type": "Feature", "properties": { "Name": "中国石化航润加油站", "Lon_Lat": "116.628643,40.095250", "Longitude": 116.628643, "Latitude": 40.09525, "Gdtype": "汽车服务;加油站;中国石化", "Prov": "北京市", "City": "北京市", "Address": "机场东路与顺平南线交叉口南200米路西", "Operator": "中国石化" }, "geometry": { "type": "Point", "coordinates": [ 116.628643, 40.09525 ] } },
{ "type": "Feature", "properties": { "Name": "中国石化加油站(暂停营业)", "Lon_Lat": "116.167930,39.876787", "Longitude": 116.16793, "Latitude": 39.876787, "Gdtype": "汽车服务;加油站;中国石化", "Prov": "北京市", "City": "北京市", "Address": "北宫镇芦井路(北京园博园西侧)", "Operator": "中国石化" }, "geometry": { "type": "Point", "coordinates": [ 116.16793, 39.876787 ] } },
{ "type": "Feature", "properties": { "Name": "中国石化顺煤加油站", "Lon_Lat": "116.641638,40.121301", "Longitude": 116.641638, "Latitude": 40.121301, "Gdtype": "汽车服务;加油站;加油站", "Prov": "北京市", "City": "北京市", "Address": "仁和顺西路24号", "Operator": "中国石化" }, "geometry": { "type": "Point", "coordinates": [ 116.641638, 40.121301 ] } },
{ "type": "Feature", "properties": { "Name": "中国石化祁家豁子加油站", "Lon_Lat": "116.381672,39.978188", "Longitude": 116.381672, "Latitude": 39.978188, "Gdtype": "汽车服务;加油站;中国石化", "Prov": "北京市", "City": "北京市", "Address": "德胜门外祁家豁子", "Operator": "中国石化" }, "geometry": { "type": "Point", "coordinates": [ 116.381672, 39.978188 ] } },
{ "type": "Feature", "properties": { "Name": "中国石化杨桥加油站", "Lon_Lat": "116.986475,40.14539", "Longitude": 116.986475, "Latitude": 40.14539, "Gdtype": "汽车服务;加油站;中国石化", "Prov": "北京市", "City": "北京市", "Address": "峪口镇杨桥路口", "Operator": "中国石化" }, "geometry": { "type": "Point", "coordinates": [ 116.986475, 40.14539 ] } },
{ "type": "Feature", "properties": { "Name": "中国石化(燕广友加油站)", "Lon_Lat": "116.127728,39.939434", "Longitude": 116.127728, "Latitude": 39.939434, "Gdtype": "汽车服务;加油站;中国石化", "Prov": "北京市", "City": "北京市", "Address": "麻峪双峪路", "Operator": "中国石化" }, "geometry": { "type": "Point", "coordinates": [ 116.127728, 39.939434 ] } },
{ "type": "Feature", "properties": { "Name": "中国石化北京密云高岭加油站", "Lon_Lat": "117.143277,40.595238", "Longitude": 117.143277, "Latitude": 40.595238, "Gdtype": "汽车服务;加油站;中国石化", "Prov": "北京市", "City": "北京市", "Address": "高岭镇辛庄道口", "Operator": "中国石化" }, "geometry": { "type": "Point", "coordinates": [ 117.143277, 40.595238 ] } },
{ "type": "Feature", "properties": { "Name": "中国石化住海三利加油站", "Lon_Lat": "116.763322,39.935524", "Longitude": 116.763322, "Latitude": 39.935524, "Gdtype": "汽车服务;加油站;中国石化", "Prov": "北京市", "City": "北京市", "Address": "白庙村西", "Operator": "中国石化" }, "geometry": { "type": "Point", "coordinates": [ 116.763322, 39.935524 ] } },
{ "type": "Feature", "properties": { "Name": "中国石化三元北清路加油站", "Lon_Lat": "116.297493,40.093755", "Longitude": 116.297493, "Latitude": 40.093755, "Gdtype": "汽车服务;加油站;中国石化", "Prov": "北京市", "City": "北京市", "Address": "二拔子村辛庄桥西南角", "Operator": "中国石化" }, "geometry": { "type": "Point", "coordinates": [ 116.297493, 40.093755 ] } },
{ "type": "Feature", "properties": { "Name": "中国石化服务区北京巨铭天晟油品有限公司加油站", "Lon_Lat": "115.967445,39.830132", "Longitude": 115.967445, "Latitude": 39.830132, "Gdtype": "汽车服务;加油站;加油站", "Prov": "北京市", "City": "北京市", "Address": "京昆路南50米", "Operator": "中国石化" }, "geometry": { "type": "Point", "coordinates": [ 115.967445, 39.830132 ] } },
{ "type": "Feature", "properties": { "Name": "中国石化李桥东加油站", "Lon_Lat": "116.653956,40.054898", "Longitude": 116.653956, "Latitude": 40.054898, "Gdtype": "汽车服务;加油站;中国石化", "Prov": "北京市", "City": "北京市", "Address": "李桥镇东六环主路21-2公里处东侧", "Operator": "中国石化" }, "geometry": { "type": "Point", "coordinates": [ 116.653956, 40.054898 ] } },
{ "type": "Feature", "properties": { "Name": "中国石化聚福锦余加油站", "Lon_Lat": "116.703556,39.71825", "Longitude": 116.703556, "Latitude": 39.71825, "Gdtype": "汽车服务;加油站;中国石化", "Prov": "北京市", "City": "北京市", "Address": "于家务村西", "Operator": "中国石化" }, "geometry": { "type": "Point", "coordinates": [ 116.703556, 39.71825 ] } },
{ "type": "Feature", "properties": { "Name": "中国石化汤河路加油站", "Lon_Lat": "116.641099,40.733011", "Longitude": 116.641099, "Latitude": 40.733011, "Gdtype": "汽车服务;加油站;中国石化", "Prov": "北京市", "City": "北京市", "Address": "汤河口村", "Operator": "中国石化" }, "geometry": { "type": "Point", "coordinates": [ 116.641099, 40.733011 ] } },
{ "type": "Feature", "properties": { "Name": "中国石化堡辛加油站", "Lon_Lat": "116.72533,39.916471", "Longitude": 116.72533, "Latitude": 39.916471, "Gdtype": "汽车服务;加油站;中国石化", "Prov": "北京市", "City": "北京市", "Address": "潞城镇潞源街道办事处旁", "Operator": "中国石化" }, "geometry": { "type": "Point", "coordinates": [ 116.72533, 39.916471 ] } },
{ "type": "Feature", "properties": { "Name": "中国石化农机兆元加油站", "Lon_Lat": "116.597949,39.895103", "Longitude": 116.597949, "Latitude": 39.895103, "Gdtype": "汽车服务;加油站;加油站", "Prov": "北京市", "City": "北京市", "Address": "双桥中路10号平房", "Operator": "中国石化" }, "geometry": { "type": "Point", "coordinates": [ 116.597949, 39.895103 ] } },
{ "type": "Feature", "properties": { "Name": "中国石化西直河加油站", "Lon_Lat": "116.527331,39.850703", "Longitude": 116.527331, "Latitude": 39.850703, "Gdtype": "汽车服务;加油站;中国石化", "Prov": "北京市", "City": "北京市", "Address": "西直河路(北京染料厂南侧)", "Operator": "中国石化" }, "geometry": { "type": "Point", "coordinates": [ 116.527331, 39.850703 ] } },
{ "type": "Feature", "properties": { "Name": "中国石化怀丰路加油站", "Lon_Lat": "116.690073,40.39239", "Longitude": 116.690073, "Latitude": 40.39239, "Gdtype": "汽车服务;加油站;中国石化", "Prov": "北京市", "City": "北京市", "Address": "怀北镇西庄村京加路与龙德行路交口红绿灯西侧", "Operator": "中国石化" }, "geometry": { "type": "Point", "coordinates": [ 116.690073, 40.39239 ] } },
{ "type": "Feature", "properties": { "Name": "中国石化宛平加油站", "Lon_Lat": "116.226239,39.846981", "Longitude": 116.226239, "Latitude": 39.846981, "Gdtype": "汽车服务;加油站;中国石化", "Prov": "北京市", "City": "北京市", "Address": "北京市丰台区卢沟桥抗战雕塑园西200米", "Operator": "中国石化" }, "geometry": { "type": "Point", "coordinates": [ 116.226239, 39.846981 ] } },
{ "type": "Feature", "properties": { "Name": "中国石化加油站(暂停营业)", "Lon_Lat": "116.020204,40.440852", "Longitude": 116.020204, "Latitude": 40.440852, "Gdtype": "汽车服务;加油站;中国石化", "Prov": "北京市", "City": "北京市", "Address": "姜家台村", "Operator": "中国石化" }, "geometry": { "type": "Point", "coordinates": [ 116.020204, 40.440852 ] } },
{ "type": "Feature", "properties": { "Name": "中国石化龙达加油站", "Lon_Lat": "116.514734,39.738846", "Longitude": 116.514734, "Latitude": 39.738846, "Gdtype": "汽车服务;加油站;中国石化", "Prov": "北京市", "City": "北京市", "Address": "瀛海镇千顷路东侧1米", "Operator": "中国石化" }, "geometry": { "type": "Point", "coordinates": [ 116.514734, 39.738846 ] } },
{ "type": "Feature", "properties": { "Name": "中国石化柳林加油站(建设中)", "Lon_Lat": "115.749186,39.820154", "Longitude": 115.749186, "Latitude": 39.820154, "Gdtype": "汽车服务;加油站;中国石化", "Prov": "北京市", "City": "北京市", "Address": "鸳鸯水村南", "Operator": "中国石化" }, "geometry": { "type": "Point", "coordinates": [ 115.749186, 39.820154 ] } },
{ "type": "Feature", "properties": { "Name": "中国石化西大桥加油站", "Lon_Lat": "116.118004,40.227616", "Longitude": 116.118004, "Latitude": 40.227616, "Gdtype": "汽车服务;加油站;中国石化", "Prov": "北京市", "City": "北京市", "Address": "南口镇西大桥西", "Operator": "中国石化" }, "geometry": { "type": "Point", "coordinates": [ 116.118004, 40.227616 ] } },
{ "type": "Feature", "properties": { "Name": "中国石化(京新高速加油站)(暂停营业)", "Lon_Lat": "116.207506,40.205042", "Longitude": 116.207506, "Latitude": 40.205042, "Gdtype": "汽车服务;加油站;中国石化", "Prov": "北京市", "City": "北京市", "Address": "京新高速停车区内", "Operator": "中国石化" }, "geometry": { "type": "Point", "coordinates": [ 116.207506, 40.205042 ] } },
{ "type": "Feature", "properties": { "Name": "中国石化服务区加油站", "Lon_Lat": "116.275087,39.691279", "Longitude": 116.275087, "Latitude": 39.691279, "Gdtype": "汽车服务;加油站;中国石化", "Prov": "北京市", "City": "北京市", "Address": "新立村六环主路89公里处北", "Operator": "中国石化" }, "geometry": { "type": "Point", "coordinates": [ 116.275087, 39.691279 ] } },
{ "type": "Feature", "properties": { "Name": "中国石化加油站(公交车专用)", "Lon_Lat": "116.128904,39.899935", "Longitude": 116.128904, "Latitude": 39.899935, "Gdtype": "汽车服务;加油站;中国石化", "Prov": "北京市", "City": "北京市", "Address": [ ], "Operator": "中国石化" }, "geometry": { "type": "Point", "coordinates": [ 116.128904, 39.899935 ] } },
{ "type": "Feature", "properties": { "Name": "中国石化加油站", "Lon_Lat": "116.117899,40.231958", "Longitude": 116.117899, "Latitude": 40.231958, "Gdtype": "汽车服务;加油站;中国石化", "Prov": "北京市", "City": "北京市", "Address": "南口镇西大桥路北", "Operator": "中国石化" }, "geometry": { "type": "Point", "coordinates": [ 116.117899, 40.231958 ] } },
{ "type": "Feature", "properties": { "Name": "中国石化百善宏飞加油站", "Lon_Lat": "116.319331,40.16951", "Longitude": 116.319331, "Latitude": 40.16951, "Gdtype": "汽车服务;加油站;中国石化", "Prov": "北京市", "City": "北京市", "Address": "顺沙路", "Operator": "中国石化" }, "geometry": { "type": "Point", "coordinates": [ 116.319331, 40.16951 ] } },
{ "type": "Feature", "properties": { "Name": "中国石化加油站", "Lon_Lat": "116.214134,39.951385", "Longitude": 116.214134, "Latitude": 39.951385, "Gdtype": "汽车服务;加油站;中国石化", "Prov": "北京市", "City": "北京市", "Address": "香山南路南辛庄", "Operator": "中国石化" }, "geometry": { "type": "Point", "coordinates": [ 116.214134, 39.951385 ] } },
{ "type": "Feature", "properties": { "Name": "中国石化西黄庄加油站", "Lon_Lat": "116.276872,39.953217", "Longitude": 116.276872, "Latitude": 39.953217, "Gdtype": "汽车服务;加油站;中国石化", "Prov": "北京市", "City": "北京市", "Address": "昆明湖南路37号", "Operator": "中国石化" }, "geometry": { "type": "Point", "coordinates": [ 116.276872, 39.953217 ] } },
{ "type": "Feature", "properties": { "Name": "中国石化台金加油站", "Lon_Lat": "116.208605,39.838821", "Longitude": 116.208605, "Latitude": 39.838821, "Gdtype": "汽车服务;加油站;中国石化", "Prov": "北京市", "City": "北京市", "Address": "杜家坎南路13号", "Operator": "中国石化" }, "geometry": { "type": "Point", "coordinates": [ 116.208605, 39.838821 ] } },
{ "type": "Feature", "properties": { "Name": "中国石化马坊加油站", "Lon_Lat": "116.410105,40.143379", "Longitude": 116.410105, "Latitude": 40.143379, "Gdtype": "汽车服务;加油站;中国石化", "Prov": "北京市", "City": "北京市", "Address": "马坊村", "Operator": "中国石化" }, "geometry": { "type": "Point", "coordinates": [ 116.410105, 40.143379 ] } },
{ "type": "Feature", "properties": { "Name": "中国石化加油站", "Lon_Lat": "116.173705,39.843194", "Longitude": 116.173705, "Latitude": 39.843194, "Gdtype": "汽车服务;加油站;中国石化", "Prov": "北京市", "City": "北京市", "Address": "太子峪村", "Operator": "中国石化" }, "geometry": { "type": "Point", "coordinates": [ 116.173705, 39.843194 ] } },
{ "type": "Feature", "properties": { "Name": "中国石化北京市通州顺兴加油站", "Lon_Lat": "116.67234,39.969041", "Longitude": 116.67234, "Latitude": 39.969041, "Gdtype": "汽车服务;加油站;中国石化", "Prov": "北京市", "City": "北京市", "Address": "宋庄镇双埠头村口", "Operator": "中国石化" }, "geometry": { "type": "Point", "coordinates": [ 116.67234, 39.969041 ] } },
{ "type": "Feature", "properties": { "Name": "中国石化荣光加油站", "Lon_Lat": "116.343889,39.749724", "Longitude": 116.343889, "Latitude": 39.749724, "Gdtype": "汽车服务;加油站;中国石化", "Prov": "北京市", "City": "北京市", "Address": "黄村二中东侧", "Operator": "中国石化" }, "geometry": { "type": "Point", "coordinates": [ 116.343889, 39.749724 ] } },
{ "type": "Feature", "properties": { "Name": "中国石化加油站", "Lon_Lat": "116.594566,40.364188", "Longitude": 116.594566, "Latitude": 40.364188, "Gdtype": "汽车服务;加油站;中国石化", "Prov": "北京市", "City": "北京市", "Address": "怀柔镇", "Operator": "中国石化" }, "geometry": { "type": "Point", "coordinates": [ 116.594566, 40.364188 ] } },
{ "type": "Feature", "properties": { "Name": "中国石化广达加油站", "Lon_Lat": "116.802243,40.357315", "Longitude": 116.802243, "Latitude": 40.357315, "Gdtype": "汽车服务;加油站;中国石化", "Prov": "北京市", "City": "北京市", "Address": "工业开发区西侧", "Operator": "中国石化" }, "geometry": { "type": "Point", "coordinates": [ 116.802243, 40.357315 ] } },
{ "type": "Feature", "properties": { "Name": "中国石化松利新加油站", "Lon_Lat": "115.832237,40.468185", "Longitude": 115.832237, "Latitude": 40.468185, "Gdtype": "汽车服务;加油站;中国石化", "Prov": "北京市", "City": "北京市", "Address": "110国道京银路", "Operator": "中国石化" }, "geometry": { "type": "Point", "coordinates": [ 115.832237, 40.468185 ] } },
{ "type": "Feature", "properties": { "Name": "中国石化横街子加油站", "Lon_Lat": "116.506917,39.827631", "Longitude": 116.506917, "Latitude": 39.827631, "Gdtype": "汽车服务;加油站;加油站", "Prov": "北京市", "City": "北京市", "Address": "大羊坊路与横街子化工宿舍路交叉口西北150米", "Operator": "中国石化" }, "geometry": { "type": "Point", "coordinates": [ 116.506917, 39.827631 ] } },
{ "type": "Feature", "properties": { "Name": "中国石化跃路发加油站", "Lon_Lat": "117.011893,40.442725", "Longitude": 117.011893, "Latitude": 40.442725, "Gdtype": "汽车服务;加油站;中国石化", "Prov": "北京市", "City": "北京市", "Address": "穆家峪镇上峪村", "Operator": "中国石化" }, "geometry": { "type": "Point", "coordinates": [ 117.011893, 40.442725 ] } },
{ "type": "Feature", "properties": { "Name": "中国石化次渠通惠特许加油站", "Lon_Lat": "116.57324,39.811325", "Longitude": 116.57324, "Latitude": 39.811325, "Gdtype": "汽车服务;加油站;中国石化", "Prov": "北京市", "City": "北京市", "Address": "次渠镇通马路辅路", "Operator": "中国石化" }, "geometry": { "type": "Point", "coordinates": [ 116.57324, 39.811325 ] } },
{ "type": "Feature", "properties": { "Name": "中国石化土沟停车区西加油站", "Lon_Lat": "116.482401,40.127894", "Longitude": 116.482401, "Latitude": 40.127894, "Gdtype": "汽车服务;加油站;中国石化", "Prov": "北京市", "City": "北京市", "Address": "北京市昌平区京承高速进京方向,土沟服务区内加油站。(六环至五环之间)", "Operator": "中国石化" }, "geometry": { "type": "Point", "coordinates": [ 116.482401, 40.127894 ] } },
{ "type": "Feature", "properties": { "Name": "中国石化特许房山沈晨鹏亚加油站", "Lon_Lat": "116.172661,39.751322", "Longitude": 116.172661, "Latitude": 39.751322, "Gdtype": "汽车服务;加油站;中国石化", "Prov": "北京市", "City": "北京市", "Address": "长篱路与长阳路交叉口东南100米", "Operator": "中国石化" }, "geometry": { "type": "Point", "coordinates": [ 116.172661, 39.751322 ] } },
{ "type": "Feature", "properties": { "Name": "中国石化昆明湖加油站", "Lon_Lat": "116.279259,39.975062", "Longitude": 116.279259, "Latitude": 39.975062, "Gdtype": "汽车服务;加油站;中国石化", "Prov": "北京市", "City": "北京市", "Address": "金河路", "Operator": "中国石化" }, "geometry": { "type": "Point", "coordinates": [ 116.279259, 39.975062 ] } },
{ "type": "Feature", "properties": { "Name": "中国石化大郊亭加油站", "Lon_Lat": "116.498878,39.893638", "Longitude": 116.498878, "Latitude": 39.893638, "Gdtype": "汽车服务;加油站;中国石化", "Prov": "北京市", "City": "北京市", "Address": "南磨房(地区)乡石门中路", "Operator": "中国石化" }, "geometry": { "type": "Point", "coordinates": [ 116.498878, 39.893638 ] } },
{ "type": "Feature", "properties": { "Name": "中国石化千家富加油站", "Lon_Lat": "116.352193,40.694368", "Longitude": 116.352193, "Latitude": 40.694368, "Gdtype": "汽车服务;加油站;中国石化", "Prov": "北京市", "City": "北京市", "Address": "千家店村", "Operator": "中国石化" }, "geometry": { "type": "Point", "coordinates": [ 116.352193, 40.694368 ] } },
{ "type": "Feature", "properties": { "Name": "中国石化北郎中加油站", "Lon_Lat": "116.555356,40.209246", "Longitude": 116.555356, "Latitude": 40.209246, "Gdtype": "汽车服务;加油站;中国石化", "Prov": "北京市", "City": "北京市", "Address": "赵全营镇北郎中村西", "Operator": "中国石化" }, "geometry": { "type": "Point", "coordinates": [ 116.555356, 40.209246 ] } },
{ "type": "Feature", "properties": { "Name": "中国石化半壁店加油站", "Lon_Lat": "116.63744,40.035075", "Longitude": 116.63744, "Latitude": 40.035075, "Gdtype": "汽车服务;加油站;中国石化", "Prov": "北京市", "City": "北京市", "Address": "李桥镇李天路南半壁店段7号", "Operator": "中国石化" }, "geometry": { "type": "Point", "coordinates": [ 116.63744, 40.035075 ] } },
{ "type": "Feature", "properties": { "Name": "中国石化燕顺京加油站", "Lon_Lat": "116.473698,40.087801", "Longitude": 116.473698, "Latitude": 40.087801, "Gdtype": "汽车服务;加油站;中国石化", "Prov": "北京市", "City": "北京市", "Address": "后沙峪地区西泗上村西", "Operator": "中国石化" }, "geometry": { "type": "Point", "coordinates": [ 116.473698, 40.087801 ] } },
{ "type": "Feature", "properties": { "Name": "中国石化东高村加油站", "Lon_Lat": "117.113592,40.098924", "Longitude": 117.113592, "Latitude": 40.098924, "Gdtype": "汽车服务;加油站;中国石化", "Prov": "北京市", "City": "北京市", "Address": "东高村南", "Operator": "中国石化" }, "geometry": { "type": "Point", "coordinates": [ 117.113592, 40.098924 ] } },
{ "type": "Feature", "properties": { "Name": "中国石化大北关加油站", "Lon_Lat": "116.697875,39.778261", "Longitude": 116.697875, "Latitude": 39.778261, "Gdtype": "汽车服务;加油站;中国石化", "Prov": "北京市", "City": "北京市", "Address": "大北关村", "Operator": "中国石化" }, "geometry": { "type": "Point", "coordinates": [ 116.697875, 39.778261 ] } },
{ "type": "Feature", "properties": { "Name": "中国石化果庄加油站", "Lon_Lat": "116.151725,40.329126", "Longitude": 116.151725, "Latitude": 40.329126, "Gdtype": "汽车服务;加油站;中国石化", "Prov": "北京市", "City": "北京市", "Address": "果庄村", "Operator": "中国石化" }, "geometry": { "type": "Point", "coordinates": [ 116.151725, 40.329126 ] } },
{ "type": "Feature", "properties": { "Name": "中国石化志润峰加油站", "Lon_Lat": "116.159124,39.72359", "Longitude": 116.159124, "Latitude": 39.72359, "Gdtype": "汽车服务;加油站;中国石化", "Prov": "北京市", "City": "北京市", "Address": "良乡长虹东路温泉山庄东侧", "Operator": "中国石化" }, "geometry": { "type": "Point", "coordinates": [ 116.159124, 39.72359 ] } },
{ "type": "Feature", "properties": { "Name": "中国石化黄村加油站", "Lon_Lat": "116.322938,39.667052", "Longitude": 116.322938, "Latitude": 39.667052, "Gdtype": "汽车服务;加油站;中国石化", "Prov": "北京市", "City": "北京市", "Address": "北臧村镇纬四路东口北侧10米", "Operator": "中国石化" }, "geometry": { "type": "Point", "coordinates": [ 116.322938, 39.667052 ] } },
{ "type": "Feature", "properties": { "Name": "中国石化长久加油站", "Lon_Lat": "116.745247,40.792552", "Longitude": 116.745247, "Latitude": 40.792552, "Gdtype": "汽车服务;加油站;加油站", "Prov": "北京市", "City": "北京市", "Address": "长哨营村", "Operator": "中国石化" }, "geometry": { "type": "Point", "coordinates": [ 116.745247, 40.792552 ] } },
{ "type": "Feature", "properties": { "Name": "中国石化永飞加油站", "Lon_Lat": "116.914779,40.154099", "Longitude": 116.914779, "Latitude": 40.154099, "Gdtype": "汽车服务;加油站;中国石化", "Prov": "北京市", "City": "北京市", "Address": "行宫村南500米", "Operator": "中国石化" }, "geometry": { "type": "Point", "coordinates": [ 116.914779, 40.154099 ] } },
{ "type": "Feature", "properties": { "Name": "中国石化兴康加油站", "Lon_Lat": "115.907096,40.370466", "Longitude": 115.907096, "Latitude": 40.370466, "Gdtype": "汽车服务;加油站;中国石化", "Prov": "北京市", "City": "北京市", "Address": "康庄镇地税所东100米(延康路出京张高速路拐弯处)", "Operator": "中国石化" }, "geometry": { "type": "Point", "coordinates": [ 115.907096, 40.370466 ] } },
{ "type": "Feature", "properties": { "Name": "中国石化苗圃加油站", "Lon_Lat": "116.407613,40.162443", "Longitude": 116.407613, "Latitude": 40.162443, "Gdtype": "汽车服务;加油站;中国石化", "Prov": "北京市", "City": "北京市", "Address": "小汤山镇马坊村北(小汤山苗圃场部)", "Operator": "中国石化" }, "geometry": { "type": "Point", "coordinates": [ 116.407613, 40.162443 ] } },
{ "type": "Feature", "properties": { "Name": "中国石化运恒加油站(暂停营业)", "Lon_Lat": "116.657072,39.949605", "Longitude": 116.657072, "Latitude": 39.949605, "Gdtype": "汽车服务;加油站;中国石化", "Prov": "北京市", "City": "北京市", "Address": "永顺地区北马庄村(通顺路路东,翠福园小区路东向)", "Operator": "中国石化" }, "geometry": { "type": "Point", "coordinates": [ 116.657072, 39.949605 ] } },
{ "type": "Feature", "properties": { "Name": "中国石化三元东北旺加油站", "Lon_Lat": "116.296539,40.043321", "Longitude": 116.296539, "Latitude": 40.043321, "Gdtype": "汽车服务;加油站;中国石化", "Prov": "北京市", "City": "北京市", "Address": "东北旺路20号与唐家岭路交叉处", "Operator": "中国石化" }, "geometry": { "type": "Point", "coordinates": [ 116.296539, 40.043321 ] } },
{ "type": "Feature", "properties": { "Name": "中国石化龙禹欣顺发加油站", "Lon_Lat": "116.054225,39.721409", "Longitude": 116.054225, "Latitude": 39.721409, "Gdtype": "汽车服务;加油站;中国石化", "Prov": "北京市", "City": "北京市", "Address": "大件路与大窦路交叉处(焦庄村路口南)", "Operator": "中国石化" }, "geometry": { "type": "Point", "coordinates": [ 116.054225, 39.721409 ] } },
{ "type": "Feature", "properties": { "Name": "中国石化清华开拓加油站", "Lon_Lat": "116.315655,40.000477", "Longitude": 116.315655, "Latitude": 40.000477, "Gdtype": "汽车服务;加油站;中国石化", "Prov": "北京市", "City": "北京市", "Address": "北京市海淀区清华大学14区", "Operator": "中国石化" }, "geometry": { "type": "Point", "coordinates": [ 116.315655, 40.000477 ] } },
{ "type": "Feature", "properties": { "Name": "中国石化金燕农良加油站", "Lon_Lat": "116.570217,39.661", "Longitude": 116.570217, "Latitude": 39.661, "Gdtype": "汽车服务;加油站;中国石化", "Prov": "北京市", "City": "北京市", "Address": "长子营镇区良种场西侧", "Operator": "中国石化" }, "geometry": { "type": "Point", "coordinates": [ 116.570217, 39.661 ] } },
{ "type": "Feature", "properties": { "Name": "中国石化服务区加油站", "Lon_Lat": "116.652832,40.054827", "Longitude": 116.652832, "Latitude": 40.054827, "Gdtype": "汽车服务;加油站;中国石化", "Prov": "北京市", "City": "北京市", "Address": [ ], "Operator": "中国石化" }, "geometry": { "type": "Point", "coordinates": [ 116.652832, 40.054827 ] } },
{ "type": "Feature", "properties": { "Name": "中国石化冯家峪加油站", "Lon_Lat": "116.878028,40.610495", "Longitude": 116.878028, "Latitude": 40.610495, "Gdtype": "汽车服务;加油站;中国石化", "Prov": "北京市", "City": "北京市", "Address": "冯家峪石洞子村", "Operator": "中国石化" }, "geometry": { "type": "Point", "coordinates": [ 116.878028, 40.610495 ] } },
{ "type": "Feature", "properties": { "Name": "中国石化兴房加油站", "Lon_Lat": "115.974117,39.680021", "Longitude": 115.974117, "Latitude": 39.680021, "Gdtype": "汽车服务;加油站;中国石化", "Prov": "北京市", "City": "北京市", "Address": "房山街道顾册村北500米", "Operator": "中国石化" }, "geometry": { "type": "Point", "coordinates": [ 115.974117, 39.680021 ] } },
{ "type": "Feature", "properties": { "Name": "中国石化北京通州运政加油站", "Lon_Lat": "116.877492,39.813292", "Longitude": 116.877492, "Latitude": 39.813292, "Gdtype": "汽车服务;加油站;中国石化", "Prov": "北京市", "City": "北京市", "Address": "西集镇车屯村", "Operator": "中国石化" }, "geometry": { "type": "Point", "coordinates": [ 116.877492, 39.813292 ] } },
{ "type": "Feature", "properties": { "Name": "中国石化金福龙加油站", "Lon_Lat": "116.108619,39.943234", "Longitude": 116.108619, "Latitude": 39.943234, "Gdtype": "汽车服务;加油站;中国石化", "Prov": "北京市", "City": "北京市", "Address": "滨河路20号", "Operator": "中国石化" }, "geometry": { "type": "Point", "coordinates": [ 116.108619, 39.943234 ] } },
{ "type": "Feature", "properties": { "Name": "中国石化广宝惠加油站", "Lon_Lat": "116.151505,40.238881", "Longitude": 116.151505, "Latitude": 40.238881, "Gdtype": "汽车服务;加油站;中国石化", "Prov": "北京市", "City": "北京市", "Address": "龙虎台村", "Operator": "中国石化" }, "geometry": { "type": "Point", "coordinates": [ 116.151505, 40.238881 ] } },
{ "type": "Feature", "properties": { "Name": "中国石化房山国华加油站", "Lon_Lat": "115.945498,39.818685", "Longitude": 115.945498, "Latitude": 39.818685, "Gdtype": "汽车服务;加油站;中国石化", "Prov": "北京市", "City": "北京市", "Address": "李各庄村", "Operator": "中国石化" }, "geometry": { "type": "Point", "coordinates": [ 115.945498, 39.818685 ] } },
{ "type": "Feature", "properties": { "Name": "中国石化三元西郊加油站", "Lon_Lat": "116.217148,40.122587", "Longitude": 116.217148, "Latitude": 40.122587, "Gdtype": "汽车服务;加油站;中国石化", "Prov": "北京市", "City": "北京市", "Address": "馨瑞嘉园东侧", "Operator": "中国石化" }, "geometry": { "type": "Point", "coordinates": [ 116.217148, 40.122587 ] } },
{ "type": "Feature", "properties": { "Name": "中国石化三元双桥加油站", "Lon_Lat": "116.589271,39.893027", "Longitude": 116.589271, "Latitude": 39.893027, "Gdtype": "汽车服务;加油站;中国石化", "Prov": "北京市", "City": "北京市", "Address": "双桥中路双桥中学对面", "Operator": "中国石化" }, "geometry": { "type": "Point", "coordinates": [ 116.589271, 39.893027 ] } },
{ "type": "Feature", "properties": { "Name": "中国石化加油站", "Lon_Lat": "116.732598,40.206332", "Longitude": 116.732598, "Latitude": 40.206332, "Gdtype": "汽车服务;加油站;中国石化", "Prov": "北京市", "City": "北京市", "Address": "北小营", "Operator": "中国石化" }, "geometry": { "type": "Point", "coordinates": [ 116.732598, 40.206332 ] } },
{ "type": "Feature", "properties": { "Name": "中国石化大立加油站", "Lon_Lat": "116.439707,39.876121", "Longitude": 116.439707, "Latitude": 39.876121, "Gdtype": "汽车服务;加油站;中国石化", "Prov": "北京市", "City": "北京市", "Address": "龙潭湖公园西侧左安门内大街甲2号", "Operator": "中国石化" }, "geometry": { "type": "Point", "coordinates": [ 116.439707, 39.876121 ] } },
{ "type": "Feature", "properties": { "Name": "中国石化加油站", "Lon_Lat": "116.531867,40.243773", "Longitude": 116.531867, "Latitude": 40.243773, "Gdtype": "汽车服务;加油站;中国石化", "Prov": "北京市", "City": "北京市", "Address": "北石槽村南", "Operator": "中国石化" }, "geometry": { "type": "Point", "coordinates": [ 116.531867, 40.243773 ] } },