{
"type": "FeatureCollection",
"name": "中石油",
"crs": { "type": "name", "properties": { "name": "urn:ogc:def:crs:OGC:1.3:CRS84" } },
"features": [
{ "type": "Feature", "properties": { "Name": "中国石油中图千石玉加油站", "Lon_Lat": "116.100672,39.721322", "Longitude": 116.100672, "Latitude": 39.721322, "Gdtype": "汽车服务;加油站;加油站", "Prov": "北京市", "City": "北京市", "Address": "阎村镇京周路前沿村(澎湃汽车城旁边)", "Operator": "中国石油" }, "geometry": { "type": "Point", "coordinates": [ 116.100672, 39.721322 ] } },
{ "type": "Feature", "properties": { "Name": "中国石油首路东顺奔腾加油站", "Lon_Lat": "116.630761,40.163578", "Longitude": 116.630761, "Latitude": 40.163578, "Gdtype": "汽车服务;加油站;中国石油", "Prov": "北京市", "City": "北京市", "Address": "京密路西侧马坡段(意大利农场旁边)", "Operator": "中国石油" }, "geometry": { "type": "Point", "coordinates": [ 116.630761, 40.163578 ] } },
{ "type": "Feature", "properties": { "Name": "中国石油加油站", "Lon_Lat": "116.713906,40.170990", "Longitude": 116.713906, "Latitude": 40.17099, "Gdtype": "汽车服务;加油站;中国石油", "Prov": "北京市", "City": "北京市", "Address": "北小营镇白马路马辛庄段7号", "Operator": "中国石油" }, "geometry": { "type": "Point", "coordinates": [ 116.713906, 40.17099 ] } },
{ "type": "Feature", "properties": { "Name": "中国石油通州加油站(暂停营业)", "Lon_Lat": "116.678452,39.985865", "Longitude": 116.678452, "Latitude": 39.985865, "Gdtype": "汽车服务;加油站;中国石油", "Prov": "北京市", "City": "北京市", "Address": "徐尹路361号", "Operator": "中国石油" }, "geometry": { "type": "Point", "coordinates": [ 116.678452, 39.985865 ] } },
{ "type": "Feature", "properties": { "Name": "中国石油特许加盟首发西青加油站", "Lon_Lat": "116.455431,39.670185", "Longitude": 116.455431, "Latitude": 39.670185, "Gdtype": "汽车服务;加油站;中国石油", "Prov": "北京市", "City": "北京市", "Address": "魏善庄镇京台高速出京方向", "Operator": "中国石油" }, "geometry": { "type": "Point", "coordinates": [ 116.455431, 39.670185 ] } },
{ "type": "Feature", "properties": { "Name": "中国石油月坛加油站", "Lon_Lat": "116.356096,39.916342", "Longitude": 116.356096, "Latitude": 39.916342, "Gdtype": "汽车服务;加油站;中国石油", "Prov": "北京市", "City": "北京市", "Address": "月坛南街甲1号", "Operator": "中国石油" }, "geometry": { "type": "Point", "coordinates": [ 116.356096, 39.916342 ] } },
{ "type": "Feature", "properties": { "Name": "中国石油北汽多时捷加油站", "Lon_Lat": "116.45485,39.819246", "Longitude": 116.45485, "Latitude": 39.819246, "Gdtype": "汽车服务;加油站;加油站", "Prov": "北京市", "City": "北京市", "Address": "旧宫小红门路36号", "Operator": "中国石油" }, "geometry": { "type": "Point", "coordinates": [ 116.45485, 39.819246 ] } },
{ "type": "Feature", "properties": { "Name": "中国石油加油站(暂停营业)", "Lon_Lat": "116.236498,39.833435", "Longitude": 116.236498, "Latitude": 39.833435, "Gdtype": "汽车服务;加油站;中国石油", "Prov": "北京市", "City": "北京市", "Address": "宛平街道S50(西五环路)", "Operator": "中国石油" }, "geometry": { "type": "Point", "coordinates": [ 116.236498, 39.833435 ] } },
{ "type": "Feature", "properties": { "Name": "中国石油金港加油站", "Lon_Lat": "116.117866,39.730285", "Longitude": 116.117866, "Latitude": 39.730285, "Gdtype": "汽车服务;加油站;中国石油", "Prov": "北京市", "City": "北京市", "Address": "良乡镇镇南东沿村路路口向西路北", "Operator": "中国石油" }, "geometry": { "type": "Point", "coordinates": [ 116.117866, 39.730285 ] } },
{ "type": "Feature", "properties": { "Name": "中国石油奥东加油站", "Lon_Lat": "116.50611,40.024271", "Longitude": 116.50611, "Latitude": 40.024271, "Gdtype": "汽车服务;加油站;中国石油", "Prov": "北京市", "City": "北京市", "Address": "来广营东路17号", "Operator": "中国石油" }, "geometry": { "type": "Point", "coordinates": [ 116.50611, 40.024271 ] } },
{ "type": "Feature", "properties": { "Name": "中国石油新大加油站", "Lon_Lat": "116.218431,39.70311", "Longitude": 116.218431, "Latitude": 39.70311, "Gdtype": "汽车服务;加油站;加油站", "Prov": "北京市", "City": "北京市", "Address": "葫芦垡村", "Operator": "中国石油" }, "geometry": { "type": "Point", "coordinates": [ 116.218431, 39.70311 ] } },
{ "type": "Feature", "properties": { "Name": "中国石油中博加油站", "Lon_Lat": "116.527426,39.94092", "Longitude": 116.527426, "Latitude": 39.94092, "Gdtype": "汽车服务;加油站;中国石油", "Prov": "北京市", "City": "北京市", "Address": "姚家园路76号", "Operator": "中国石油" }, "geometry": { "type": "Point", "coordinates": [ 116.527426, 39.94092 ] } },
{ "type": "Feature", "properties": { "Name": "中国石油特许加盟长谷经贸加油站", "Lon_Lat": "117.019442,40.143041", "Longitude": 117.019442, "Latitude": 40.143041, "Gdtype": "汽车服务;加油站;加油站", "Prov": "北京市", "City": "北京市", "Address": "峰云街7号", "Operator": "中国石油" }, "geometry": { "type": "Point", "coordinates": [ 117.019442, 40.143041 ] } },
{ "type": "Feature", "properties": { "Name": "中国石油京开高速加油站", "Lon_Lat": "116.322484,39.48928", "Longitude": 116.322484, "Latitude": 39.48928, "Gdtype": "汽车服务;加油站;加油站", "Prov": "北京市", "City": "北京市", "Address": "榆垡镇106国道", "Operator": "中国石油" }, "geometry": { "type": "Point", "coordinates": [ 116.322484, 39.48928 ] } },
{ "type": "Feature", "properties": { "Name": "中国石油慧普苗圃加油站", "Lon_Lat": "116.217412,39.968828", "Longitude": 116.217412, "Latitude": 39.968828, "Gdtype": "汽车服务;加油站;中国石油", "Prov": "北京市", "City": "北京市", "Address": "北辛庄路甲12号", "Operator": "中国石油" }, "geometry": { "type": "Point", "coordinates": [ 116.217412, 39.968828 ] } },
{ "type": "Feature", "properties": { "Name": "中国石油远升加油站", "Lon_Lat": "117.105055,40.13822", "Longitude": 117.105055, "Latitude": 40.13822, "Gdtype": "汽车服务;加油站;加油站", "Prov": "北京市", "City": "北京市", "Address": "林荫南街3号", "Operator": "中国石油" }, "geometry": { "type": "Point", "coordinates": [ 117.105055, 40.13822 ] } },
{ "type": "Feature", "properties": { "Name": "中国石油顺实加油站", "Lon_Lat": "116.686864,40.038381", "Longitude": 116.686864, "Latitude": 40.038381, "Gdtype": "汽车服务;加油站;加油站", "Prov": "北京市", "City": "北京市", "Address": "育才东路9号", "Operator": "中国石油" }, "geometry": { "type": "Point", "coordinates": [ 116.686864, 40.038381 ] } },
{ "type": "Feature", "properties": { "Name": "中国石油加油站", "Lon_Lat": "116.518564,39.826433", "Longitude": 116.518564, "Latitude": 39.826433, "Gdtype": "汽车服务;加油站;中国石油", "Prov": "北京市", "City": "北京市", "Address": "亦庄五环路金色漫香林南水北调北门", "Operator": "中国石油" }, "geometry": { "type": "Point", "coordinates": [ 116.518564, 39.826433 ] } },
{ "type": "Feature", "properties": { "Name": "中国石油北汽加油站", "Lon_Lat": "116.420914,40.002233", "Longitude": 116.420914, "Latitude": 40.002233, "Gdtype": "汽车服务;加油站;中国石油", "Prov": "北京市", "City": "北京市", "Address": "大屯路238号", "Operator": "中国石油" }, "geometry": { "type": "Point", "coordinates": [ 116.420914, 40.002233 ] } },
{ "type": "Feature", "properties": { "Name": "中国石油利易泰加油站", "Lon_Lat": "116.757914,40.336146", "Longitude": 116.757914, "Latitude": 40.336146, "Gdtype": "汽车服务;加油站;加油站", "Prov": "北京市", "City": "北京市", "Address": "京密路与西统路交叉口东150米", "Operator": "中国石油" }, "geometry": { "type": "Point", "coordinates": [ 116.757914, 40.336146 ] } },
{ "type": "Feature", "properties": { "Name": "中国石油京胜京昌加油站", "Lon_Lat": "115.896584,40.358300", "Longitude": 115.896584, "Latitude": 40.3583, "Gdtype": "汽车服务;加油站;中国石油", "Prov": "北京市", "City": "北京市", "Address": "八达岭工业开发区八达岭高速公路市界收费站东200米", "Operator": "中国石油" }, "geometry": { "type": "Point", "coordinates": [ 115.896584, 40.3583 ] } },
{ "type": "Feature", "properties": { "Name": "中国石油华荣加油站", "Lon_Lat": "116.380027,39.742713", "Longitude": 116.380027, "Latitude": 39.742713, "Gdtype": "汽车服务;加油站;加油站", "Prov": "北京市", "City": "北京市", "Address": "团河农场东500米兴亦路南侧(沐和街临2号院)", "Operator": "中国石油" }, "geometry": { "type": "Point", "coordinates": [ 116.380027, 39.742713 ] } },
{ "type": "Feature", "properties": { "Name": "中国石油慧普山根加油站", "Lon_Lat": "116.208007,39.974129", "Longitude": 116.208007, "Latitude": 39.974129, "Gdtype": "汽车服务;加油站;中国石油", "Prov": "北京市", "City": "北京市", "Address": "香山南路28号平房(香山南路与闵庄路交叉口北)", "Operator": "中国石油" }, "geometry": { "type": "Point", "coordinates": [ 116.208007, 39.974129 ] } },
{ "type": "Feature", "properties": { "Name": "中国石油富华兆元加油站", "Lon_Lat": "116.566837,39.806895", "Longitude": 116.566837, "Latitude": 39.806895, "Gdtype": "汽车服务;加油站;中国石油", "Prov": "北京市", "City": "北京市", "Address": "台湖镇嘉创五路13号", "Operator": "中国石油" }, "geometry": { "type": "Point", "coordinates": [ 116.566837, 39.806895 ] } },
{ "type": "Feature", "properties": { "Name": "中国石油龙江奔达加油站", "Lon_Lat": "116.325434,39.85086", "Longitude": 116.325434, "Latitude": 39.85086, "Gdtype": "汽车服务;加油站;中国石油", "Prov": "北京市", "City": "北京市", "Address": "纪家庙村东100米", "Operator": "中国石油" }, "geometry": { "type": "Point", "coordinates": [ 116.325434, 39.85086 ] } },
{ "type": "Feature", "properties": { "Name": "中国石油安燕加油站", "Lon_Lat": "116.411402,39.94957", "Longitude": 116.411402, "Latitude": 39.94957, "Gdtype": "汽车服务;加油站;中国石油", "Prov": "北京市", "City": "北京市", "Address": "安定门桥东北角(安定门地铁站B东北口步行280米)", "Operator": "中国石油" }, "geometry": { "type": "Point", "coordinates": [ 116.411402, 39.94957 ] } },
{ "type": "Feature", "properties": { "Name": "中国石油同顺来加油站", "Lon_Lat": "116.515143,40.165257", "Longitude": 116.515143, "Latitude": 40.165257, "Gdtype": "汽车服务;加油站;中国石油", "Prov": "北京市", "City": "北京市", "Address": "高丽营镇顺沙路与白良路交叉口", "Operator": "中国石油" }, "geometry": { "type": "Point", "coordinates": [ 116.515143, 40.165257 ] } },
{ "type": "Feature", "properties": { "Name": "中国石油魏善庄加油站", "Lon_Lat": "116.385941,39.616411", "Longitude": 116.385941, "Latitude": 39.616411, "Gdtype": "汽车服务;加油站;中国石油", "Prov": "北京市", "City": "北京市", "Address": "东大路与庞安路交叉口东北100米", "Operator": "中国石油" }, "geometry": { "type": "Point", "coordinates": [ 116.385941, 39.616411 ] } },
{ "type": "Feature", "properties": { "Name": "中国石油特许加盟丰台亚源加油站", "Lon_Lat": "116.357928,39.854106", "Longitude": 116.357928, "Latitude": 39.854106, "Gdtype": "汽车服务;加油站;中国石油", "Prov": "北京市", "City": "北京市", "Address": "右安门外中顶村680号", "Operator": "中国石油" }, "geometry": { "type": "Point", "coordinates": [ 116.357928, 39.854106 ] } },
{ "type": "Feature", "properties": { "Name": "中国石油京胜望京南加油站", "Lon_Lat": "116.482516,40.013722", "Longitude": 116.482516, "Latitude": 40.013722, "Gdtype": "汽车服务;加油站;中国石油", "Prov": "北京市", "City": "北京市", "Address": "来广营乡(广泽桥东200米)", "Operator": "中国石油" }, "geometry": { "type": "Point", "coordinates": [ 116.482516, 40.013722 ] } },
{ "type": "Feature", "properties": { "Name": "中国石油韩村河加油站", "Lon_Lat": "115.958186,39.603649", "Longitude": 115.958186, "Latitude": 39.603649, "Gdtype": "汽车服务;加油站;中国石油", "Prov": "北京市", "City": "北京市", "Address": "岳琉路40号", "Operator": "中国石油" }, "geometry": { "type": "Point", "coordinates": [ 115.958186, 39.603649 ] } },
{ "type": "Feature", "properties": { "Name": "中国石油首汽19号站", "Lon_Lat": "117.247274,40.176965", "Longitude": 117.247274, "Latitude": 40.176965, "Gdtype": "汽车服务;加油站;中国石油", "Prov": "北京市", "City": "北京市", "Address": "金海湖镇平蓟路胡庄村段,与胡黑路交叉处西侧路北", "Operator": "中国石油" }, "geometry": { "type": "Point", "coordinates": [ 117.247274, 40.176965 ] } },
{ "type": "Feature", "properties": { "Name": "中国石油来广营加油站", "Lon_Lat": "116.461492,40.023926", "Longitude": 116.461492, "Latitude": 40.023926, "Gdtype": "汽车服务;加油站;加油站", "Prov": "北京市", "City": "北京市", "Address": "来广营北路1号", "Operator": "中国石油" }, "geometry": { "type": "Point", "coordinates": [ 116.461492, 40.023926 ] } },
{ "type": "Feature", "properties": { "Name": "中国石油首汽加油站", "Lon_Lat": "116.379454,39.834326", "Longitude": 116.379454, "Latitude": 39.834326, "Gdtype": "汽车服务;加油站;中国石油", "Prov": "北京市", "City": "北京市", "Address": "马家堡南路北天津庄95号", "Operator": "中国石油" }, "geometry": { "type": "Point", "coordinates": [ 116.379454, 39.834326 ] } },
{ "type": "Feature", "properties": { "Name": "中国石油东方动力加油站", "Lon_Lat": "116.966511,40.407678", "Longitude": 116.966511, "Latitude": 40.407678, "Gdtype": "汽车服务;加油站;加油站", "Prov": "北京市", "City": "北京市", "Address": "101国道与密古路交叉口西100米路北", "Operator": "中国石油" }, "geometry": { "type": "Point", "coordinates": [ 116.966511, 40.407678 ] } },
{ "type": "Feature", "properties": { "Name": "中国石油特许加盟龙泉加油站", "Lon_Lat": "115.924875,39.676182", "Longitude": 115.924875, "Latitude": 39.676182, "Gdtype": "汽车服务;加油站;中国石油", "Prov": "北京市", "City": "北京市", "Address": "周口店娄子水村东北侧", "Operator": "中国石油" }, "geometry": { "type": "Point", "coordinates": [ 115.924875, 39.676182 ] } },
{ "type": "Feature", "properties": { "Name": "中国石油燕兴加油站", "Lon_Lat": "116.324582,39.505877", "Longitude": 116.324582, "Latitude": 39.505877, "Gdtype": "汽车服务;加油站;中国石油", "Prov": "北京市", "City": "北京市", "Address": "榆顺路7号", "Operator": "中国石油" }, "geometry": { "type": "Point", "coordinates": [ 116.324582, 39.505877 ] } },
{ "type": "Feature", "properties": { "Name": "中国石油田家府服务区加油站", "Lon_Lat": "116.669845,39.840207", "Longitude": 116.669845, "Latitude": 39.840207, "Gdtype": "汽车服务;加油站;中国石油", "Prov": "北京市", "City": "北京市", "Address": "京沈高速路服务区台湖镇田家府服务区", "Operator": "中国石油" }, "geometry": { "type": "Point", "coordinates": [ 116.669845, 39.840207 ] } },
{ "type": "Feature", "properties": { "Name": "中国石油鑫邦达加油站", "Lon_Lat": "116.520547,39.798973", "Longitude": 116.520547, "Latitude": 39.798973, "Gdtype": "汽车服务;加油站;中国石油", "Prov": "北京市", "City": "北京市", "Address": "同济北路26号", "Operator": "中国石油" }, "geometry": { "type": "Point", "coordinates": [ 116.520547, 39.798973 ] } },
{ "type": "Feature", "properties": { "Name": "中国石油鑫世恒通加油站", "Lon_Lat": "116.327819,39.606530", "Longitude": 116.327819, "Latitude": 39.60653, "Gdtype": "汽车服务;加油站;中国石油", "Prov": "北京市", "City": "北京市", "Address": "薛营村东500米", "Operator": "中国石油" }, "geometry": { "type": "Point", "coordinates": [ 116.327819, 39.60653 ] } },
{ "type": "Feature", "properties": { "Name": "中国石油特许加盟龙山加油站", "Lon_Lat": "115.99559,39.724976", "Longitude": 115.99559, "Latitude": 39.724976, "Gdtype": "汽车服务;加油站;中国石油", "Prov": "北京市", "City": "北京市", "Address": "大件路燕化动力厂斜对面", "Operator": "中国石油" }, "geometry": { "type": "Point", "coordinates": [ 115.99559, 39.724976 ] } },
{ "type": "Feature", "properties": { "Name": "中国石油北汽宣武门加油站", "Lon_Lat": "116.373164,39.899202", "Longitude": 116.373164, "Latitude": 39.899202, "Gdtype": "汽车服务;加油站;中国石油", "Prov": "北京市", "City": "北京市", "Address": "宣武门西大街2号楼东", "Operator": "中国石油" }, "geometry": { "type": "Point", "coordinates": [ 116.373164, 39.899202 ] } },
{ "type": "Feature", "properties": { "Name": "燕港石化加油站", "Lon_Lat": "116.335560,39.977003", "Longitude": 116.33556, "Latitude": 39.977003, "Gdtype": "汽车服务;加油站;中国石油", "Prov": "北京市", "City": "北京市", "Address": "知春路53号", "Operator": "中国石油" }, "geometry": { "type": "Point", "coordinates": [ 116.33556, 39.977003 ] } },
{ "type": "Feature", "properties": { "Name": "中国石油前苇沟加油站", "Lon_Lat": "116.555392,40.025528", "Longitude": 116.555392, "Latitude": 40.025528, "Gdtype": "汽车服务;加油站;中国石油", "Prov": "北京市", "City": "北京市", "Address": "前苇沟村甲1号", "Operator": "中国石油" }, "geometry": { "type": "Point", "coordinates": [ 116.555392, 40.025528 ] } },
{ "type": "Feature", "properties": { "Name": "中国石油中图春兴加油站", "Lon_Lat": "116.038008,39.765192", "Longitude": 116.038008, "Latitude": 39.765192, "Gdtype": "汽车服务;加油站;加油站", "Prov": "北京市", "City": "北京市", "Address": "阎河路", "Operator": "中国石油" }, "geometry": { "type": "Point", "coordinates": [ 116.038008, 39.765192 ] } },
{ "type": "Feature", "properties": { "Name": "中国石油华路怀柔加油站", "Lon_Lat": "116.644314,40.300108", "Longitude": 116.644314, "Latitude": 40.300108, "Gdtype": "汽车服务;加油站;中国石油", "Prov": "北京市", "City": "北京市", "Address": "京密路辅路与迎宾南路交汇路口向北路东,怀柔镇政府附近", "Operator": "中国石油" }, "geometry": { "type": "Point", "coordinates": [ 116.644314, 40.300108 ] } },
{ "type": "Feature", "properties": { "Name": "中国石油南湖加油站", "Lon_Lat": "116.457685,39.979838", "Longitude": 116.457685, "Latitude": 39.979838, "Gdtype": "汽车服务;加油站;加油站", "Prov": "北京市", "City": "北京市", "Address": "北四环东路17号", "Operator": "中国石油" }, "geometry": { "type": "Point", "coordinates": [ 116.457685, 39.979838 ] } },
{ "type": "Feature", "properties": { "Name": "中国石油新昌加油站", "Lon_Lat": "116.262681,40.138893", "Longitude": 116.262681, "Latitude": 40.138893, "Gdtype": "汽车服务;加油站;中国石油", "Prov": "北京市", "City": "北京市", "Address": "G6辅路和G6京藏高速百沙路入口的交叉口附近", "Operator": "中国石油" }, "geometry": { "type": "Point", "coordinates": [ 116.262681, 40.138893 ] } },
{ "type": "Feature", "properties": { "Name": "中国石油首汽八号加油站", "Lon_Lat": "116.468272,39.961417", "Longitude": 116.468272, "Latitude": 39.961417, "Gdtype": "汽车服务;加油站;加油站", "Prov": "北京市", "City": "北京市", "Address": "霄云路24号", "Operator": "中国石油" }, "geometry": { "type": "Point", "coordinates": [ 116.468272, 39.961417 ] } },
{ "type": "Feature", "properties": { "Name": "中国石油北苑加油站", "Lon_Lat": "116.441134,40.027744", "Longitude": 116.441134, "Latitude": 40.027744, "Gdtype": "汽车服务;加油站;中国石油", "Prov": "北京市", "City": "北京市", "Address": "北苑东路350号", "Operator": "中国石油" }, "geometry": { "type": "Point", "coordinates": [ 116.441134, 40.027744 ] } },
{ "type": "Feature", "properties": { "Name": "中国石油顺如意加油站", "Lon_Lat": "116.937228,40.397977", "Longitude": 116.937228, "Latitude": 40.397977, "Gdtype": "汽车服务;加油站;中国石油", "Prov": "北京市", "City": "北京市", "Address": "京承高速密云服务区内", "Operator": "中国石油" }, "geometry": { "type": "Point", "coordinates": [ 116.937228, 40.397977 ] } },
{ "type": "Feature", "properties": { "Name": "中国石油环美加油站", "Lon_Lat": "116.196437,39.928719", "Longitude": 116.196437, "Latitude": 39.928719, "Gdtype": "汽车服务;加油站;中国石油", "Prov": "北京市", "City": "北京市", "Address": "杨庄北区", "Operator": "中国石油" }, "geometry": { "type": "Point", "coordinates": [ 116.196437, 39.928719 ] } },
{ "type": "Feature", "properties": { "Name": "中国石油驰华加油站", "Lon_Lat": "116.326185,39.625007", "Longitude": 116.326185, "Latitude": 39.625007, "Gdtype": "汽车服务;加油站;加油站", "Prov": "北京市", "City": "北京市", "Address": "庞各庄镇大广高速辅路东侧", "Operator": "中国石油" }, "geometry": { "type": "Point", "coordinates": [ 116.326185, 39.625007 ] } },
{ "type": "Feature", "properties": { "Name": "中国石油开研加油站", "Lon_Lat": "116.505056,39.954289", "Longitude": 116.505056, "Latitude": 39.954289, "Gdtype": "汽车服务;加油站;中国石油", "Prov": "北京市", "City": "北京市", "Address": "东风南路20号(朝阳气象局旁)", "Operator": "中国石油" }, "geometry": { "type": "Point", "coordinates": [ 116.505056, 39.954289 ] } },
{ "type": "Feature", "properties": { "Name": "中国石油燕鑫兆元加油站", "Lon_Lat": "116.484177,39.900796", "Longitude": 116.484177, "Latitude": 39.900796, "Gdtype": "汽车服务;加油站;加油站", "Prov": "北京市", "City": "北京市", "Address": "百子湾路27号", "Operator": "中国石油" }, "geometry": { "type": "Point", "coordinates": [ 116.484177, 39.900796 ] } },
{ "type": "Feature", "properties": { "Name": "中国石油首汽十七号加油站", "Lon_Lat": "117.123421,40.127848", "Longitude": 117.123421, "Latitude": 40.127848, "Gdtype": "汽车服务;加油站;加油站", "Prov": "北京市", "City": "北京市", "Address": "新平东路东寺渠村南", "Operator": "中国石油" }, "geometry": { "type": "Point", "coordinates": [ 117.123421, 40.127848 ] } },
{ "type": "Feature", "properties": { "Name": "中国石油首发能源北京鑫京台加油站", "Lon_Lat": "116.456201,39.670597", "Longitude": 116.456201, "Latitude": 39.670597, "Gdtype": "汽车服务;加油站;中国石油", "Prov": "北京市", "City": "北京市", "Address": "魏善庄镇京台高速进京方向", "Operator": "中国石油" }, "geometry": { "type": "Point", "coordinates": [ 116.456201, 39.670597 ] } },
{ "type": "Feature", "properties": { "Name": "中国石油常营加油站", "Lon_Lat": "116.582499,39.923999", "Longitude": 116.582499, "Latitude": 39.923999, "Gdtype": "汽车服务;加油站;加油站", "Prov": "北京市", "City": "北京市", "Address": "朝阳北路24号", "Operator": "中国石油" }, "geometry": { "type": "Point", "coordinates": [ 116.582499, 39.923999 ] } },
{ "type": "Feature", "properties": { "Name": "中国石油岳上加油站", "Lon_Lat": "116.838776,39.813192", "Longitude": 116.838776, "Latitude": 39.813192, "Gdtype": "汽车服务;加油站;中国石油", "Prov": "北京市", "City": "北京市", "Address": "西集镇杜柳棵小学旁", "Operator": "中国石油" }, "geometry": { "type": "Point", "coordinates": [ 116.838776, 39.813192 ] } },
{ "type": "Feature", "properties": { "Name": "中国石油天坛东路加油站", "Lon_Lat": "116.421637,39.876543", "Longitude": 116.421637, "Latitude": 39.876543, "Gdtype": "汽车服务;加油站;中国石油", "Prov": "北京市", "City": "北京市", "Address": "天坛东路76号", "Operator": "中国石油" }, "geometry": { "type": "Point", "coordinates": [ 116.421637, 39.876543 ] } },
{ "type": "Feature", "properties": { "Name": "中国石油华星加油站", "Lon_Lat": "116.323021,39.506397", "Longitude": 116.323021, "Latitude": 39.506397, "Gdtype": "汽车服务;加油站;加油站", "Prov": "北京市", "City": "北京市", "Address": "榆垡镇胡林分场", "Operator": "中国石油" }, "geometry": { "type": "Point", "coordinates": [ 116.323021, 39.506397 ] } },
{ "type": "Feature", "properties": { "Name": "中国石油特许加盟丰胜加油站", "Lon_Lat": "116.245406,39.890082", "Longitude": 116.245406, "Latitude": 39.890082, "Gdtype": "汽车服务;加油站;中国石油", "Prov": "北京市", "City": "北京市", "Address": "吴家村路乙21号", "Operator": "中国石油" }, "geometry": { "type": "Point", "coordinates": [ 116.245406, 39.890082 ] } },
{ "type": "Feature", "properties": { "Name": "中国石油特许加盟风华顺加油站", "Lon_Lat": "116.778679,40.067097", "Longitude": 116.778679, "Latitude": 40.067097, "Gdtype": "汽车服务;加油站;加油站", "Prov": "北京市", "City": "北京市", "Address": "龙塘路箭杆河桥西", "Operator": "中国石油" }, "geometry": { "type": "Point", "coordinates": [ 116.778679, 40.067097 ] } },
{ "type": "Feature", "properties": { "Name": "中国石油柳荫加油站", "Lon_Lat": "116.405259,39.959114", "Longitude": 116.405259, "Latitude": 39.959114, "Gdtype": "汽车服务;加油站;中国石油", "Prov": "北京市", "City": "北京市", "Address": "青年湖北街3号", "Operator": "中国石油" }, "geometry": { "type": "Point", "coordinates": [ 116.405259, 39.959114 ] } },
{ "type": "Feature", "properties": { "Name": "中国石油光华路加油站", "Lon_Lat": "116.472048,39.913838", "Longitude": 116.472048, "Latitude": 39.913838, "Gdtype": "汽车服务;加油站;中国石油", "Prov": "北京市", "City": "北京市", "Address": "光华路与郎家园西路交汇处", "Operator": "中国石油" }, "geometry": { "type": "Point", "coordinates": [ 116.472048, 39.913838 ] } },
{ "type": "Feature", "properties": { "Name": "中国石油鲁谷加油站", "Lon_Lat": "116.214767,39.902927", "Longitude": 116.214767, "Latitude": 39.902927, "Gdtype": "汽车服务;加油站;加油站", "Prov": "北京市", "City": "北京市", "Address": "翠园西街8号", "Operator": "中国石油" }, "geometry": { "type": "Point", "coordinates": [ 116.214767, 39.902927 ] } },
{ "type": "Feature", "properties": { "Name": "中国石油京兰源加油站", "Lon_Lat": "115.641612,39.944576", "Longitude": 115.641612, "Latitude": 39.944576, "Gdtype": "汽车服务;加油站;中国石油", "Prov": "北京市", "City": "北京市", "Address": [ ], "Operator": "中国石油" }, "geometry": { "type": "Point", "coordinates": [ 115.641612, 39.944576 ] } },
{ "type": "Feature", "properties": { "Name": "中国石油京东天源加油站", "Lon_Lat": "116.703127,39.833832", "Longitude": 116.703127, "Latitude": 39.833832, "Gdtype": "汽车服务;加油站;加油站", "Prov": "北京市", "City": "北京市", "Address": "张采路临8号", "Operator": "中国石油" }, "geometry": { "type": "Point", "coordinates": [ 116.703127, 39.833832 ] } },
{ "type": "Feature", "properties": { "Name": "中国石油黎明加油站(暂停营业)", "Lon_Lat": "116.068655,39.661853", "Longitude": 116.068655, "Latitude": 39.661853, "Gdtype": "汽车服务;加油站;中国石油", "Prov": "北京市", "City": "北京市", "Address": "南大路15号", "Operator": "中国石油" }, "geometry": { "type": "Point", "coordinates": [ 116.068655, 39.661853 ] } },
{ "type": "Feature", "properties": { "Name": "中国石油祥威加油站", "Lon_Lat": "116.84494,40.360133", "Longitude": 116.84494, "Latitude": 40.360133, "Gdtype": "汽车服务;加油站;加油站", "Prov": "北京市", "City": "北京市", "Address": "密云镇长安新村", "Operator": "中国石油" }, "geometry": { "type": "Point", "coordinates": [ 116.84494, 40.360133 ] } },
{ "type": "Feature", "properties": { "Name": "中国石油加油站(暂停营业)", "Lon_Lat": "115.979893,39.655979", "Longitude": 115.979893, "Latitude": 39.655979, "Gdtype": "汽车服务;加油站;中国石油", "Prov": "北京市", "City": "北京市", "Address": "顾郑路石楼镇文体广场西南侧约60米", "Operator": "中国石油" }, "geometry": { "type": "Point", "coordinates": [ 115.979893, 39.655979 ] } },
{ "type": "Feature", "properties": { "Name": "中国石油安顺加油站", "Lon_Lat": "116.666956,40.054126", "Longitude": 116.666956, "Latitude": 40.054126, "Gdtype": "汽车服务;加油站;加油站", "Prov": "北京市", "City": "北京市", "Address": "李桥村北通顺路98-100号", "Operator": "中国石油" }, "geometry": { "type": "Point", "coordinates": [ 116.666956, 40.054126 ] } },
{ "type": "Feature", "properties": { "Name": "中国石油北顺意加油站", "Lon_Lat": "116.514689,40.210691", "Longitude": 116.514689, "Latitude": 40.210691, "Gdtype": "汽车服务;加油站;中国石油", "Prov": "北京市", "City": "北京市", "Address": "赵全营板桥村西牛板路北侧", "Operator": "中国石油" }, "geometry": { "type": "Point", "coordinates": [ 116.514689, 40.210691 ] } },
{ "type": "Feature", "properties": { "Name": "中国石油国门天翔加油站", "Lon_Lat": "116.575981,40.064135", "Longitude": 116.575981, "Latitude": 40.064135, "Gdtype": "汽车服务;加油站;中国石油", "Prov": "北京市", "City": "北京市", "Address": "府前二街与府右街交叉口西路南侧", "Operator": "中国石油" }, "geometry": { "type": "Point", "coordinates": [ 116.575981, 40.064135 ] } },
{ "type": "Feature", "properties": { "Name": "中国石油华都加油站", "Lon_Lat": "116.658317,39.835105", "Longitude": 116.658317, "Latitude": 39.835105, "Gdtype": "汽车服务;加油站;中国石油", "Prov": "北京市", "City": "北京市", "Address": "台湖镇玉甫上营村北加油站", "Operator": "中国石油" }, "geometry": { "type": "Point", "coordinates": [ 116.658317, 39.835105 ] } },
{ "type": "Feature", "properties": { "Name": "中国石油鑫福海加油站", "Lon_Lat": "116.401298,39.849872", "Longitude": 116.401298, "Latitude": 39.849872, "Gdtype": "汽车服务;加油站;中国石油", "Prov": "北京市", "City": "北京市", "Address": "南苑路22号", "Operator": "中国石油" }, "geometry": { "type": "Point", "coordinates": [ 116.401298, 39.849872 ] } },
{ "type": "Feature", "properties": { "Name": "中国石油福佳特加油站", "Lon_Lat": "116.084512,39.809837", "Longitude": 116.084512, "Latitude": 39.809837, "Gdtype": "汽车服务;加油站;中国石油", "Prov": "北京市", "City": "北京市", "Address": "常乐寺村南", "Operator": "中国石油" }, "geometry": { "type": "Point", "coordinates": [ 116.084512, 39.809837 ] } },
{ "type": "Feature", "properties": { "Name": "中国石油方深加油站", "Lon_Lat": "116.690807,39.871446", "Longitude": 116.690807, "Latitude": 39.871446, "Gdtype": "汽车服务;加油站;加油站", "Prov": "北京市", "City": "北京市", "Address": "砖厂村西", "Operator": "中国石油" }, "geometry": { "type": "Point", "coordinates": [ 116.690807, 39.871446 ] } },
{ "type": "Feature", "properties": { "Name": "中国石油浩瀚龙加油站", "Lon_Lat": "116.242799,39.856328", "Longitude": 116.242799, "Latitude": 39.856328, "Gdtype": "汽车服务;加油站;中国石油", "Prov": "北京市", "City": "北京市", "Address": "卢沟桥路与西五里店路交叉口路北", "Operator": "中国石油" }, "geometry": { "type": "Point", "coordinates": [ 116.242799, 39.856328 ] } },
{ "type": "Feature", "properties": { "Name": "中国石油祥龙石运加油站", "Lon_Lat": "116.325154,39.886634", "Longitude": 116.325154, "Latitude": 39.886634, "Gdtype": "汽车服务;加油站;中国石油", "Prov": "北京市", "City": "北京市", "Address": "广安门外马连道9号(湾子地铁站D西南口步行470米)", "Operator": "中国石油" }, "geometry": { "type": "Point", "coordinates": [ 116.325154, 39.886634 ] } },
{ "type": "Feature", "properties": { "Name": "中国石油加油站", "Lon_Lat": "116.560398,40.096927", "Longitude": 116.560398, "Latitude": 40.096927, "Gdtype": "汽车服务;加油站;中国石油", "Prov": "北京市", "City": "北京市", "Address": [ ], "Operator": "中国石油" }, "geometry": { "type": "Point", "coordinates": [ 116.560398, 40.096927 ] } },
{ "type": "Feature", "properties": { "Name": "中国石油西小营加油站", "Lon_Lat": "116.56203,40.191014", "Longitude": 116.56203, "Latitude": 40.191014, "Gdtype": "汽车服务;加油站;加油站", "Prov": "北京市", "City": "北京市", "Address": "西小营村北侧", "Operator": "中国石油" }, "geometry": { "type": "Point", "coordinates": [ 116.56203, 40.191014 ] } },
{ "type": "Feature", "properties": { "Name": "中国石油华路密云加油站", "Lon_Lat": "116.857620,40.372594", "Longitude": 116.85762, "Latitude": 40.372594, "Gdtype": "汽车服务;加油站;中国石油", "Prov": "北京市", "City": "北京市", "Address": "密云镇新东路南口", "Operator": "中国石油" }, "geometry": { "type": "Point", "coordinates": [ 116.85762, 40.372594 ] } },
{ "type": "Feature", "properties": { "Name": "中国石油慧普华威路加油站(暂停营业)", "Lon_Lat": "116.459057,39.882232", "Longitude": 116.459057, "Latitude": 39.882232, "Gdtype": "汽车服务;加油站;加油站", "Prov": "北京市", "City": "北京市", "Address": "劲松南路3号楼北侧", "Operator": "中国石油" }, "geometry": { "type": "Point", "coordinates": [ 116.459057, 39.882232 ] } },
{ "type": "Feature", "properties": { "Name": "中国石油加油站(南宫社区卫生服务站南)(暂停营业)", "Lon_Lat": "116.462781,39.727974", "Longitude": 116.462781, "Latitude": 39.727974, "Gdtype": "汽车服务;加油站;中国石油", "Prov": "北京市", "City": "北京市", "Address": "京福路与黄马路交叉口北约180米", "Operator": "中国石油" }, "geometry": { "type": "Point", "coordinates": [ 116.462781, 39.727974 ] } },
{ "type": "Feature", "properties": { "Name": "中国石油首发能源加油站(西三旗进京)", "Lon_Lat": "116.333100,40.049294", "Longitude": 116.3331, "Latitude": 40.049294, "Gdtype": "汽车服务;加油站;中国石油", "Prov": "北京市", "City": "北京市", "Address": "西三旗桥南300米高速路内进京方向", "Operator": "中国石油" }, "geometry": { "type": "Point", "coordinates": [ 116.3331, 40.049294 ] } },
{ "type": "Feature", "properties": { "Name": "中国石油通安加油站", "Lon_Lat": "116.556073,39.775413", "Longitude": 116.556073, "Latitude": 39.775413, "Gdtype": "汽车服务;加油站;中国石油", "Prov": "北京市", "City": "北京市", "Address": "亦庄开发区经海一路142号", "Operator": "中国石油" }, "geometry": { "type": "Point", "coordinates": [ 116.556073, 39.775413 ] } },
{ "type": "Feature", "properties": { "Name": "中国石油特许加盟平安加油站", "Lon_Lat": "116.907146,39.685462", "Longitude": 116.907146, "Latitude": 39.685462, "Gdtype": "汽车服务;加油站;中国石油", "Prov": "北京市", "City": "北京市", "Address": "漷县镇良务村", "Operator": "中国石油" }, "geometry": { "type": "Point", "coordinates": [ 116.907146, 39.685462 ] } },
{ "type": "Feature", "properties": { "Name": "中国石油特许加盟国门阳光加油站", "Lon_Lat": "116.622284,40.116694", "Longitude": 116.622284, "Latitude": 40.116694, "Gdtype": "汽车服务;加油站;中国石油", "Prov": "北京市", "City": "北京市", "Address": "六环望泉桥西南角", "Operator": "中国石油" }, "geometry": { "type": "Point", "coordinates": [ 116.622284, 40.116694 ] } },
{ "type": "Feature", "properties": { "Name": "中国石油广铁兆元加油站", "Lon_Lat": "116.34184,39.882679", "Longitude": 116.34184, "Latitude": 39.882679, "Gdtype": "汽车服务;加油站;中国石油", "Prov": "北京市", "City": "北京市", "Address": "手帕口南街80号", "Operator": "中国石油" }, "geometry": { "type": "Point", "coordinates": [ 116.34184, 39.882679 ] } },
{ "type": "Feature", "properties": { "Name": "中国石油神树加油站", "Lon_Lat": "116.536158,39.824082", "Longitude": 116.536158, "Latitude": 39.824082, "Gdtype": "汽车服务;加油站;中国石油", "Prov": "北京市", "City": "北京市", "Address": "东渠路6号", "Operator": "中国石油" }, "geometry": { "type": "Point", "coordinates": [ 116.536158, 39.824082 ] } },
{ "type": "Feature", "properties": { "Name": "中国石油兴景泰加油站", "Lon_Lat": "116.647938,40.301949", "Longitude": 116.647938, "Latitude": 40.301949, "Gdtype": "汽车服务;加油站;中国石油", "Prov": "北京市", "City": "北京市", "Address": "怀柔镇葛各庄村西200米怀丰立交桥北京密路辅路东侧", "Operator": "中国石油" }, "geometry": { "type": "Point", "coordinates": [ 116.647938, 40.301949 ] } },
{ "type": "Feature", "properties": { "Name": "中国石油特许加盟石京源加油站", "Lon_Lat": "116.200882,39.889595", "Longitude": 116.200882, "Latitude": 39.889595, "Gdtype": "汽车服务;加油站;加油站", "Prov": "北京市", "City": "北京市", "Address": "京原路23号", "Operator": "中国石油" }, "geometry": { "type": "Point", "coordinates": [ 116.200882, 39.889595 ] } },
{ "type": "Feature", "properties": { "Name": "中国石油航天北葡加油站", "Lon_Lat": "116.257525,39.924789", "Longitude": 116.257525, "Latitude": 39.924789, "Gdtype": "汽车服务;加油站;中国石油", "Prov": "北京市", "City": "北京市", "Address": "玉泉路2号平房", "Operator": "中国石油" }, "geometry": { "type": "Point", "coordinates": [ 116.257525, 39.924789 ] } },
{ "type": "Feature", "properties": { "Name": "中国石油加油站(朝阳路辅路)", "Lon_Lat": "116.595558,39.911422", "Longitude": 116.595558, "Latitude": 39.911422, "Gdtype": "汽车服务;加油站;中国石油", "Prov": "北京市", "City": "北京市", "Address": "杨闸环岛往西约300米朝阳路朗廷大厦西侧", "Operator": "中国石油" }, "geometry": { "type": "Point", "coordinates": [ 116.595558, 39.911422 ] } },
{ "type": "Feature", "properties": { "Name": "中国石油飞达加油站", "Lon_Lat": "116.294687,39.779788", "Longitude": 116.294687, "Latitude": 39.779788, "Gdtype": "汽车服务;加油站;中国石油", "Prov": "北京市", "City": "北京市", "Address": "芦花路临54号", "Operator": "中国石油" }, "geometry": { "type": "Point", "coordinates": [ 116.294687, 39.779788 ] } },
{ "type": "Feature", "properties": { "Name": "中国石油友联加油站", "Lon_Lat": "116.777586,39.812206", "Longitude": 116.777586, "Latitude": 39.812206, "Gdtype": "汽车服务;加油站;加油站", "Prov": "北京市", "City": "北京市", "Address": "京市张家湾镇姚辛庄村103国道京沈高速路南100米", "Operator": "中国石油" }, "geometry": { "type": "Point", "coordinates": [ 116.777586, 39.812206 ] } },
{ "type": "Feature", "properties": { "Name": "中国石油百惠加油站", "Lon_Lat": "116.674693,40.324175", "Longitude": 116.674693, "Latitude": 40.324175, "Gdtype": "汽车服务;加油站;加油站", "Prov": "北京市", "City": "北京市", "Address": "王化村东", "Operator": "中国石油" }, "geometry": { "type": "Point", "coordinates": [ 116.674693, 40.324175 ] } },
{ "type": "Feature", "properties": { "Name": "中国石油双鹏飞加油站", "Lon_Lat": "116.011362,39.683567", "Longitude": 116.011362, "Latitude": 39.683567, "Gdtype": "汽车服务;加油站;加油站", "Prov": "北京市", "City": "北京市", "Address": "城关街道田各庄村西房窑路西侧", "Operator": "中国石油" }, "geometry": { "type": "Point", "coordinates": [ 116.011362, 39.683567 ] } },
{ "type": "Feature", "properties": { "Name": "中国石油特许加盟东窑丽宇加油站", "Lon_Lat": "116.59914,39.996604", "Longitude": 116.59914, "Latitude": 39.996604, "Gdtype": "汽车服务;加油站;加油站", "Prov": "北京市", "City": "北京市", "Address": "金盏路南50米", "Operator": "中国石油" }, "geometry": { "type": "Point", "coordinates": [ 116.59914, 39.996604 ] } },
{ "type": "Feature", "properties": { "Name": "中国石油翠泉加油站", "Lon_Lat": "116.288703,39.947889", "Longitude": 116.288703, "Latitude": 39.947889, "Gdtype": "汽车服务;加油站;中国石油", "Prov": "北京市", "City": "北京市", "Address": "正福寺路与板井路交汇处", "Operator": "中国石油" }, "geometry": { "type": "Point", "coordinates": [ 116.288703, 39.947889 ] } },
{ "type": "Feature", "properties": { "Name": "中国石油首汽15号站", "Lon_Lat": "116.040742,39.988304", "Longitude": 116.040742, "Latitude": 39.988304, "Gdtype": "汽车服务;加油站;中国石油", "Prov": "北京市", "City": "北京市", "Address": "担礼村109国道担礼隧道北100米", "Operator": "中国石油" }, "geometry": { "type": "Point", "coordinates": [ 116.040742, 39.988304 ] } },
{ "type": "Feature", "properties": { "Name": "中国石油万通宝加油站", "Lon_Lat": "116.133676,39.743186", "Longitude": 116.133676, "Latitude": 39.743186, "Gdtype": "汽车服务;加油站;中国石油", "Prov": "北京市", "City": "北京市", "Address": "良乡政通路29号", "Operator": "中国石油" }, "geometry": { "type": "Point", "coordinates": [ 116.133676, 39.743186 ] } },
{ "type": "Feature", "properties": { "Name": "中国石油特许加盟首发金星加油站", "Lon_Lat": "116.368073,39.776677", "Longitude": 116.368073, "Latitude": 39.776677, "Gdtype": "汽车服务;加油站;中国石油", "Prov": "北京市", "City": "北京市", "Address": "西红门南桥东800米五环服务区南侧", "Operator": "中国石油" }, "geometry": { "type": "Point", "coordinates": [ 116.368073, 39.776677 ] } },
{ "type": "Feature", "properties": { "Name": "中国石油施惠达加油站", "Lon_Lat": "116.377255,39.763673", "Longitude": 116.377255, "Latitude": 39.763673, "Gdtype": "汽车服务;加油站;加油站", "Prov": "北京市", "City": "北京市", "Address": "西红门镇警大路7号", "Operator": "中国石油" }, "geometry": { "type": "Point", "coordinates": [ 116.377255, 39.763673 ] } },
{ "type": "Feature", "properties": { "Name": "中国石油庆铁加油站", "Lon_Lat": "116.800985,40.148298", "Longitude": 116.800985, "Latitude": 40.148298, "Gdtype": "汽车服务;加油站;加油站", "Prov": "北京市", "City": "北京市", "Address": "杨镇地区下营村西大街100号", "Operator": "中国石油" }, "geometry": { "type": "Point", "coordinates": [ 116.800985, 40.148298 ] } },
{ "type": "Feature", "properties": { "Name": "中国石油华龙加油站", "Lon_Lat": "115.930937,39.649581", "Longitude": 115.930937, "Latitude": 39.649581, "Gdtype": "汽车服务;加油站;中国石油", "Prov": "北京市", "City": "北京市", "Address": "G234(房易路)", "Operator": "中国石油" }, "geometry": { "type": "Point", "coordinates": [ 115.930937, 39.649581 ] } },
{ "type": "Feature", "properties": { "Name": "中国石油首汽10号站加油站", "Lon_Lat": "116.528029,40.031203", "Longitude": 116.528029, "Latitude": 40.031203, "Gdtype": "汽车服务;加油站;加油站", "Prov": "北京市", "City": "北京市", "Address": "崔各庄乡五环外京密路附近", "Operator": "中国石油" }, "geometry": { "type": "Point", "coordinates": [ 116.528029, 40.031203 ] } },
{ "type": "Feature", "properties": { "Name": "中国石油加油站", "Lon_Lat": "116.445718,39.906793", "Longitude": 116.445718, "Latitude": 39.906793, "Gdtype": "汽车服务;加油站;中国石油", "Prov": "北京市", "City": "北京市", "Address": "建国门外大街灵通观1号", "Operator": "中国石油" }, "geometry": { "type": "Point", "coordinates": [ 116.445718, 39.906793 ] } },
{ "type": "Feature", "properties": { "Name": "中国石油兴海源加油站", "Lon_Lat": "116.401406,39.751916", "Longitude": 116.401406, "Latitude": 39.751916, "Gdtype": "汽车服务;加油站;中国石油", "Prov": "北京市", "City": "北京市", "Address": "西红门镇团忠路与南中轴路交叉口", "Operator": "中国石油" }, "geometry": { "type": "Point", "coordinates": [ 116.401406, 39.751916 ] } },
{ "type": "Feature", "properties": { "Name": "中国石油华路平谷加油站", "Lon_Lat": "117.030712,40.144263", "Longitude": 117.030712, "Latitude": 40.144263, "Gdtype": "汽车服务;加油站;中国石油", "Prov": "北京市", "City": "北京市", "Address": "大兴庄镇陈良屯村西200米路北", "Operator": "中国石油" }, "geometry": { "type": "Point", "coordinates": [ 117.030712, 40.144263 ] } },
{ "type": "Feature", "properties": { "Name": "中国石油首发能源(京成加油站)", "Lon_Lat": "116.490165,39.951735", "Longitude": 116.490165, "Latitude": 39.951735, "Gdtype": "汽车服务;加油站;中国石油", "Prov": "北京市", "City": "北京市", "Address": "东四环主路外环东风北桥南800米", "Operator": "中国石油" }, "geometry": { "type": "Point", "coordinates": [ 116.490165, 39.951735 ] } },
{ "type": "Feature", "properties": { "Name": "中国石油新发地加油站", "Lon_Lat": "116.341936,39.822566", "Longitude": 116.341936, "Latitude": 39.822566, "Gdtype": "汽车服务;加油站;中国石油", "Prov": "北京市", "City": "北京市", "Address": "新发地北桥向西200米路南", "Operator": "中国石油" }, "geometry": { "type": "Point", "coordinates": [ 116.341936, 39.822566 ] } },
{ "type": "Feature", "properties": { "Name": "中国石油广仟达加油站", "Lon_Lat": "116.285421,39.804544", "Longitude": 116.285421, "Latitude": 39.804544, "Gdtype": "汽车服务;加油站;中国石油", "Prov": "北京市", "City": "北京市", "Address": "葆台路101号", "Operator": "中国石油" }, "geometry": { "type": "Point", "coordinates": [ 116.285421, 39.804544 ] } },
{ "type": "Feature", "properties": { "Name": "中国石油潮海洋加油站", "Lon_Lat": "116.677463,40.212539", "Longitude": 116.677463, "Latitude": 40.212539, "Gdtype": "汽车服务;加油站;中国石油", "Prov": "北京市", "City": "北京市", "Address": "牛栏山右堤路与昌金路交叉口东150米", "Operator": "中国石油" }, "geometry": { "type": "Point", "coordinates": [ 116.677463, 40.212539 ] } },
{ "type": "Feature", "properties": { "Name": "中国石油加油站", "Lon_Lat": "116.100696,39.721475", "Longitude": 116.100696, "Latitude": 39.721475, "Gdtype": "汽车服务;加油站;中国石油", "Prov": "北京市", "City": "北京市", "Address": "京周路与前阎村路交叉口东北150米", "Operator": "中国石油" }, "geometry": { "type": "Point", "coordinates": [ 116.100696, 39.721475 ] } },
{ "type": "Feature", "properties": { "Name": "中国石油快鑫加油站", "Lon_Lat": "117.036559,40.143757", "Longitude": 117.036559, "Latitude": 40.143757, "Gdtype": "汽车服务;加油站;加油站", "Prov": "北京市", "City": "北京市", "Address": "大兴庄镇政府西侧", "Operator": "中国石油" }, "geometry": { "type": "Point", "coordinates": [ 117.036559, 40.143757 ] } },
{ "type": "Feature", "properties": { "Name": "中国石油良乡加油站", "Lon_Lat": "116.135187,39.719565", "Longitude": 116.135187, "Latitude": 39.719565, "Gdtype": "汽车服务;加油站;加油站", "Prov": "北京市", "City": "北京市", "Address": "凯旋大街9号", "Operator": "中国石油" }, "geometry": { "type": "Point", "coordinates": [ 116.135187, 39.719565 ] } },
{ "type": "Feature", "properties": { "Name": "中国石油特许加盟地矿立水桥加油站", "Lon_Lat": "116.417494,40.059644", "Longitude": 116.417494, "Latitude": 40.059644, "Gdtype": "汽车服务;加油站;中国石油", "Prov": "北京市", "City": "北京市", "Address": "立水桥北路与中滩村北二街交叉口向南路东", "Operator": "中国石油" }, "geometry": { "type": "Point", "coordinates": [ 116.417494, 40.059644 ] } },
{ "type": "Feature", "properties": { "Name": "中国石油京胜小羊坊东加油站", "Lon_Lat": "116.517948,39.826932", "Longitude": 116.517948, "Latitude": 39.826932, "Gdtype": "汽车服务;加油站;中国石油", "Prov": "北京市", "City": "北京市", "Address": "亦庄镇五环路小羊坊收费站西50米", "Operator": "中国石油" }, "geometry": { "type": "Point", "coordinates": [ 116.517948, 39.826932 ] } },
{ "type": "Feature", "properties": { "Name": "中国石油兴寿兴农加油站", "Lon_Lat": "116.415762,40.21769", "Longitude": 116.415762, "Latitude": 40.21769, "Gdtype": "汽车服务;加油站;中国石油", "Prov": "北京市", "City": "北京市", "Address": "兴寿村720号", "Operator": "中国石油" }, "geometry": { "type": "Point", "coordinates": [ 116.415762, 40.21769 ] } },
{ "type": "Feature", "properties": { "Name": "中国石油永定林加油站", "Lon_Lat": "116.185241,39.890982", "Longitude": 116.185241, "Latitude": 39.890982, "Gdtype": "汽车服务;加油站;加油站", "Prov": "北京市", "City": "北京市", "Address": "京原路55号", "Operator": "中国石油" }, "geometry": { "type": "Point", "coordinates": [ 116.185241, 39.890982 ] } },
{ "type": "Feature", "properties": { "Name": "中国石油特许加盟兴创方达加油站", "Lon_Lat": "116.526415,39.89422", "Longitude": 116.526415, "Latitude": 39.89422, "Gdtype": "汽车服务;加油站;中国石油", "Prov": "北京市", "City": "北京市", "Address": "高碑店路甲1号西60米", "Operator": "中国石油" }, "geometry": { "type": "Point", "coordinates": [ 116.526415, 39.89422 ] } },
{ "type": "Feature", "properties": { "Name": "中国石油首汽21号站", "Lon_Lat": "115.991903,39.654409", "Longitude": 115.991903, "Latitude": 39.654409, "Gdtype": "汽车服务;加油站;中国石油", "Prov": "北京市", "City": "北京市", "Address": "坨头村村西临27号", "Operator": "中国石油" }, "geometry": { "type": "Point", "coordinates": [ 115.991903, 39.654409 ] } },
{ "type": "Feature", "properties": { "Name": "中国石油华路延庆加油站", "Lon_Lat": "115.985033,40.434983", "Longitude": 115.985033, "Latitude": 40.434983, "Gdtype": "汽车服务;加油站;中国石油", "Prov": "北京市", "City": "北京市", "Address": "G234兴阳线63号延庆小火车站南侧", "Operator": "中国石油" }, "geometry": { "type": "Point", "coordinates": [ 115.985033, 40.434983 ] } },
{ "type": "Feature", "properties": { "Name": "中国石油特许加盟大十三里加油站", "Lon_Lat": "116.106614,39.689142", "Longitude": 116.106614, "Latitude": 39.689142, "Gdtype": "汽车服务;加油站;中国石油", "Prov": "北京市", "City": "北京市", "Address": "阎村镇大十三里村", "Operator": "中国石油" }, "geometry": { "type": "Point", "coordinates": [ 116.106614, 39.689142 ] } },
{ "type": "Feature", "properties": { "Name": "中国石油一路发加油站", "Lon_Lat": "117.103557,40.522289", "Longitude": 117.103557, "Latitude": 40.522289, "Gdtype": "汽车服务;加油站;加油站", "Prov": "北京市", "City": "北京市", "Address": "太师屯镇流河沟村(近101国道)", "Operator": "中国石油" }, "geometry": { "type": "Point", "coordinates": [ 117.103557, 40.522289 ] } },
{ "type": "Feature", "properties": { "Name": "中国石油首汽7号站加油站", "Lon_Lat": "116.482236,39.957232", "Longitude": 116.482236, "Latitude": 39.957232, "Gdtype": "汽车服务;加油站;中国石油", "Prov": "北京市", "City": "北京市", "Address": "亮马桥路19号(枫花园电影院东侧,爱家商业西侧)", "Operator": "中国石油" }, "geometry": { "type": "Point", "coordinates": [ 116.482236, 39.957232 ] } },
{ "type": "Feature", "properties": { "Name": "中国石油兴业加油站", "Lon_Lat": "116.244425,39.947231", "Longitude": 116.244425, "Latitude": 39.947231, "Gdtype": "汽车服务;加油站;加油站", "Prov": "北京市", "City": "北京市", "Address": "四季青桥西杏石口路49号", "Operator": "中国石油" }, "geometry": { "type": "Point", "coordinates": [ 116.244425, 39.947231 ] } },
{ "type": "Feature", "properties": { "Name": "中国石油八达岭东加油站", "Lon_Lat": "115.955092,40.379362", "Longitude": 115.955092, "Latitude": 40.379362, "Gdtype": "汽车服务;加油站;中国石油", "Prov": "北京市", "City": "北京市", "Address": "航空路1号", "Operator": "中国石油" }, "geometry": { "type": "Point", "coordinates": [ 115.955092, 40.379362 ] } },
{ "type": "Feature", "properties": { "Name": "中国石油十三里加油站(装修中)", "Lon_Lat": "116.106915,39.689063", "Longitude": 116.106915, "Latitude": 39.689063, "Gdtype": "汽车服务;加油站;中国石油", "Prov": "北京市", "City": "北京市", "Address": "阎村镇大十三里村", "Operator": "中国石油" }, "geometry": { "type": "Point", "coordinates": [ 116.106915, 39.689063 ] } },
{ "type": "Feature", "properties": { "Name": "中国石油华石加油站", "Lon_Lat": "116.115747,39.937221", "Longitude": 116.115747, "Latitude": 39.937221, "Gdtype": "汽车服务;加油站;中国石油", "Prov": "北京市", "City": "北京市", "Address": "双峪路33号", "Operator": "中国石油" }, "geometry": { "type": "Point", "coordinates": [ 116.115747, 39.937221 ] } },
{ "type": "Feature", "properties": { "Name": "中国石油中图长良加油站", "Lon_Lat": "116.176853,39.745585", "Longitude": 116.176853, "Latitude": 39.745585, "Gdtype": "汽车服务;加油站;加油站", "Prov": "北京市", "City": "北京市", "Address": "阳城环路17号", "Operator": "中国石油" }, "geometry": { "type": "Point", "coordinates": [ 116.176853, 39.745585 ] } },
{ "type": "Feature", "properties": { "Name": "中国石油京胜京开西加油站", "Lon_Lat": "116.325507,39.681952", "Longitude": 116.325507, "Latitude": 39.681952, "Gdtype": "汽车服务;加油站;中国石油", "Prov": "北京市", "City": "北京市", "Address": "北臧村镇天宫院收费站北500米", "Operator": "中国石油" }, "geometry": { "type": "Point", "coordinates": [ 116.325507, 39.681952 ] } },
{ "type": "Feature", "properties": { "Name": "中国石油首汽6号加油站", "Lon_Lat": "116.453947,39.948898", "Longitude": 116.453947, "Latitude": 39.948898, "Gdtype": "汽车服务;加油站;中国石油", "Prov": "北京市", "City": "北京市", "Address": "新源南路甲7号", "Operator": "中国石油" }, "geometry": { "type": "Point", "coordinates": [ 116.453947, 39.948898 ] } },
{ "type": "Feature", "properties": { "Name": "中国石油安驰加油站", "Lon_Lat": "116.333833,39.800874", "Longitude": 116.333833, "Latitude": 39.800874, "Gdtype": "汽车服务;加油站;中国石油", "Prov": "北京市", "City": "北京市", "Address": "西红门镇黄陈路南侧(北京安驰汽车服务中心)京良路临10号", "Operator": "中国石油" }, "geometry": { "type": "Point", "coordinates": [ 116.333833, 39.800874 ] } },
{ "type": "Feature", "properties": { "Name": "中国石油特许加盟首发银星加油站", "Lon_Lat": "116.369131,39.77705", "Longitude": 116.369131, "Latitude": 39.77705, "Gdtype": "汽车服务;加油站;中国石油", "Prov": "北京市", "City": "北京市", "Address": "西红门南桥东800米五环路内环", "Operator": "中国石油" }, "geometry": { "type": "Point", "coordinates": [ 116.369131, 39.77705 ] } },
{ "type": "Feature", "properties": { "Name": "中国石油盛丰明加油站", "Lon_Lat": "116.313355,39.800592", "Longitude": 116.313355, "Latitude": 39.800592, "Gdtype": "汽车服务;加油站;加油站", "Prov": "北京市", "City": "北京市", "Address": "花乡大道622号", "Operator": "中国石油" }, "geometry": { "type": "Point", "coordinates": [ 116.313355, 39.800592 ] } },
{ "type": "Feature", "properties": { "Name": "中国石油旺泰宏达加油站", "Lon_Lat": "116.586879,40.002881", "Longitude": 116.586879, "Latitude": 40.002881, "Gdtype": "汽车服务;加油站;加油站", "Prov": "北京市", "City": "北京市", "Address": "金盏路88号", "Operator": "中国石油" }, "geometry": { "type": "Point", "coordinates": [ 116.586879, 40.002881 ] } },
{ "type": "Feature", "properties": { "Name": "中国石油魏半路加油站", "Lon_Lat": "116.416403,39.616555", "Longitude": 116.416403, "Latitude": 39.616555, "Gdtype": "汽车服务;加油站;中国石油", "Prov": "北京市", "City": "北京市", "Address": "庞安路与中轴路交叉处", "Operator": "中国石油" }, "geometry": { "type": "Point", "coordinates": [ 116.416403, 39.616555 ] } },
{ "type": "Feature", "properties": { "Name": "中国石油加油站", "Lon_Lat": "115.982641,39.681311", "Longitude": 115.982641, "Latitude": 39.681311, "Gdtype": "汽车服务;加油站;中国石油", "Prov": "北京市", "City": "北京市", "Address": "周口店镇顾郑路北市村路段路西", "Operator": "中国石油" }, "geometry": { "type": "Point", "coordinates": [ 115.982641, 39.681311 ] } },
{ "type": "Feature", "properties": { "Name": "中国石油特许加盟燕鑫海源加油站", "Lon_Lat": "116.387502,39.832829", "Longitude": 116.387502, "Latitude": 39.832829, "Gdtype": "汽车服务;加油站;中国石油", "Prov": "北京市", "City": "北京市", "Address": "南四环中路92号", "Operator": "中国石油" }, "geometry": { "type": "Point", "coordinates": [ 116.387502, 39.832829 ] } },
{ "type": "Feature", "properties": { "Name": "中国石油石大第一加油站", "Lon_Lat": "116.404001,40.002947", "Longitude": 116.404001, "Latitude": 40.002947, "Gdtype": "汽车服务;加油站;中国石油", "Prov": "北京市", "City": "北京市", "Address": "大屯路甲21号", "Operator": "中国石油" }, "geometry": { "type": "Point", "coordinates": [ 116.404001, 40.002947 ] } },
{ "type": "Feature", "properties": { "Name": "中国石油特惠加油站", "Lon_Lat": "116.674632,40.324450", "Longitude": 116.674632, "Latitude": 40.32445, "Gdtype": "汽车服务;加油站;中国石油", "Prov": "北京市", "City": "北京市", "Address": [ ], "Operator": "中国石油" }, "geometry": { "type": "Point", "coordinates": [ 116.674632, 40.32445 ] } },
{ "type": "Feature", "properties": { "Name": "中国石油燕兴达加油站", "Lon_Lat": "116.15056,39.715679", "Longitude": 116.15056, "Latitude": 39.715679, "Gdtype": "汽车服务;加油站;加油站", "Prov": "北京市", "City": "北京市", "Address": "常庄村南", "Operator": "中国石油" }, "geometry": { "type": "Point", "coordinates": [ 116.15056, 39.715679 ] } },
{ "type": "Feature", "properties": { "Name": "中国石油京东长江加油站", "Lon_Lat": "116.659202,39.850896", "Longitude": 116.659202, "Latitude": 39.850896, "Gdtype": "汽车服务;加油站;中国石油", "Prov": "北京市", "City": "北京市", "Address": "台湖镇田家府村北296号", "Operator": "中国石油" }, "geometry": { "type": "Point", "coordinates": [ 116.659202, 39.850896 ] } },
{ "type": "Feature", "properties": { "Name": "中国石油通宫加油站", "Lon_Lat": "116.678116,40.014307", "Longitude": 116.678116, "Latitude": 40.014307, "Gdtype": "汽车服务;加油站;加油站", "Prov": "北京市", "City": "北京市", "Address": "窑上村北通顺公路西侧", "Operator": "中国石油" }, "geometry": { "type": "Point", "coordinates": [ 116.678116, 40.014307 ] } },
{ "type": "Feature", "properties": { "Name": "中国石油加油站(金安南路)(暂停营业)", "Lon_Lat": "116.388712,39.764422", "Longitude": 116.388712, "Latitude": 39.764422, "Gdtype": "汽车服务;加油站;中国石油", "Prov": "北京市", "City": "北京市", "Address": "西红门镇金大路18号", "Operator": "中国石油" }, "geometry": { "type": "Point", "coordinates": [ 116.388712, 39.764422 ] } },
{ "type": "Feature", "properties": { "Name": "中国石油富多鑫加油站", "Lon_Lat": "116.345723,39.742051", "Longitude": 116.345723, "Latitude": 39.742051, "Gdtype": "汽车服务;加油站;加油站", "Prov": "北京市", "City": "北京市", "Address": "兴亦路G45号", "Operator": "中国石油" }, "geometry": { "type": "Point", "coordinates": [ 116.345723, 39.742051 ] } },
{ "type": "Feature", "properties": { "Name": "中国石油加油站", "Lon_Lat": "116.213613,40.280525", "Longitude": 116.213613, "Latitude": 40.280525, "Gdtype": "汽车服务;加油站;加油站", "Prov": "北京市", "City": "北京市", "Address": "泰陵园村东口国道旁", "Operator": "中国石油" }, "geometry": { "type": "Point", "coordinates": [ 116.213613, 40.280525 ] } },
{ "type": "Feature", "properties": { "Name": "中国石油回龙观加油站", "Lon_Lat": "116.314309,40.072629", "Longitude": 116.314309, "Latitude": 40.072629, "Gdtype": "汽车服务;加油站;加油站", "Prov": "北京市", "City": "北京市", "Address": "藏高速辅路西侧", "Operator": "中国石油" }, "geometry": { "type": "Point", "coordinates": [ 116.314309, 40.072629 ] } },
{ "type": "Feature", "properties": { "Name": "中国石油加油站(李桥邮政所北)", "Lon_Lat": "116.666549,40.054008", "Longitude": 116.666549, "Latitude": 40.054008, "Gdtype": "汽车服务;加油站;中国石油", "Prov": "北京市", "City": "北京市", "Address": [ ], "Operator": "中国石油" }, "geometry": { "type": "Point", "coordinates": [ 116.666549, 40.054008 ] } },
{ "type": "Feature", "properties": { "Name": "中国石油首汽加油站", "Lon_Lat": "116.484296,40.094845", "Longitude": 116.484296, "Latitude": 40.094845, "Gdtype": "汽车服务;加油站;加油站", "Prov": "北京市", "City": "北京市", "Address": "泗上村", "Operator": "中国石油" }, "geometry": { "type": "Point", "coordinates": [ 116.484296, 40.094845 ] } },
{ "type": "Feature", "properties": { "Name": "中国石油金龙综合能源服务站", "Lon_Lat": "115.988557,40.492583", "Longitude": 115.988557, "Latitude": 40.492583, "Gdtype": "汽车服务;加油站;加油站", "Prov": "北京市", "City": "北京市", "Address": "米家堡村", "Operator": "中国石油" }, "geometry": { "type": "Point", "coordinates": [ 115.988557, 40.492583 ] } },
{ "type": "Feature", "properties": { "Name": "中国石油燕乔加油站", "Lon_Lat": "116.693775,39.892923", "Longitude": 116.693775, "Latitude": 39.892923, "Gdtype": "汽车服务;加油站;加油站", "Prov": "北京市", "City": "北京市", "Address": "运河西大街33号", "Operator": "中国石油" }, "geometry": { "type": "Point", "coordinates": [ 116.693775, 39.892923 ] } },
{ "type": "Feature", "properties": { "Name": "中国石油北清路加油站", "Lon_Lat": "116.171762,40.067518", "Longitude": 116.171762, "Latitude": 40.067518, "Gdtype": "汽车服务;加油站;中国石油", "Prov": "北京市", "City": "北京市", "Address": "北清路164号", "Operator": "中国石油" }, "geometry": { "type": "Point", "coordinates": [ 116.171762, 40.067518 ] } },
{ "type": "Feature", "properties": { "Name": "中国石油靛厂加油站", "Lon_Lat": "116.280501,39.890039", "Longitude": 116.280501, "Latitude": 39.890039, "Gdtype": "汽车服务;加油站;中国石油", "Prov": "北京市", "City": "北京市", "Address": "靛厂路46号附近", "Operator": "中国石油" }, "geometry": { "type": "Point", "coordinates": [ 116.280501, 39.890039 ] } },
{ "type": "Feature", "properties": { "Name": "中国石油三美加油站", "Lon_Lat": "116.877048,39.813527", "Longitude": 116.877048, "Latitude": 39.813527, "Gdtype": "汽车服务;加油站;中国石油", "Prov": "北京市", "City": "北京市", "Address": "西集镇车屯村", "Operator": "中国石油" }, "geometry": { "type": "Point", "coordinates": [ 116.877048, 39.813527 ] } },
{ "type": "Feature", "properties": { "Name": "中国石油中图华成加油站", "Lon_Lat": "116.019069,39.723308", "Longitude": 116.019069, "Latitude": 39.723308, "Gdtype": "汽车服务;加油站;加油站", "Prov": "北京市", "City": "北京市", "Address": "羊头岗村大件路1号楼", "Operator": "中国石油" }, "geometry": { "type": "Point", "coordinates": [ 116.019069, 39.723308 ] } },
{ "type": "Feature", "properties": { "Name": "中国石油城建兴发加油站", "Lon_Lat": "116.338913,40.058479", "Longitude": 116.338913, "Latitude": 40.058479, "Gdtype": "汽车服务;加油站;中国石油", "Prov": "北京市", "City": "北京市", "Address": "西三旗桥东800米", "Operator": "中国石油" }, "geometry": { "type": "Point", "coordinates": [ 116.338913, 40.058479 ] } },
{ "type": "Feature", "properties": { "Name": "中国石油燕鹏加油站", "Lon_Lat": "116.219634,39.753573", "Longitude": 116.219634, "Latitude": 39.753573, "Gdtype": "汽车服务;加油站;中国石油", "Prov": "北京市", "City": "北京市", "Address": "长阳镇杨庄子中国石油燕鹏加油站院内", "Operator": "中国石油" }, "geometry": { "type": "Point", "coordinates": [ 116.219634, 39.753573 ] } },
{ "type": "Feature", "properties": { "Name": "中国石油慧普华云洁加油站(暂停营业)", "Lon_Lat": "116.457233,39.866452", "Longitude": 116.457233, "Latitude": 39.866452, "Gdtype": "汽车服务;加油站;中国石油", "Prov": "北京市", "City": "北京市", "Address": "左安路与东三环南路辅路交叉口西南角", "Operator": "中国石油" }, "geometry": { "type": "Point", "coordinates": [ 116.457233, 39.866452 ] } },
{ "type": "Feature", "properties": { "Name": "中国石油安岛加油站", "Lon_Lat": "116.531033,40.039101", "Longitude": 116.531033, "Latitude": 40.039101, "Gdtype": "汽车服务;加油站;加油站", "Prov": "北京市", "City": "北京市", "Address": "京密路与黄康路交叉口西南200米", "Operator": "中国石油" }, "geometry": { "type": "Point", "coordinates": [ 116.531033, 40.039101 ] } },
{ "type": "Feature", "properties": { "Name": "中国石油特许杜家坎加油站", "Lon_Lat": "116.20269,39.846066", "Longitude": 116.20269, "Latitude": 39.846066, "Gdtype": "汽车服务;加油站;中国石油", "Prov": "北京市", "City": "北京市", "Address": "长辛店镇杜家坎7号院", "Operator": "中国石油" }, "geometry": { "type": "Point", "coordinates": [ 116.20269, 39.846066 ] } },
{ "type": "Feature", "properties": { "Name": "中国石油念坛加油站(暂停营业)", "Lon_Lat": "116.357062,39.722371", "Longitude": 116.357062, "Latitude": 39.722371, "Gdtype": "汽车服务;加油站;加油站", "Prov": "北京市", "City": "北京市", "Address": "黄马路观音寺小区南里零丁54号", "Operator": "中国石油" }, "geometry": { "type": "Point", "coordinates": [ 116.357062, 39.722371 ] } },
{ "type": "Feature", "properties": { "Name": "中国石油", "Lon_Lat": "116.280461,39.889988", "Longitude": 116.280461, "Latitude": 39.889988, "Gdtype": "汽车服务;加油站;中国石油", "Prov": "北京市", "City": "北京市", "Address": "千禧商业街", "Operator": "中国石油" }, "geometry": { "type": "Point", "coordinates": [ 116.280461, 39.889988 ] } },
{ "type": "Feature", "properties": { "Name": "中国石油顺兴祥加油站", "Lon_Lat": "116.795717,40.146638", "Longitude": 116.795717, "Latitude": 40.146638, "Gdtype": "汽车服务;加油站;加油站", "Prov": "北京市", "City": "北京市", "Address": "安乐庄村顺平路南侧", "Operator": "中国石油" }, "geometry": { "type": "Point", "coordinates": [ 116.795717, 40.146638 ] } },
{ "type": "Feature", "properties": { "Name": "中国石油特许加盟路顺鑫加油站", "Lon_Lat": "116.331911,39.724836", "Longitude": 116.331911, "Latitude": 39.724836, "Gdtype": "汽车服务;加油站;中国石油", "Prov": "北京市", "City": "北京市", "Address": "兴华南路17号", "Operator": "中国石油" }, "geometry": { "type": "Point", "coordinates": [ 116.331911, 39.724836 ] } },
{ "type": "Feature", "properties": { "Name": "中国石油特许加盟万玉加油站", "Lon_Lat": "116.273998,39.970723", "Longitude": 116.273998, "Latitude": 39.970723, "Gdtype": "汽车服务;加油站;中国石油", "Prov": "北京市", "City": "北京市", "Address": "北四环西路辅路101号", "Operator": "中国石油" }, "geometry": { "type": "Point", "coordinates": [ 116.273998, 39.970723 ] } },
{ "type": "Feature", "properties": { "Name": "中国石油北汽安定门加油站", "Lon_Lat": "116.406056,39.949516", "Longitude": 116.406056, "Latitude": 39.949516, "Gdtype": "汽车服务;加油站;加油站", "Prov": "北京市", "City": "北京市", "Address": "安定门桥西北角", "Operator": "中国石油" }, "geometry": { "type": "Point", "coordinates": [ 116.406056, 39.949516 ] } },
{ "type": "Feature", "properties": { "Name": "中国石油首发能源京胜加油站", "Lon_Lat": "116.274455,39.88685", "Longitude": 116.274455, "Latitude": 39.88685, "Gdtype": "汽车服务;加油站;中国石油", "Prov": "北京市", "City": "北京市", "Address": "西四环中路郑常庄四环主路服务区", "Operator": "中国石油" }, "geometry": { "type": "Point", "coordinates": [ 116.274455, 39.88685 ] } },
{ "type": "Feature", "properties": { "Name": "中国石油特许加盟蒲宝加油站", "Lon_Lat": "116.209081,39.810019", "Longitude": 116.209081, "Latitude": 39.810019, "Gdtype": "汽车服务;加油站;中国石油", "Prov": "北京市", "City": "北京市", "Address": "长阳镇京深路大宁山庄旁", "Operator": "中国石油" }, "geometry": { "type": "Point", "coordinates": [ 116.209081, 39.810019 ] } },
{ "type": "Feature", "properties": { "Name": "中国石油凯利加油站", "Lon_Lat": "116.780037,39.824932", "Longitude": 116.780037, "Latitude": 39.824932, "Gdtype": "汽车服务;加油站;中国石油", "Prov": "北京市", "City": "北京市", "Address": "京塘路与凉运路交叉口西北角", "Operator": "中国石油" }, "geometry": { "type": "Point", "coordinates": [ 116.780037, 39.824932 ] } },
{ "type": "Feature", "properties": { "Name": "中国石油八达岭西加油站", "Lon_Lat": "115.953433,40.379168", "Longitude": 115.953433, "Latitude": 40.379168, "Gdtype": "汽车服务;加油站;中国石油", "Prov": "北京市", "City": "北京市", "Address": "航空路1号", "Operator": "中国石油" }, "geometry": { "type": "Point", "coordinates": [ 115.953433, 40.379168 ] } },
{ "type": "Feature", "properties": { "Name": "中国石油兴福加油站", "Lon_Lat": "116.342284,39.758837", "Longitude": 116.342284, "Latitude": 39.758837, "Gdtype": "汽车服务;加油站;中国石油", "Prov": "北京市", "City": "北京市", "Address": "黄村镇康庄路口", "Operator": "中国石油" }, "geometry": { "type": "Point", "coordinates": [ 116.342284, 39.758837 ] } },
{ "type": "Feature", "properties": { "Name": "中国石油京福隆加油站(暂停营业)", "Lon_Lat": "115.876943,40.487561", "Longitude": 115.876943, "Latitude": 40.487561, "Gdtype": "汽车服务;加油站;中国石油", "Prov": "北京市", "City": "北京市", "Address": "张山营镇小河屯西京银路与马庄路交口", "Operator": "中国石油" }, "geometry": { "type": "Point", "coordinates": [ 115.876943, 40.487561 ] } },
{ "type": "Feature", "properties": { "Name": "中国石油晓景加油站", "Lon_Lat": "116.589593,39.940654", "Longitude": 116.589593, "Latitude": 39.940654, "Gdtype": "汽车服务;加油站;中国石油", "Prov": "北京市", "City": "北京市", "Address": "东小井村管庄路与石各庄路口交叉口东北角", "Operator": "中国石油" }, "geometry": { "type": "Point", "coordinates": [ 116.589593, 39.940654 ] } },
{ "type": "Feature", "properties": { "Name": "中国石油右安门加油站", "Lon_Lat": "116.362512,39.868389", "Longitude": 116.362512, "Latitude": 39.868389, "Gdtype": "汽车服务;加油站;中国石油", "Prov": "北京市", "City": "北京市", "Address": "右安门桥西南角", "Operator": "中国石油" }, "geometry": { "type": "Point", "coordinates": [ 116.362512, 39.868389 ] } },
{ "type": "Feature", "properties": { "Name": "中国石油燃料油加油站", "Lon_Lat": "116.208646,39.821254", "Longitude": 116.208646, "Latitude": 39.821254, "Gdtype": "汽车服务;加油站;加油站", "Prov": "北京市", "City": "北京市", "Address": "长辛店公路街东太平巷18号(107国道)", "Operator": "中国石油" }, "geometry": { "type": "Point", "coordinates": [ 116.208646, 39.821254 ] } },
{ "type": "Feature", "properties": { "Name": "中国石油首汽9号加油站", "Lon_Lat": "116.469121,39.963286", "Longitude": 116.469121, "Latitude": 39.963286, "Gdtype": "汽车服务;加油站;中国石油", "Prov": "北京市", "City": "北京市", "Address": "霄云路甲5号", "Operator": "中国石油" }, "geometry": { "type": "Point", "coordinates": [ 116.469121, 39.963286 ] } },
{ "type": "Feature", "properties": { "Name": "中国石油北汽北郊加油站", "Lon_Lat": "116.339184,40.046293", "Longitude": 116.339184, "Latitude": 40.046293, "Gdtype": "汽车服务;加油站;中国石油", "Prov": "北京市", "City": "北京市", "Address": "西小口路西口", "Operator": "中国石油" }, "geometry": { "type": "Point", "coordinates": [ 116.339184, 40.046293 ] } },
{ "type": "Feature", "properties": { "Name": "中国石油京东通运加油站", "Lon_Lat": "116.649311,39.986295", "Longitude": 116.649311, "Latitude": 39.986295, "Gdtype": "汽车服务;加油站;中国石油", "Prov": "北京市", "City": "北京市", "Address": "宋庄镇尹各庄村西口", "Operator": "中国石油" }, "geometry": { "type": "Point", "coordinates": [ 116.649311, 39.986295 ] } },
{ "type": "Feature", "properties": { "Name": "中国石油李遂加油站", "Lon_Lat": "116.750881,40.102208", "Longitude": 116.750881, "Latitude": 40.102208, "Gdtype": "汽车服务;加油站;加油站", "Prov": "北京市", "City": "北京市", "Address": "柳各庄村北", "Operator": "中国石油" }, "geometry": { "type": "Point", "coordinates": [ 116.750881, 40.102208 ] } },
{ "type": "Feature", "properties": { "Name": "中国石油特许加盟顺利发加油站(暂停营业)", "Lon_Lat": "116.148315,39.808428", "Longitude": 116.148315, "Latitude": 39.808428, "Gdtype": "汽车服务;加油站;中国石油", "Prov": "北京市", "City": "北京市", "Address": "南宫村30号", "Operator": "中国石油" }, "geometry": { "type": "Point", "coordinates": [ 116.148315, 39.808428 ] } },
{ "type": "Feature", "properties": { "Name": "中国石油中兴石加油站", "Lon_Lat": "116.378783,39.723273", "Longitude": 116.378783, "Latitude": 39.723273, "Gdtype": "汽车服务;加油站;中国石油", "Prov": "北京市", "City": "北京市", "Address": "黄村镇团桂路1号检测场南侧", "Operator": "中国石油" }, "geometry": { "type": "Point", "coordinates": [ 116.378783, 39.723273 ] } },
{ "type": "Feature", "properties": { "Name": "中国石油加油站", "Lon_Lat": "116.298549,40.096842", "Longitude": 116.298549, "Latitude": 40.096842, "Gdtype": "汽车服务;加油站;加油站", "Prov": "北京市", "City": "北京市", "Address": "G6辅路史各庄298号", "Operator": "中国石油" }, "geometry": { "type": "Point", "coordinates": [ 116.298549, 40.096842 ] } },
{ "type": "Feature", "properties": { "Name": "中国石油时顺苑加油站", "Lon_Lat": "116.365786,39.721367", "Longitude": 116.365786, "Latitude": 39.721367, "Gdtype": "汽车服务;加油站;中国石油", "Prov": "北京市", "City": "北京市", "Address": "刘一村村委会西500米", "Operator": "中国石油" }, "geometry": { "type": "Point", "coordinates": [ 116.365786, 39.721367 ] } },
{ "type": "Feature", "properties": { "Name": "中国石油天成桥加油站", "Lon_Lat": "116.636979,39.918762", "Longitude": 116.636979, "Latitude": 39.918762, "Gdtype": "汽车服务;加油站;加油站", "Prov": "北京市", "City": "北京市", "Address": "天成桥1号(西马庄收费站东)", "Operator": "中国石油" }, "geometry": { "type": "Point", "coordinates": [ 116.636979, 39.918762 ] } },
{ "type": "Feature", "properties": { "Name": "中国石油加油站(凉运路)", "Lon_Lat": "116.780198,39.824691", "Longitude": 116.780198, "Latitude": 39.824691, "Gdtype": "汽车服务;加油站;中国石油", "Prov": "北京市", "City": "北京市", "Address": "张家湾", "Operator": "中国石油" }, "geometry": { "type": "Point", "coordinates": [ 116.780198, 39.824691 ] } },
{ "type": "Feature", "properties": { "Name": "中国石油建宏发加油站", "Lon_Lat": "116.247018,39.869081", "Longitude": 116.247018, "Latitude": 39.869081, "Gdtype": "汽车服务;加油站;加油站", "Prov": "北京市", "City": "北京市", "Address": "卢沟桥小屯西路105号", "Operator": "中国石油" }, "geometry": { "type": "Point", "coordinates": [ 116.247018, 39.869081 ] } },
{ "type": "Feature", "properties": { "Name": "中国石油龙潭加油站", "Lon_Lat": "116.196422,40.040432", "Longitude": 116.196422, "Latitude": 40.040432, "Gdtype": "汽车服务;加油站;中国石油", "Prov": "北京市", "City": "北京市", "Address": "温泉路19号", "Operator": "中国石油" }, "geometry": { "type": "Point", "coordinates": [ 116.196422, 40.040432 ] } },
{ "type": "Feature", "properties": { "Name": "中国石油昌延加油站", "Lon_Lat": "116.065268,40.422715", "Longitude": 116.065268, "Latitude": 40.422715, "Gdtype": "汽车服务;加油站;中国石油", "Prov": "北京市", "City": "北京市", "Address": "大榆树镇京银路西红山路段,路北,张伍堡村东南", "Operator": "中国石油" }, "geometry": { "type": "Point", "coordinates": [ 116.065268, 40.422715 ] } },
{ "type": "Feature", "properties": { "Name": "中国石油特许加盟工大京天加油站", "Lon_Lat": "116.485151,39.876621", "Longitude": 116.485151, "Latitude": 39.876621, "Gdtype": "汽车服务;加油站;中国石油", "Prov": "北京市", "City": "北京市", "Address": "北工大路祁家坟公交站对面", "Operator": "中国石油" }, "geometry": { "type": "Point", "coordinates": [ 116.485151, 39.876621 ] } },
{ "type": "Feature", "properties": { "Name": "中国石油加油站(内部专用)(暂停营业)", "Lon_Lat": "116.240244,40.16486", "Longitude": 116.240244, "Latitude": 40.16486, "Gdtype": "汽车服务;加油站;中国石油", "Prov": "北京市", "City": "北京市", "Address": "沙河西沙屯桥西", "Operator": "中国石油" }, "geometry": { "type": "Point", "coordinates": [ 116.240244, 40.16486 ] } },
{ "type": "Feature", "properties": { "Name": "中国石油新旭城加油站", "Lon_Lat": "116.06993,39.671315", "Longitude": 116.06993, "Latitude": 39.671315, "Gdtype": "汽车服务;加油站;中国石油", "Prov": "北京市", "City": "北京市", "Address": "于庄村", "Operator": "中国石油" }, "geometry": { "type": "Point", "coordinates": [ 116.06993, 39.671315 ] } },
{ "type": "Feature", "properties": { "Name": "中国石油特许加盟建鑫加油站", "Lon_Lat": "116.731646,39.943936", "Longitude": 116.731646, "Latitude": 39.943936, "Gdtype": "汽车服务;加油站;中国石油", "Prov": "北京市", "City": "北京市", "Address": "宋庄镇中街118号", "Operator": "中国石油" }, "geometry": { "type": "Point", "coordinates": [ 116.731646, 39.943936 ] } },
{ "type": "Feature", "properties": { "Name": "中国石油科大方兴加油站", "Lon_Lat": "116.355616,39.993173", "Longitude": 116.355616, "Latitude": 39.993173, "Gdtype": "汽车服务;加油站;加油站", "Prov": "北京市", "City": "北京市", "Address": "志新路30号", "Operator": "中国石油" }, "geometry": { "type": "Point", "coordinates": [ 116.355616, 39.993173 ] } },
{ "type": "Feature", "properties": { "Name": "中国石油畅力捷加油站", "Lon_Lat": "115.641593,39.944262", "Longitude": 115.641593, "Latitude": 39.944262, "Gdtype": "汽车服务;加油站;加油站", "Prov": "北京市", "City": "北京市", "Address": "下清水村东", "Operator": "中国石油" }, "geometry": { "type": "Point", "coordinates": [ 115.641593, 39.944262 ] } },
{ "type": "Feature", "properties": { "Name": "中国石油新杜社加油站", "Lon_Lat": "116.645382,39.748452", "Longitude": 116.645382, "Latitude": 39.748452, "Gdtype": "汽车服务;加油站;中国石油", "Prov": "北京市", "City": "北京市", "Address": "大杜社村西", "Operator": "中国石油" }, "geometry": { "type": "Point", "coordinates": [ 116.645382, 39.748452 ] } },
{ "type": "Feature", "properties": { "Name": "中国石油北汽酒仙桥加油站", "Lon_Lat": "116.499972,39.973985", "Longitude": 116.499972, "Latitude": 39.973985, "Gdtype": "汽车服务;加油站;中国石油", "Prov": "北京市", "City": "北京市", "Address": "酒仙桥东路20号", "Operator": "中国石油" }, "geometry": { "type": "Point", "coordinates": [ 116.499972, 39.973985 ] } },
{ "type": "Feature", "properties": { "Name": "中国石油力克力多加油站", "Lon_Lat": "116.410505,39.69373", "Longitude": 116.410505, "Latitude": 39.69373, "Gdtype": "汽车服务;加油站;加油站", "Prov": "北京市", "City": "北京市", "Address": "黄村镇磁魏路东侧鸿远晟南9号", "Operator": "中国石油" }, "geometry": { "type": "Point", "coordinates": [ 116.410505, 39.69373 ] } },
{ "type": "Feature", "properties": { "Name": "中国石油北七家加油站", "Lon_Lat": "116.403378,40.114449", "Longitude": 116.403378, "Latitude": 40.114449, "Gdtype": "汽车服务;加油站;中国石油", "Prov": "北京市", "City": "北京市", "Address": "定泗路104号院1号", "Operator": "中国石油" }, "geometry": { "type": "Point", "coordinates": [ 116.403378, 40.114449 ] } },
{ "type": "Feature", "properties": { "Name": "中国石油特许加盟燕鑫商贸加油站", "Lon_Lat": "116.636222,39.988375", "Longitude": 116.636222, "Latitude": 39.988375, "Gdtype": "汽车服务;加油站;加油站", "Prov": "北京市", "City": "北京市", "Address": "金盏乡皮村甲一号", "Operator": "中国石油" }, "geometry": { "type": "Point", "coordinates": [ 116.636222, 39.988375 ] } },
{ "type": "Feature", "properties": { "Name": "中国石油京顺路加油站", "Lon_Lat": "116.562182,40.097291", "Longitude": 116.562182, "Latitude": 40.097291, "Gdtype": "汽车服务;加油站;加油站", "Prov": "北京市", "City": "北京市", "Address": "后沙峪镇铁匠营段村南侧", "Operator": "中国石油" }, "geometry": { "type": "Point", "coordinates": [ 116.562182, 40.097291 ] } },
{ "type": "Feature", "properties": { "Name": "中国石油北方利民加油站", "Lon_Lat": "116.5695,40.146015", "Longitude": 116.5695, "Latitude": 40.146015, "Gdtype": "汽车服务;加油站;加油站", "Prov": "北京市", "City": "北京市", "Address": "顺高路北侧(高丽营镇文化营村委会西500米)", "Operator": "中国石油" }, "geometry": { "type": "Point", "coordinates": [ 116.5695, 40.146015 ] } },
{ "type": "Feature", "properties": { "Name": "中国石油特许加盟晓龙加油站", "Lon_Lat": "116.253546,39.879554", "Longitude": 116.253546, "Latitude": 39.879554, "Gdtype": "汽车服务;加油站;加油站", "Prov": "北京市", "City": "北京市", "Address": "小屯路14号", "Operator": "中国石油" }, "geometry": { "type": "Point", "coordinates": [ 116.253546, 39.879554 ] } },
{ "type": "Feature", "properties": { "Name": "中国石油南下路加油站", "Lon_Lat": "116.37372,39.877369", "Longitude": 116.37372, "Latitude": 39.877369, "Gdtype": "汽车服务;加油站;中国石油", "Prov": "北京市", "City": "北京市", "Address": "菜市口南大街26号(陶然亭地铁站D西南口步行190米)", "Operator": "中国石油" }, "geometry": { "type": "Point", "coordinates": [ 116.37372, 39.877369 ] } },
{ "type": "Feature", "properties": { "Name": "中国石油盛华盛加油站", "Lon_Lat": "116.543841,39.868462", "Longitude": 116.543841, "Latitude": 39.868462, "Gdtype": "汽车服务;加油站;中国石油", "Prov": "北京市", "City": "北京市", "Address": "王四营村京沈辅路路南", "Operator": "中国石油" }, "geometry": { "type": "Point", "coordinates": [ 116.543841, 39.868462 ] } },
{ "type": "Feature", "properties": { "Name": "中国石油特许加盟中海华信加油站", "Lon_Lat": "115.979777,39.651482", "Longitude": 115.979777, "Latitude": 39.651482, "Gdtype": "汽车服务;加油站;中国石油", "Prov": "北京市", "City": "北京市", "Address": "石楼镇石楼村西房琉路", "Operator": "中国石油" }, "geometry": { "type": "Point", "coordinates": [ 115.979777, 39.651482 ] } },
{ "type": "Feature", "properties": { "Name": "中国石油首发能源加油站(西三旗出京)", "Lon_Lat": "116.334157,40.048819", "Longitude": 116.334157, "Latitude": 40.048819, "Gdtype": "汽车服务;加油站;中国石油", "Prov": "北京市", "City": "北京市", "Address": null, "Operator": "中国石油" }, "geometry": { "type": "Point", "coordinates": [ 116.334157, 40.048819 ] } },
{ "type": "Feature", "properties": { "Name": "燕港石化加油站", "Lon_Lat": "116.335568,39.976968", "Longitude": 116.335568, "Latitude": 39.976968, "Gdtype": "汽车服务;加油站;中国石油", "Prov": "北京市", "City": "北京市", "Address": "知春路53号", "Operator": "中国石油" }, "geometry": { "type": "Point", "coordinates": [ 116.335568, 39.976968 ] } },
{ "type": "Feature", "properties": { "Name": "中国石油北汽石榴庄加油站", "Lon_Lat": "116.417462,39.842675", "Longitude": 116.417462, "Latitude": 39.842675, "Gdtype": "汽车服务;加油站;加油站", "Prov": "北京市", "City": "北京市", "Address": "石榴庄西街甲2号(京深海鲜市场北门对面)", "Operator": "中国石油" }, "geometry": { "type": "Point", "coordinates": [ 116.417462, 39.842675 ] } },
{ "type": "Feature", "properties": { "Name": "中国石油欣燕林加油站", "Lon_Lat": "116.325267,39.581667", "Longitude": 116.325267, "Latitude": 39.581667, "Gdtype": "汽车服务;加油站;加油站", "Prov": "北京市", "City": "北京市", "Address": "东黑垡村南", "Operator": "中国石油" }, "geometry": { "type": "Point", "coordinates": [ 116.325267, 39.581667 ] } },
{ "type": "Feature", "properties": { "Name": "中国石油燕阳加油站", "Lon_Lat": "116.16897,39.768522", "Longitude": 116.16897, "Latitude": 39.768522, "Gdtype": "汽车服务;加油站;中国石油", "Prov": "北京市", "City": "北京市", "Address": "长阳镇加州水郡东区北侧50米", "Operator": "中国石油" }, "geometry": { "type": "Point", "coordinates": [ 116.16897, 39.768522 ] } },
{ "type": "Feature", "properties": { "Name": "中国石油鑫翠微加油站", "Lon_Lat": "116.303542,39.913405", "Longitude": 116.303542, "Latitude": 39.913405, "Gdtype": "汽车服务;加油站;加油站", "Prov": "北京市", "City": "北京市", "Address": "翠微路甲24号", "Operator": "中国石油" }, "geometry": { "type": "Point", "coordinates": [ 116.303542, 39.913405 ] } },
{ "type": "Feature", "properties": { "Name": "中国石油特许加盟鑫垚金地加油站", "Lon_Lat": "116.419879,39.856624", "Longitude": 116.419879, "Latitude": 39.856624, "Gdtype": "汽车服务;加油站;中国石油", "Prov": "北京市", "City": "北京市", "Address": "南三环东路28号(刘家窑地铁站D西南口步行190米)", "Operator": "中国石油" }, "geometry": { "type": "Point", "coordinates": [ 116.419879, 39.856624 ] } },
{ "type": "Feature", "properties": { "Name": "中国石油祥龙广渠东路加油站", "Lon_Lat": "116.512992,39.891869", "Longitude": 116.512992, "Latitude": 39.891869, "Gdtype": "汽车服务;加油站;中国石油", "Prov": "北京市", "City": "北京市", "Address": "广渠路2号", "Operator": "中国石油" }, "geometry": { "type": "Point", "coordinates": [ 116.512992, 39.891869 ] } },
{ "type": "Feature", "properties": { "Name": "中国石油—首发能源健翔桥加油站", "Lon_Lat": "116.384815,39.987601", "Longitude": 116.384815, "Latitude": 39.987601, "Gdtype": "汽车服务;加油站;中国石油", "Prov": "北京市", "City": "北京市", "Address": "健翔桥东500米(亚运村)", "Operator": "中国石油" }, "geometry": { "type": "Point", "coordinates": [ 116.384815, 39.987601 ] } },
{ "type": "Feature", "properties": { "Name": "中国石油加油站", "Lon_Lat": "116.489405,39.951943", "Longitude": 116.489405, "Latitude": 39.951943, "Gdtype": "汽车服务;加油站;中国石油", "Prov": "北京市", "City": "北京市", "Address": "北四环东风北桥(近酒仙桥京克隆)", "Operator": "中国石油" }, "geometry": { "type": "Point", "coordinates": [ 116.489405, 39.951943 ] } },
{ "type": "Feature", "properties": { "Name": "中国石油双燕加油站", "Lon_Lat": "116.112674,39.75919", "Longitude": 116.112674, "Latitude": 39.75919, "Gdtype": "汽车服务;加油站;加油站", "Prov": "北京市", "City": "北京市", "Address": "大苑村村东,北刘庄村口对面", "Operator": "中国石油" }, "geometry": { "type": "Point", "coordinates": [ 116.112674, 39.75919 ] } },
{ "type": "Feature", "properties": { "Name": "中国石油南宫加油站(暂停营业)", "Lon_Lat": "116.462537,39.727729", "Longitude": 116.462537, "Latitude": 39.727729, "Gdtype": "汽车服务;加油站;中国石油", "Prov": "北京市", "City": "北京市", "Address": "南宫村京济路16号", "Operator": "中国石油" }, "geometry": { "type": "Point", "coordinates": [ 116.462537, 39.727729 ] } },
{ "type": "Feature", "properties": { "Name": "中国石油爱心加油站", "Lon_Lat": "115.907469,40.388968", "Longitude": 115.907469, "Latitude": 40.388968, "Gdtype": "汽车服务;加油站;加油站", "Prov": "北京市", "City": "北京市", "Address": "康庄镇康张路与延康路交叉口", "Operator": "中国石油" }, "geometry": { "type": "Point", "coordinates": [ 115.907469, 40.388968 ] } },
{ "type": "Feature", "properties": { "Name": "中国石油特许加盟燕油鹏远加油站", "Lon_Lat": "115.955645,39.67744", "Longitude": 115.955645, "Latitude": 39.67744, "Gdtype": "汽车服务;加油站;中国石油", "Prov": "北京市", "City": "北京市", "Address": "周口村", "Operator": "中国石油" }, "geometry": { "type": "Point", "coordinates": [ 115.955645, 39.67744 ] } },
{ "type": "Feature", "properties": { "Name": "中国石油加油站", "Lon_Lat": "116.273827,39.887316", "Longitude": 116.273827, "Latitude": 39.887316, "Gdtype": "汽车服务;加油站;中国石油", "Prov": "北京市", "City": "北京市", "Address": "岳各庄四环主路", "Operator": "中国石油" }, "geometry": { "type": "Point", "coordinates": [ 116.273827, 39.887316 ] } },
{ "type": "Feature", "properties": { "Name": "中国石油特许加盟蓝图纷飞加油站", "Lon_Lat": "116.591596,39.857343", "Longitude": 116.591596, "Latitude": 39.857343, "Gdtype": "汽车服务;加油站;加油站", "Prov": "北京市", "City": "北京市", "Address": "黑庄户乡万通路36号院", "Operator": "中国石油" }, "geometry": { "type": "Point", "coordinates": [ 116.591596, 39.857343 ] } },
{ "type": "Feature", "properties": { "Name": "中国石油特许加盟公联京成加油站(暂停营业)", "Lon_Lat": "116.490165,39.951735", "Longitude": 116.490165, "Latitude": 39.951735, "Gdtype": "汽车服务;加油站;中国石油", "Prov": "北京市", "City": "北京市", "Address": "东四环主路外环东风北桥南800米", "Operator": "中国石油" }, "geometry": { "type": "Point", "coordinates": [ 116.490165, 39.951735 ] } },
{ "type": "Feature", "properties": { "Name": "中国石油京胜望京北加油站", "Lon_Lat": "116.485370,40.013938", "Longitude": 116.48537, "Latitude": 40.013938, "Gdtype": "汽车服务;加油站;中国石油", "Prov": "北京市", "City": "北京市", "Address": "来广营(广泽桥东200米)", "Operator": "中国石油" }, "geometry": { "type": "Point", "coordinates": [ 116.48537, 40.013938 ] } },
{ "type": "Feature", "properties": { "Name": "中化石油加油站(暂停营业)", "Lon_Lat": "116.402145,39.670477", "Longitude": 116.402145, "Latitude": 39.670477, "Gdtype": "汽车服务;加油站;中国石油", "Prov": "北京市", "City": "北京市", "Address": "黄徐路与魏石路交叉口处", "Operator": "中国石油" }, "geometry": { "type": "Point", "coordinates": [ 116.402145, 39.670477 ] } },
{ "type": "Feature", "properties": { "Name": "中国石油石大二号加油站", "Lon_Lat": "116.231345,40.199952", "Longitude": 116.231345, "Latitude": 40.199952, "Gdtype": "汽车服务;加油站;中国石油", "Prov": "北京市", "City": "北京市", "Address": "白浮泉路4号", "Operator": "中国石油" }, "geometry": { "type": "Point", "coordinates": [ 116.231345, 40.199952 ] } },
{ "type": "Feature", "properties": { "Name": "中国石油兴业加油站", "Lon_Lat": "116.251589,39.947542", "Longitude": 116.251589, "Latitude": 39.947542, "Gdtype": "汽车服务;加油站;中国石油", "Prov": "北京市", "City": "北京市", "Address": "四季青杏石口路49号", "Operator": "中国石油" }, "geometry": { "type": "Point", "coordinates": [ 116.251589, 39.947542 ] } },
{ "type": "Feature", "properties": { "Name": "中国石油天诚金龙加油站", "Lon_Lat": "116.446309,39.840579", "Longitude": 116.446309, "Latitude": 39.840579, "Gdtype": "汽车服务;加油站;加油站", "Prov": "北京市", "City": "北京市", "Address": "成寿寺路141号", "Operator": "中国石油" }, "geometry": { "type": "Point", "coordinates": [ 116.446309, 39.840579 ] } },
{ "type": "Feature", "properties": { "Name": "中国石油首路顺密路加油站", "Lon_Lat": "116.716272,40.156077", "Longitude": 116.716272, "Latitude": 40.156077, "Gdtype": "汽车服务;加油站;中国石油", "Prov": "北京市", "City": "北京市", "Address": "南彩镇前郝家疃村", "Operator": "中国石油" }, "geometry": { "type": "Point", "coordinates": [ 116.716272, 40.156077 ] } },
{ "type": "Feature", "properties": { "Name": "中国石油朝顺通泰加油站", "Lon_Lat": "116.569909,39.939907", "Longitude": 116.569909, "Latitude": 39.939907, "Gdtype": "汽车服务;加油站;中国石油", "Prov": "北京市", "City": "北京市", "Address": "石各庄路", "Operator": "中国石油" }, "geometry": { "type": "Point", "coordinates": [ 116.569909, 39.939907 ] } },
{ "type": "Feature", "properties": { "Name": "中国石油首气十六号加油站", "Lon_Lat": "116.472674,39.978358", "Longitude": 116.472674, "Latitude": 39.978358, "Gdtype": "汽车服务;加油站;加油站", "Prov": "北京市", "City": "北京市", "Address": "花家地南里甲2号", "Operator": "中国石油" }, "geometry": { "type": "Point", "coordinates": [ 116.472674, 39.978358 ] } },
{ "type": "Feature", "properties": { "Name": "中国石油新景都市加油站", "Lon_Lat": "116.333511,40.050951", "Longitude": 116.333511, "Latitude": 40.050951, "Gdtype": "汽车服务;加油站;中国石油", "Prov": "北京市", "City": "北京市", "Address": "八达岭高速公路西三旗出口辅路东侧", "Operator": "中国石油" }, "geometry": { "type": "Point", "coordinates": [ 116.333511, 40.050951 ] } },
{ "type": "Feature", "properties": { "Name": "中国石油滨河加油站", "Lon_Lat": "116.349717,39.874861", "Longitude": 116.349717, "Latitude": 39.874861, "Gdtype": "汽车服务;加油站;加油站", "Prov": "北京市", "City": "北京市", "Address": "菜户营甲7号", "Operator": "中国石油" }, "geometry": { "type": "Point", "coordinates": [ 116.349717, 39.874861 ] } },
{ "type": "Feature", "properties": { "Name": "中国石油特许加盟阜石路加油站", "Lon_Lat": "116.266558,39.9237", "Longitude": 116.266558, "Latitude": 39.9237, "Gdtype": "汽车服务;加油站;加油站", "Prov": "北京市", "City": "北京市", "Address": "阜石路56号", "Operator": "中国石油" }, "geometry": { "type": "Point", "coordinates": [ 116.266558, 39.9237 ] } },
{ "type": "Feature", "properties": { "Name": "中国石油马驹桥加油站", "Lon_Lat": "116.559609,39.750993", "Longitude": 116.559609, "Latitude": 39.750993, "Gdtype": "汽车服务;加油站;中国石油", "Prov": "北京市", "City": "北京市", "Address": "马桥北街226号", "Operator": "中国石油" }, "geometry": { "type": "Point", "coordinates": [ 116.559609, 39.750993 ] } },
{ "type": "Feature", "properties": { "Name": "中国石油西南吕加油站", "Lon_Lat": "116.092056,39.600529", "Longitude": 116.092056, "Latitude": 39.600529, "Gdtype": "汽车服务;加油站;中国石油", "Prov": "北京市", "City": "北京市", "Address": "西南吕村(琉陶路附近)", "Operator": "中国石油" }, "geometry": { "type": "Point", "coordinates": [ 116.092056, 39.600529 ] } },
{ "type": "Feature", "properties": { "Name": "中国石油中大加油站", "Lon_Lat": "116.348025,39.799279", "Longitude": 116.348025, "Latitude": 39.799279, "Gdtype": "汽车服务;加油站;中国石油", "Prov": "北京市", "City": "北京市", "Address": "西红门镇京开高速进京收费站辅路东侧", "Operator": "中国石油" }, "geometry": { "type": "Point", "coordinates": [ 116.348025, 39.799279 ] } },
{ "type": "Feature", "properties": { "Name": "中国石油首汽加油站", "Lon_Lat": "116.632046,39.655803", "Longitude": 116.632046, "Latitude": 39.655803, "Gdtype": "汽车服务;加油站;加油站", "Prov": "北京市", "City": "北京市", "Address": "采辛路", "Operator": "中国石油" }, "geometry": { "type": "Point", "coordinates": [ 116.632046, 39.655803 ] } },
{ "type": "Feature", "properties": { "Name": "中国石油龙之源加油站", "Lon_Lat": "116.012675,39.703193", "Longitude": 116.012675, "Latitude": 39.703193, "Gdtype": "汽车服务;加油站;中国石油", "Prov": "北京市", "City": "北京市", "Address": "房山街道饶乐府村东(房山三中斜对面)", "Operator": "中国石油" }, "geometry": { "type": "Point", "coordinates": [ 116.012675, 39.703193 ] } },
{ "type": "Feature", "properties": { "Name": "中国石油特许加盟好运宝亦加油站", "Lon_Lat": "116.230115,39.870124", "Longitude": 116.230115, "Latitude": 39.870124, "Gdtype": "汽车服务;加油站;中国石油", "Prov": "北京市", "City": "北京市", "Address": "张仪村路215号", "Operator": "中国石油" }, "geometry": { "type": "Point", "coordinates": [ 116.230115, 39.870124 ] } },
{ "type": "Feature", "properties": { "Name": "中国石油恒万加油站", "Lon_Lat": "116.411238,39.766859", "Longitude": 116.411238, "Latitude": 39.766859, "Gdtype": "汽车服务;加油站;中国石油", "Prov": "北京市", "City": "北京市", "Address": "大生庄村9号(黄亦路与西三路路口)", "Operator": "中国石油" }, "geometry": { "type": "Point", "coordinates": [ 116.411238, 39.766859 ] } },
{ "type": "Feature", "properties": { "Name": "中国石油首汽2号加油站", "Lon_Lat": "116.319507,39.938515", "Longitude": 116.319507, "Latitude": 39.938515, "Gdtype": "汽车服务;加油站;中国石油", "Prov": "北京市", "City": "北京市", "Address": "紫竹院南路甲3号", "Operator": "中国石油" }, "geometry": { "type": "Point", "coordinates": [ 116.319507, 39.938515 ] } },
{ "type": "Feature", "properties": { "Name": "中国石油京胜京开东加油站", "Lon_Lat": "116.327173,39.683176", "Longitude": 116.327173, "Latitude": 39.683176, "Gdtype": "汽车服务;加油站;加油站", "Prov": "北京市", "City": "北京市", "Address": "北臧村镇京开公路天宫院收费站北500米", "Operator": "中国石油" }, "geometry": { "type": "Point", "coordinates": [ 116.327173, 39.683176 ] } },
{ "type": "Feature", "properties": { "Name": "中国石油华昌加油站", "Lon_Lat": "116.216996,40.262945", "Longitude": 116.216996, "Latitude": 40.262945, "Gdtype": "汽车服务;加油站;加油站", "Prov": "北京市", "City": "北京市", "Address": "十三陵康陵园村(雪世界南边)国道110康陵园村段", "Operator": "中国石油" }, "geometry": { "type": "Point", "coordinates": [ 116.216996, 40.262945 ] } },
{ "type": "Feature", "properties": { "Name": "中国石油加油站(北京方舟皮肤病医院东南)", "Lon_Lat": "116.562005,40.096959", "Longitude": 116.562005, "Latitude": 40.096959, "Gdtype": "汽车服务;加油站;中国石油", "Prov": "北京市", "City": "北京市", "Address": [ ], "Operator": "中国石油" }, "geometry": { "type": "Point", "coordinates": [ 116.562005, 40.096959 ] } },
{ "type": "Feature", "properties": { "Name": "中国石油加油站(暂停营业)", "Lon_Lat": "116.326689,39.681316", "Longitude": 116.326689, "Latitude": 39.681316, "Gdtype": "汽车服务;加油站;中国石油", "Prov": "北京市", "City": "北京市", "Address": "京开辅路与永旺路交叉口东约140米", "Operator": "中国石油" }, "geometry": { "type": "Point", "coordinates": [ 116.326689, 39.681316 ] } },
{ "type": "Feature", "properties": { "Name": "中国石油特许加盟瑞洁加油站", "Lon_Lat": "116.376696,39.97644", "Longitude": 116.376696, "Latitude": 39.97644, "Gdtype": "汽车服务;加油站;中国石油", "Prov": "北京市", "City": "北京市", "Address": "北土城西路129号", "Operator": "中国石油" }, "geometry": { "type": "Point", "coordinates": [ 116.376696, 39.97644 ] } },
{ "type": "Feature", "properties": { "Name": "中国石油首汽18号加油站", "Lon_Lat": "117.017244,40.17292", "Longitude": 117.017244, "Latitude": 40.17292, "Gdtype": "汽车服务;加油站;加油站", "Prov": "北京市", "City": "北京市", "Address": "南营村东", "Operator": "中国石油" }, "geometry": { "type": "Point", "coordinates": [ 117.017244, 40.17292 ] } },
{ "type": "Feature", "properties": { "Name": "中国石油特许加盟利农加油站", "Lon_Lat": "116.714076,40.171246", "Longitude": 116.714076, "Latitude": 40.171246, "Gdtype": "汽车服务;加油站;中国石油", "Prov": "北京市", "City": "北京市", "Address": "北小营镇白马路马辛庄段7号", "Operator": "中国石油" }, "geometry": { "type": "Point", "coordinates": [ 116.714076, 40.171246 ] } },
{ "type": "Feature", "properties": { "Name": "中国石油东坝河加油站", "Lon_Lat": "116.466116,39.972191", "Longitude": 116.466116, "Latitude": 39.972191, "Gdtype": "汽车服务;加油站;中国石油", "Prov": "北京市", "City": "北京市", "Address": "四元桥下顺景温泉旁", "Operator": "中国石油" }, "geometry": { "type": "Point", "coordinates": [ 116.466116, 39.972191 ] } },
{ "type": "Feature", "properties": { "Name": "中国石油田家府服务区加油站", "Lon_Lat": "116.668519,39.841487", "Longitude": 116.668519, "Latitude": 39.841487, "Gdtype": "汽车服务;加油站;中国石油", "Prov": "北京市", "City": "北京市", "Address": "京哈高速田家府服务区进京", "Operator": "中国石油" }, "geometry": { "type": "Point", "coordinates": [ 116.668519, 39.841487 ] } },
{ "type": "Feature", "properties": { "Name": "中国石油加油站", "Lon_Lat": "116.171798,40.067381", "Longitude": 116.171798, "Latitude": 40.067381, "Gdtype": "汽车服务;加油站;中国石油", "Prov": "北京市", "City": "北京市", "Address": "北清路160号", "Operator": "中国石油" }, "geometry": { "type": "Point", "coordinates": [ 116.171798, 40.067381 ] } },
{ "type": "Feature", "properties": { "Name": "中国石油独一处加油站", "Lon_Lat": "116.213181,39.802446", "Longitude": 116.213181, "Latitude": 39.802446, "Gdtype": "汽车服务;加油站;中国石油", "Prov": "北京市", "City": "北京市", "Address": "长韩路9号", "Operator": "中国石油" }, "geometry": { "type": "Point", "coordinates": [ 116.213181, 39.802446 ] } }
]
}
