{
"type": "FeatureCollection",
"name": "中石化",
"crs": { "type": "name", "properties": { "name": "urn:ogc:def:crs:OGC:1.3:CRS84" } },
"features": [
{ "type": "Feature", "properties": { "Name": "中国石化惠忠寺加油站", "Lon_Lat": "116.40847,39.996423", "Longitude": 116.40847, "Latitude": 39.996423, "Gdtype": "汽车服务;加油站;中国石化", "Prov": "北京市", "City": "北京市", "Address": "安慧北里321号", "Operator": "中国石化" }, "geometry": { "type": "Point", "coordinates": [ 116.40847, 39.996423 ] } },
{ "type": "Feature", "properties": { "Name": "中国石化田村山北加油站", "Lon_Lat": "116.238727,39.926499", "Longitude": 116.238727, "Latitude": 39.926499, "Gdtype": "汽车服务;加油站;中国石化", "Prov": "北京市", "City": "北京市", "Address": "田村沙石场路61号", "Operator": "中国石化" }, "geometry": { "type": "Point", "coordinates": [ 116.238727, 39.926499 ] } },
{ "type": "Feature", "properties": { "Name": "中国石化燕府通加油站", "Lon_Lat": "115.987008,39.694317", "Longitude": 115.987008, "Latitude": 39.694317, "Gdtype": "汽车服务;加油站;中国石化", "Prov": "北京市", "City": "北京市", "Address": "兴房大街35号", "Operator": "中国石化" }, "geometry": { "type": "Point", "coordinates": [ 115.987008, 39.694317 ] } },
{ "type": "Feature", "properties": { "Name": "中国石化加油站(暂停营业)", "Lon_Lat": "116.326816,39.681333", "Longitude": 116.326816, "Latitude": 39.681333, "Gdtype": "汽车服务;加油站;中国石化", "Prov": "北京市", "City": "北京市", "Address": "林校路街道兆丰桥南300米路东", "Operator": "中国石化" }, "geometry": { "type": "Point", "coordinates": [ 116.326816, 39.681333 ] } },
{ "type": "Feature", "properties": { "Name": "中国石化顺发加油站", "Lon_Lat": "115.804063,39.546588", "Longitude": 115.804063, "Latitude": 39.546588, "Gdtype": "汽车服务;加油站;中国石化", "Prov": "北京市", "City": "北京市", "Address": "大石窝辛庄村南", "Operator": "中国石化" }, "geometry": { "type": "Point", "coordinates": [ 115.804063, 39.546588 ] } },
{ "type": "Feature", "properties": { "Name": "中国石化新立南加油站", "Lon_Lat": "116.2748,39.690682", "Longitude": 116.2748, "Latitude": 39.690682, "Gdtype": "汽车服务;加油站;加油站", "Prov": "北京市", "City": "北京市", "Address": "新立村六环主路89公里处南", "Operator": "中国石化" }, "geometry": { "type": "Point", "coordinates": [ 116.2748, 39.690682 ] } },
{ "type": "Feature", "properties": { "Name": "中国石化廊桥加油站", "Lon_Lat": "116.783209,39.59702", "Longitude": 116.783209, "Latitude": 39.59702, "Gdtype": "汽车服务;加油站;加油站", "Prov": "北京市", "City": "北京市", "Address": "永乐店镇小甸屯村", "Operator": "中国石化" }, "geometry": { "type": "Point", "coordinates": [ 116.783209, 39.59702 ] } },
{ "type": "Feature", "properties": { "Name": "中国石化裕翠加油站", "Lon_Lat": "116.282867,39.917996", "Longitude": 116.282867, "Latitude": 39.917996, "Gdtype": "汽车服务;加油站;中国石化", "Prov": "北京市", "City": "北京市", "Address": "西翠路15号", "Operator": "中国石化" }, "geometry": { "type": "Point", "coordinates": [ 116.282867, 39.917996 ] } },
{ "type": "Feature", "properties": { "Name": "中国石化加油站(东方快顺站)", "Lon_Lat": "116.973077,40.563672", "Longitude": 116.973077, "Latitude": 40.563672, "Gdtype": "汽车服务;加油站;中国石化", "Prov": "北京市", "City": "北京市", "Address": "燕落村", "Operator": "中国石化" }, "geometry": { "type": "Point", "coordinates": [ 116.973077, 40.563672 ] } },
{ "type": "Feature", "properties": { "Name": "中国石化北砖加油站", "Lon_Lat": "116.360384,40.061761", "Longitude": 116.360384, "Latitude": 40.061761, "Gdtype": "汽车服务;加油站;中国石化", "Prov": "北京市", "City": "北京市", "Address": "建材城西路2号", "Operator": "中国石化" }, "geometry": { "type": "Point", "coordinates": [ 116.360384, 40.061761 ] } },
{ "type": "Feature", "properties": { "Name": "鹏亚加油站", "Lon_Lat": "116.172593,39.751470", "Longitude": 116.172593, "Latitude": 39.75147, "Gdtype": "汽车服务;加油站;中国石化", "Prov": "北京市", "City": "北京市", "Address": "长阳一村", "Operator": "中国石化" }, "geometry": { "type": "Point", "coordinates": [ 116.172593, 39.75147 ] } },
{ "type": "Feature", "properties": { "Name": "中国石化赤达加油站", "Lon_Lat": "116.320034,39.743897", "Longitude": 116.320034, "Latitude": 39.743897, "Gdtype": "汽车服务;加油站;中国石化", "Prov": "北京市", "City": "北京市", "Address": "黄村镇南程庄东口", "Operator": "中国石化" }, "geometry": { "type": "Point", "coordinates": [ 116.320034, 39.743897 ] } },
{ "type": "Feature", "properties": { "Name": "中国石化海达加油站", "Lon_Lat": "117.111834,40.154924", "Longitude": 117.111834, "Latitude": 40.154924, "Gdtype": "汽车服务;加油站;中国石化", "Prov": "北京市", "City": "北京市", "Address": "平谷镇古丰路17号", "Operator": "中国石化" }, "geometry": { "type": "Point", "coordinates": [ 117.111834, 40.154924 ] } },
{ "type": "Feature", "properties": { "Name": "中国石化宣武门加油站", "Lon_Lat": "116.378686,39.89974", "Longitude": 116.378686, "Latitude": 39.89974, "Gdtype": "汽车服务;加油站;中国石化", "Prov": "北京市", "City": "北京市", "Address": "宣武门东大街16号楼前(宣武门地铁站C东南口步行330米)", "Operator": "中国石化" }, "geometry": { "type": "Point", "coordinates": [ 116.378686, 39.89974 ] } },
{ "type": "Feature", "properties": { "Name": "中国石化加油站", "Lon_Lat": "116.018828,40.448186", "Longitude": 116.018828, "Latitude": 40.448186, "Gdtype": "汽车服务;加油站;中国石化", "Prov": "北京市", "City": "北京市", "Address": "姜家台村快速路东", "Operator": "中国石化" }, "geometry": { "type": "Point", "coordinates": [ 116.018828, 40.448186 ] } },
{ "type": "Feature", "properties": { "Name": "中国石化源泊湖加油站", "Lon_Lat": "115.725901,39.56829", "Longitude": 115.725901, "Latitude": 39.56829, "Gdtype": "汽车服务;加油站;中国石化", "Prov": "北京市", "City": "北京市", "Address": "西白岱村", "Operator": "中国石化" }, "geometry": { "type": "Point", "coordinates": [ 115.725901, 39.56829 ] } },
{ "type": "Feature", "properties": { "Name": "中国石化加油站(暂停营业)", "Lon_Lat": "115.807144,40.003068", "Longitude": 115.807144, "Latitude": 40.003068, "Gdtype": "汽车服务;加油站;中国石化", "Prov": "北京市", "City": "北京市", "Address": "法城口桥东南50米", "Operator": "中国石化" }, "geometry": { "type": "Point", "coordinates": [ 115.807144, 40.003068 ] } },
{ "type": "Feature", "properties": { "Name": "中国石化华泰小红门加油站", "Lon_Lat": "116.461453,39.834182", "Longitude": 116.461453, "Latitude": 39.834182, "Gdtype": "汽车服务;加油站;中国石化", "Prov": "北京市", "City": "北京市", "Address": "南四环东路53号", "Operator": "中国石化" }, "geometry": { "type": "Point", "coordinates": [ 116.461453, 39.834182 ] } },
{ "type": "Feature", "properties": { "Name": "中国石化三元五里店加油站(小屯西路)", "Lon_Lat": "116.247031,39.863891", "Longitude": 116.247031, "Latitude": 39.863891, "Gdtype": "汽车服务;加油站;中国石化", "Prov": "北京市", "City": "北京市", "Address": "小屯西路119号", "Operator": "中国石化" }, "geometry": { "type": "Point", "coordinates": [ 116.247031, 39.863891 ] } },
{ "type": "Feature", "properties": { "Name": "中国石化日兴旺加油站", "Lon_Lat": "117.048761,40.209997", "Longitude": 117.048761, "Latitude": 40.209997, "Gdtype": "汽车服务;加油站;中国石化", "Prov": "北京市", "City": "北京市", "Address": "王辛庄镇北辛庄村南", "Operator": "中国石化" }, "geometry": { "type": "Point", "coordinates": [ 117.048761, 40.209997 ] } },
{ "type": "Feature", "properties": { "Name": "中国石化建雄加油站", "Lon_Lat": "116.102215,40.555019", "Longitude": 116.102215, "Latitude": 40.555019, "Gdtype": "汽车服务;加油站;中国石化", "Prov": "北京市", "City": "北京市", "Address": "旧县村", "Operator": "中国石化" }, "geometry": { "type": "Point", "coordinates": [ 116.102215, 40.555019 ] } },
{ "type": "Feature", "properties": { "Name": "中国石化盛磊喜利加油站", "Lon_Lat": "116.542545,39.920479", "Longitude": 116.542545, "Latitude": 39.920479, "Gdtype": "汽车服务;加油站;中国石化", "Prov": "北京市", "City": "北京市", "Address": "大黄庄平房路甲3号", "Operator": "中国石化" }, "geometry": { "type": "Point", "coordinates": [ 116.542545, 39.920479 ] } },
{ "type": "Feature", "properties": { "Name": "中国石化延融加油站", "Lon_Lat": "115.807312,40.452759", "Longitude": 115.807312, "Latitude": 40.452759, "Gdtype": "汽车服务;加油站;中国石化", "Prov": "北京市", "City": "北京市", "Address": "姚家营村", "Operator": "中国石化" }, "geometry": { "type": "Point", "coordinates": [ 115.807312, 40.452759 ] } },
{ "type": "Feature", "properties": { "Name": "中国石化北安河加油站", "Lon_Lat": "116.136027,40.05331", "Longitude": 116.136027, "Latitude": 40.05331, "Gdtype": "汽车服务;加油站;中国石化", "Prov": "北京市", "City": "北京市", "Address": "周家巷村东", "Operator": "中国石化" }, "geometry": { "type": "Point", "coordinates": [ 116.136027, 40.05331 ] } },
{ "type": "Feature", "properties": { "Name": "中国石化加油站", "Lon_Lat": "116.617563,39.934926", "Longitude": 116.617563, "Latitude": 39.934926, "Gdtype": "汽车服务;加油站;中国石化", "Prov": "北京市", "City": "北京市", "Address": "常营乡东高路", "Operator": "中国石化" }, "geometry": { "type": "Point", "coordinates": [ 116.617563, 39.934926 ] } },
{ "type": "Feature", "properties": { "Name": "中国石化滨河加油站", "Lon_Lat": "117.095679,40.135566", "Longitude": 117.095679, "Latitude": 40.135566, "Gdtype": "汽车服务;加油站;中国石化", "Prov": "北京市", "City": "北京市", "Address": "滨河工业区西环南路9号", "Operator": "中国石化" }, "geometry": { "type": "Point", "coordinates": [ 117.095679, 40.135566 ] } },
{ "type": "Feature", "properties": { "Name": "中国石化加油站(暂停营业)", "Lon_Lat": "116.734434,39.928535", "Longitude": 116.734434, "Latitude": 39.928535, "Gdtype": "汽车服务;加油站;中国石化", "Prov": "北京市", "City": "北京市", "Address": "丁各庄村", "Operator": "中国石化" }, "geometry": { "type": "Point", "coordinates": [ 116.734434, 39.928535 ] } },
{ "type": "Feature", "properties": { "Name": "中国石化加油站", "Lon_Lat": "116.32831,39.592309", "Longitude": 116.32831, "Latitude": 39.592309, "Gdtype": "汽车服务;加油站;中国石化", "Prov": "北京市", "City": "北京市", "Address": "东黑垡村", "Operator": "中国石化" }, "geometry": { "type": "Point", "coordinates": [ 116.32831, 39.592309 ] } },
{ "type": "Feature", "properties": { "Name": "中国石化加油站", "Lon_Lat": "116.542992,39.943397", "Longitude": 116.542992, "Latitude": 39.943397, "Gdtype": "汽车服务;加油站;中国石化", "Prov": "北京市", "City": "北京市", "Address": "姚家园北口", "Operator": "中国石化" }, "geometry": { "type": "Point", "coordinates": [ 116.542992, 39.943397 ] } },
{ "type": "Feature", "properties": { "Name": "中国石化北苑路加油站", "Lon_Lat": "116.416518,39.993987", "Longitude": 116.416518, "Latitude": 39.993987, "Gdtype": "汽车服务;加油站;中国石化", "Prov": "北京市", "City": "北京市", "Address": "大屯北苑路182号", "Operator": "中国石化" }, "geometry": { "type": "Point", "coordinates": [ 116.416518, 39.993987 ] } },
{ "type": "Feature", "properties": { "Name": "中国石化航天长峰加油站", "Lon_Lat": "116.267385,39.917829", "Longitude": 116.267385, "Latitude": 39.917829, "Gdtype": "汽车服务;加油站;中国石化", "Prov": "北京市", "City": "北京市", "Address": "金沟河路9号", "Operator": "中国石化" }, "geometry": { "type": "Point", "coordinates": [ 116.267385, 39.917829 ] } },
{ "type": "Feature", "properties": { "Name": "中国石化科创街加油站", "Lon_Lat": "116.559516,39.800940", "Longitude": 116.559516, "Latitude": 39.80094, "Gdtype": "汽车服务;加油站;中国石化", "Prov": "北京市", "City": "北京市", "Address": [ ], "Operator": "中国石化" }, "geometry": { "type": "Point", "coordinates": [ 116.559516, 39.80094 ] } },
{ "type": "Feature", "properties": { "Name": "中国石化加油站", "Lon_Lat": "116.451937,39.806803", "Longitude": 116.451937, "Latitude": 39.806803, "Gdtype": "汽车服务;加油站;中国石化", "Prov": "北京市", "City": "北京市", "Address": "旧宫东路59号", "Operator": "中国石化" }, "geometry": { "type": "Point", "coordinates": [ 116.451937, 39.806803 ] } },
{ "type": "Feature", "properties": { "Name": "中国石化凭祥加油站", "Lon_Lat": "116.281029,39.940766", "Longitude": 116.281029, "Latitude": 39.940766, "Gdtype": "汽车服务;加油站;中国石化", "Prov": "北京市", "City": "北京市", "Address": "彰化路与金庄路交叉口东南角", "Operator": "中国石化" }, "geometry": { "type": "Point", "coordinates": [ 116.281029, 39.940766 ] } },
{ "type": "Feature", "properties": { "Name": "中国石化龙禹加油站", "Lon_Lat": "116.436868,39.556828", "Longitude": 116.436868, "Latitude": 39.556828, "Gdtype": "汽车服务;加油站;中国石化", "Prov": "北京市", "City": "北京市", "Address": "礼贤镇大礼路与磁大路交叉处向东礼贤镇政府东侧", "Operator": "中国石化" }, "geometry": { "type": "Point", "coordinates": [ 116.436868, 39.556828 ] } },
{ "type": "Feature", "properties": { "Name": "中国石化太平京张加油站", "Lon_Lat": "115.943599,40.519602", "Longitude": 115.943599, "Latitude": 40.519602, "Gdtype": "汽车服务;加油站;中国石化", "Prov": "北京市", "City": "北京市", "Address": "北京市延庆县张山营镇靳家堡村", "Operator": "中国石化" }, "geometry": { "type": "Point", "coordinates": [ 115.943599, 40.519602 ] } },
{ "type": "Feature", "properties": { "Name": "中国石化富友加油站", "Lon_Lat": "116.405777,39.961364", "Longitude": 116.405777, "Latitude": 39.961364, "Gdtype": "汽车服务;加油站;中国石化", "Prov": "北京市", "City": "北京市", "Address": "安外大街11号北门", "Operator": "中国石化" }, "geometry": { "type": "Point", "coordinates": [ 116.405777, 39.961364 ] } },
{ "type": "Feature", "properties": { "Name": "中国石化加油站", "Lon_Lat": "116.273831,40.186565", "Longitude": 116.273831, "Latitude": 40.186565, "Gdtype": "汽车服务;加油站;中国石化", "Prov": "北京市", "City": "北京市", "Address": "南邵镇南丰路", "Operator": "中国石化" }, "geometry": { "type": "Point", "coordinates": [ 116.273831, 40.186565 ] } },
{ "type": "Feature", "properties": { "Name": "中国石化兴达加油站", "Lon_Lat": "116.329300,39.702707", "Longitude": 116.3293, "Latitude": 39.702707, "Gdtype": "汽车服务;加油站;中国石化", "Prov": "北京市", "City": "北京市", "Address": "黄良路口北侧", "Operator": "中国石化" }, "geometry": { "type": "Point", "coordinates": [ 116.3293, 39.702707 ] } },
{ "type": "Feature", "properties": { "Name": "中国石化雁翅加油站", "Lon_Lat": "115.902126,40.036509", "Longitude": 115.902126, "Latitude": 40.036509, "Gdtype": "汽车服务;加油站;中国石化", "Prov": "北京市", "City": "北京市", "Address": "雁翅村", "Operator": "中国石化" }, "geometry": { "type": "Point", "coordinates": [ 115.902126, 40.036509 ] } },
{ "type": "Feature", "properties": { "Name": "中国石化红远洋加油站", "Lon_Lat": "116.343402,39.765541", "Longitude": 116.343402, "Latitude": 39.765541, "Gdtype": "汽车服务;加油站;中国石化", "Prov": "北京市", "City": "北京市", "Address": "前高米店村东", "Operator": "中国石化" }, "geometry": { "type": "Point", "coordinates": [ 116.343402, 39.765541 ] } },
{ "type": "Feature", "properties": { "Name": "中国石化燕交加油站", "Lon_Lat": "115.984683,39.626044", "Longitude": 115.984683, "Latitude": 39.626044, "Gdtype": "汽车服务;加油站;中国石化", "Prov": "北京市", "City": "北京市", "Address": "二站村村西房琉路路西10米", "Operator": "中国石化" }, "geometry": { "type": "Point", "coordinates": [ 115.984683, 39.626044 ] } },
{ "type": "Feature", "properties": { "Name": "中国石化加油站", "Lon_Lat": "116.345955,39.857045", "Longitude": 116.345955, "Latitude": 39.857045, "Gdtype": "汽车服务;加油站;中国石化", "Prov": "北京市", "City": "北京市", "Address": "梆子井甲1号", "Operator": "中国石化" }, "geometry": { "type": "Point", "coordinates": [ 116.345955, 39.857045 ] } },
{ "type": "Feature", "properties": { "Name": "中国石化京东海苑加油站", "Lon_Lat": "116.766423,39.883092", "Longitude": 116.766423, "Latitude": 39.883092, "Gdtype": "汽车服务;加油站;中国石化", "Prov": "北京市", "City": "北京市", "Address": "宋郎路东侧(潞城镇南刘各庄村)", "Operator": "中国石化" }, "geometry": { "type": "Point", "coordinates": [ 116.766423, 39.883092 ] } },
{ "type": "Feature", "properties": { "Name": "中国石化通航加油站", "Lon_Lat": "117.188131,40.16883", "Longitude": 117.188131, "Latitude": 40.16883, "Gdtype": "汽车服务;加油站;中国石化", "Prov": "北京市", "City": "北京市", "Address": "张辛庄村", "Operator": "中国石化" }, "geometry": { "type": "Point", "coordinates": [ 117.188131, 40.16883 ] } },
{ "type": "Feature", "properties": { "Name": "中国石化加油站", "Lon_Lat": "116.256919,40.146460", "Longitude": 116.256919, "Latitude": 40.14646, "Gdtype": "汽车服务;加油站;中国石化", "Prov": "北京市", "City": "北京市", "Address": "京藏高速新元科技园东侧", "Operator": "中国石化" }, "geometry": { "type": "Point", "coordinates": [ 116.256919, 40.14646 ] } },
{ "type": "Feature", "properties": { "Name": "中国石化窦店加油站", "Lon_Lat": "116.078607,39.653291", "Longitude": 116.078607, "Latitude": 39.653291, "Gdtype": "汽车服务;加油站;中国石化", "Prov": "北京市", "City": "北京市", "Address": "窦店镇窦店村", "Operator": "中国石化" }, "geometry": { "type": "Point", "coordinates": [ 116.078607, 39.653291 ] } },
{ "type": "Feature", "properties": { "Name": "中国石化三阳加油站", "Lon_Lat": "116.139943,40.14667", "Longitude": 116.139943, "Latitude": 40.14667, "Gdtype": "汽车服务;加油站;中国石化", "Prov": "北京市", "City": "北京市", "Address": "阳坊镇北侧", "Operator": "中国石化" }, "geometry": { "type": "Point", "coordinates": [ 116.139943, 40.14667 ] } },
{ "type": "Feature", "properties": { "Name": "中国石化华龙加油站", "Lon_Lat": "116.688002,39.924496", "Longitude": 116.688002, "Latitude": 39.924496, "Gdtype": "汽车服务;加油站;中国石化", "Prov": "北京市", "City": "北京市", "Address": "龙旺庄村南", "Operator": "中国石化" }, "geometry": { "type": "Point", "coordinates": [ 116.688002, 39.924496 ] } },
{ "type": "Feature", "properties": { "Name": "中国石化加油站", "Lon_Lat": "116.472247,39.836946", "Longitude": 116.472247, "Latitude": 39.836946, "Gdtype": "汽车服务;加油站;中国石化", "Prov": "北京市", "City": "北京市", "Address": "东四环南路甲1号(平房)", "Operator": "中国石化" }, "geometry": { "type": "Point", "coordinates": [ 116.472247, 39.836946 ] } },
{ "type": "Feature", "properties": { "Name": "中国石化金星加油站", "Lon_Lat": "116.38036,39.771093", "Longitude": 116.38036, "Latitude": 39.771093, "Gdtype": "汽车服务;加油站;中国石化", "Prov": "北京市", "City": "北京市", "Address": "团河路", "Operator": "中国石化" }, "geometry": { "type": "Point", "coordinates": [ 116.38036, 39.771093 ] } },
{ "type": "Feature", "properties": { "Name": "中国石化东沙百胜加油站", "Lon_Lat": "116.29976,40.169053", "Longitude": 116.29976, "Latitude": 40.169053, "Gdtype": "汽车服务;加油站;中国石化", "Prov": "北京市", "City": "北京市", "Address": "东沙屯村", "Operator": "中国石化" }, "geometry": { "type": "Point", "coordinates": [ 116.29976, 40.169053 ] } },
{ "type": "Feature", "properties": { "Name": "中国石化成寿寺加油站", "Lon_Lat": "116.443679,39.858392", "Longitude": 116.443679, "Latitude": 39.858392, "Gdtype": "汽车服务;加油站;中国石化", "Prov": "北京市", "City": "北京市", "Address": "成寿寺方庄桥南东侧200(南三环东路方庄桥)家世界西面", "Operator": "中国石化" }, "geometry": { "type": "Point", "coordinates": [ 116.443679, 39.858392 ] } },
{ "type": "Feature", "properties": { "Name": "中国石化双利加油站", "Lon_Lat": "116.77444,40.244782", "Longitude": 116.77444, "Latitude": 40.244782, "Gdtype": "汽车服务;加油站;中国石化", "Prov": "北京市", "City": "北京市", "Address": "木林镇西侧100米处", "Operator": "中国石化" }, "geometry": { "type": "Point", "coordinates": [ 116.77444, 40.244782 ] } },
{ "type": "Feature", "properties": { "Name": "中国石化房山京石路加油站一站加油站", "Lon_Lat": "116.081079,39.628899", "Longitude": 116.081079, "Latitude": 39.628899, "Gdtype": "汽车服务;加油站;中国石化", "Prov": "北京市", "City": "北京市", "Address": "窦店镇丁各庄村西", "Operator": "中国石化" }, "geometry": { "type": "Point", "coordinates": [ 116.081079, 39.628899 ] } },
{ "type": "Feature", "properties": { "Name": "中国石化甘棠加油站", "Lon_Lat": "116.807271,39.854648", "Longitude": 116.807271, "Latitude": 39.854648, "Gdtype": "汽车服务;加油站;加油站", "Prov": "北京市", "City": "北京市", "Address": "潞城镇侉子店村西", "Operator": "中国石化" }, "geometry": { "type": "Point", "coordinates": [ 116.807271, 39.854648 ] } },
{ "type": "Feature", "properties": { "Name": "中国石化海宏加油站", "Lon_Lat": "116.657276,39.936788", "Longitude": 116.657276, "Latitude": 39.936788, "Gdtype": "汽车服务;加油站;中国石化", "Prov": "北京市", "City": "北京市", "Address": "永顺镇范庄村西", "Operator": "中国石化" }, "geometry": { "type": "Point", "coordinates": [ 116.657276, 39.936788 ] } },
{ "type": "Feature", "properties": { "Name": "中国石化加油站(暂停营业)", "Lon_Lat": "116.586823,40.118768", "Longitude": 116.586823, "Latitude": 40.118768, "Gdtype": "汽车服务;加油站;中国石化", "Prov": "北京市", "City": "北京市", "Address": "顺平路后沙峪段1号枯柳树环岛向东路北机场北线对面", "Operator": "中国石化" }, "geometry": { "type": "Point", "coordinates": [ 116.586823, 40.118768 ] } },
{ "type": "Feature", "properties": { "Name": "中国石化国凯加油站", "Lon_Lat": "116.468496,39.812302", "Longitude": 116.468496, "Latitude": 39.812302, "Gdtype": "汽车服务;加油站;中国石化", "Prov": "北京市", "City": "北京市", "Address": "旧宫镇小红门路成寿寺路南口", "Operator": "中国石化" }, "geometry": { "type": "Point", "coordinates": [ 116.468496, 39.812302 ] } },
{ "type": "Feature", "properties": { "Name": "中国石化三元回龙观加油站", "Lon_Lat": "116.322479,40.076421", "Longitude": 116.322479, "Latitude": 40.076421, "Gdtype": "汽车服务;加油站;中国石化", "Prov": "北京市", "City": "北京市", "Address": "回龙观西大街101号", "Operator": "中国石化" }, "geometry": { "type": "Point", "coordinates": [ 116.322479, 40.076421 ] } },
{ "type": "Feature", "properties": { "Name": "中国石化滨河路加油站", "Lon_Lat": "116.112866,39.93101", "Longitude": 116.112866, "Latitude": 39.93101, "Gdtype": "汽车服务;加油站;中国石化", "Prov": "北京市", "City": "北京市", "Address": "门头沟滨河路 (交通支队对面)", "Operator": "中国石化" }, "geometry": { "type": "Point", "coordinates": [ 116.112866, 39.93101 ] } },
{ "type": "Feature", "properties": { "Name": "中国石化友盛利达加油站", "Lon_Lat": "116.137578,39.60618", "Longitude": 116.137578, "Latitude": 39.60618, "Gdtype": "汽车服务;加油站;中国石化", "Prov": "北京市", "City": "北京市", "Address": "石村村北", "Operator": "中国石化" }, "geometry": { "type": "Point", "coordinates": [ 116.137578, 39.60618 ] } },
{ "type": "Feature", "properties": { "Name": "中国石化加油站(暂停营业)", "Lon_Lat": "115.959209,39.737195", "Longitude": 115.959209, "Latitude": 39.737195, "Gdtype": "汽车服务;加油站;中国石化", "Prov": "北京市", "City": "北京市", "Address": "向阳路30号", "Operator": "中国石化" }, "geometry": { "type": "Point", "coordinates": [ 115.959209, 39.737195 ] } },
{ "type": "Feature", "properties": { "Name": "中国石化南环加油站", "Lon_Lat": "116.636953,40.309084", "Longitude": 116.636953, "Latitude": 40.309084, "Gdtype": "汽车服务;加油站;中国石化", "Prov": "北京市", "City": "北京市", "Address": "南环路东段", "Operator": "中国石化" }, "geometry": { "type": "Point", "coordinates": [ 116.636953, 40.309084 ] } },
{ "type": "Feature", "properties": { "Name": "中国石化航桥加油站", "Lon_Lat": "116.585917,40.28839", "Longitude": 116.585917, "Latitude": 40.28839, "Gdtype": "汽车服务;加油站;中国石化", "Prov": "北京市", "City": "北京市", "Address": "前桥梓村东", "Operator": "中国石化" }, "geometry": { "type": "Point", "coordinates": [ 116.585917, 40.28839 ] } },
{ "type": "Feature", "properties": { "Name": "中国石化加油站", "Lon_Lat": "116.46259,39.792291", "Longitude": 116.46259, "Latitude": 39.792291, "Gdtype": "汽车服务;加油站;中国石化", "Prov": "北京市", "City": "北京市", "Address": "南五环服务区南侧", "Operator": "中国石化" }, "geometry": { "type": "Point", "coordinates": [ 116.46259, 39.792291 ] } },
{ "type": "Feature", "properties": { "Name": "中国石化三间房加油站", "Lon_Lat": "116.572485,39.914912", "Longitude": 116.572485, "Latitude": 39.914912, "Gdtype": "汽车服务;加油站;中国石化", "Prov": "北京市", "City": "北京市", "Address": "朝阳辅路(生物研究所北墙外)", "Operator": "中国石化" }, "geometry": { "type": "Point", "coordinates": [ 116.572485, 39.914912 ] } },
{ "type": "Feature", "properties": { "Name": "中国石化京宇加油站", "Lon_Lat": "117.07092,40.144489", "Longitude": 117.07092, "Latitude": 40.144489, "Gdtype": "汽车服务;加油站;中国石化", "Prov": "北京市", "City": "北京市", "Address": "鲁各庄村南", "Operator": "中国石化" }, "geometry": { "type": "Point", "coordinates": [ 117.07092, 40.144489 ] } },
{ "type": "Feature", "properties": { "Name": "中国石化华建加油站", "Lon_Lat": "116.281915,39.752591", "Longitude": 116.281915, "Latitude": 39.752591, "Gdtype": "汽车服务;加油站;中国石化", "Prov": "北京市", "City": "北京市", "Address": "黄村镇黄鹅路11号", "Operator": "中国石化" }, "geometry": { "type": "Point", "coordinates": [ 116.281915, 39.752591 ] } },
{ "type": "Feature", "properties": { "Name": "中国石化于家坟加油站(暂停营业)", "Lon_Lat": "116.433802,39.852533", "Longitude": 116.433802, "Latitude": 39.852533, "Gdtype": "汽车服务;加油站;中国石化", "Prov": "北京市", "City": "北京市", "Address": "铁匠营横1条22号(塑料泡沫有限公司对面)", "Operator": "中国石化" }, "geometry": { "type": "Point", "coordinates": [ 116.433802, 39.852533 ] } },
{ "type": "Feature", "properties": { "Name": "中国石化三元朝阳加油站(皮村路)", "Lon_Lat": "116.623136,39.987626", "Longitude": 116.623136, "Latitude": 39.987626, "Gdtype": "汽车服务;加油站;中国石化", "Prov": "北京市", "City": "北京市", "Address": "金盏乡皮村环岛西石化加油站", "Operator": "中国石化" }, "geometry": { "type": "Point", "coordinates": [ 116.623136, 39.987626 ] } },
{ "type": "Feature", "properties": { "Name": "中国石化加油站", "Lon_Lat": "117.005809,40.140081", "Longitude": 117.005809, "Latitude": 40.140081, "Gdtype": "汽车服务;加油站;中国石化", "Prov": "北京市", "City": "北京市", "Address": "云峰寺村", "Operator": "中国石化" }, "geometry": { "type": "Point", "coordinates": [ 117.005809, 40.140081 ] } },
{ "type": "Feature", "properties": { "Name": "中国石化超强力加油站", "Lon_Lat": "116.248,39.862532", "Longitude": 116.248, "Latitude": 39.862532, "Gdtype": "汽车服务;加油站;中国石化", "Prov": "北京市", "City": "北京市", "Address": "五里店小屯路南口300米", "Operator": "中国石化" }, "geometry": { "type": "Point", "coordinates": [ 116.248, 39.862532 ] } },
{ "type": "Feature", "properties": { "Name": "中国石化加油站", "Lon_Lat": "116.2437,39.854135", "Longitude": 116.2437, "Latitude": 39.854135, "Gdtype": "汽车服务;加油站;中国石化", "Prov": "北京市", "City": "北京市", "Address": "西五里店178号", "Operator": "中国石化" }, "geometry": { "type": "Point", "coordinates": [ 116.2437, 39.854135 ] } },
{ "type": "Feature", "properties": { "Name": "中国石化日坛加油站", "Lon_Lat": "116.440572,39.911988", "Longitude": 116.440572, "Latitude": 39.911988, "Gdtype": "汽车服务;加油站;中国石化", "Prov": "北京市", "City": "北京市", "Address": "建外大街日坛路9号", "Operator": "中国石化" }, "geometry": { "type": "Point", "coordinates": [ 116.440572, 39.911988 ] } },
{ "type": "Feature", "properties": { "Name": "中国石化白庙加油站", "Lon_Lat": "116.766436,39.943338", "Longitude": 116.766436, "Latitude": 39.943338, "Gdtype": "汽车服务;加油站;中国石化", "Prov": "北京市", "City": "北京市", "Address": "宋庄镇白庙村委会西1000米", "Operator": "中国石化" }, "geometry": { "type": "Point", "coordinates": [ 116.766436, 39.943338 ] } },
{ "type": "Feature", "properties": { "Name": "中国石化刘店加油站", "Lon_Lat": "117.021454,40.237324", "Longitude": 117.021454, "Latitude": 40.237324, "Gdtype": "汽车服务;加油站;中国石化", "Prov": "北京市", "City": "北京市", "Address": "刘店村", "Operator": "中国石化" }, "geometry": { "type": "Point", "coordinates": [ 117.021454, 40.237324 ] } },
{ "type": "Feature", "properties": { "Name": "中国石化丰华加油站", "Lon_Lat": "116.387787,39.842762", "Longitude": 116.387787, "Latitude": 39.842762, "Gdtype": "汽车服务;加油站;中国石化", "Prov": "北京市", "City": "北京市", "Address": "大红门西路13号(角门东地铁站C东南口步行340米)", "Operator": "中国石化" }, "geometry": { "type": "Point", "coordinates": [ 116.387787, 39.842762 ] } },
{ "type": "Feature", "properties": { "Name": "中国石化山城加油站", "Lon_Lat": "116.013462,39.791214", "Longitude": 116.013462, "Latitude": 39.791214, "Gdtype": "汽车服务;加油站;中国石化", "Prov": "北京市", "City": "北京市", "Address": "漫水河村", "Operator": "中国石化" }, "geometry": { "type": "Point", "coordinates": [ 116.013462, 39.791214 ] } },
{ "type": "Feature", "properties": { "Name": "中国石化石楼加油站", "Lon_Lat": "115.979225,39.646372", "Longitude": 115.979225, "Latitude": 39.646372, "Gdtype": "汽车服务;加油站;中国石化", "Prov": "北京市", "City": "北京市", "Address": "石楼村", "Operator": "中国石化" }, "geometry": { "type": "Point", "coordinates": [ 115.979225, 39.646372 ] } },
{ "type": "Feature", "properties": { "Name": "中国石化昌盛宏海加油站", "Lon_Lat": "116.106488,39.687127", "Longitude": 116.106488, "Latitude": 39.687127, "Gdtype": "汽车服务;加油站;中国石化", "Prov": "北京市", "City": "北京市", "Address": "阎村镇大十三里村西", "Operator": "中国石化" }, "geometry": { "type": "Point", "coordinates": [ 116.106488, 39.687127 ] } },
{ "type": "Feature", "properties": { "Name": "中国石化西关兴昌加油站", "Lon_Lat": "116.22412,40.206274", "Longitude": 116.22412, "Latitude": 40.206274, "Gdtype": "汽车服务;加油站;中国石化", "Prov": "北京市", "City": "北京市", "Address": "西关环岛南水屯村北", "Operator": "中国石化" }, "geometry": { "type": "Point", "coordinates": [ 116.22412, 40.206274 ] } },
{ "type": "Feature", "properties": { "Name": "中国石化中外运加油站", "Lon_Lat": "116.253908,39.858742", "Longitude": 116.253908, "Latitude": 39.858742, "Gdtype": "汽车服务;加油站;中国石化", "Prov": "北京市", "City": "北京市", "Address": "五里店260号,紧邻京实丰田4S店", "Operator": "中国石化" }, "geometry": { "type": "Point", "coordinates": [ 116.253908, 39.858742 ] } },
{ "type": "Feature", "properties": { "Name": "中国石化甘营加油站", "Lon_Lat": "117.224518,40.149662", "Longitude": 117.224518, "Latitude": 40.149662, "Gdtype": "汽车服务;加油站;中国石化", "Prov": "北京市", "City": "北京市", "Address": "南独乐河镇甘营村政府东50米路北", "Operator": "中国石化" }, "geometry": { "type": "Point", "coordinates": [ 117.224518, 40.149662 ] } },
{ "type": "Feature", "properties": { "Name": "中国石化精丽荣加油站", "Lon_Lat": "115.954037,40.426324", "Longitude": 115.954037, "Latitude": 40.426324, "Gdtype": "汽车服务;加油站;中国石化", "Prov": "北京市", "City": "北京市", "Address": "下屯村西(下屯桥东,延康路路东)", "Operator": "中国石化" }, "geometry": { "type": "Point", "coordinates": [ 115.954037, 40.426324 ] } },
{ "type": "Feature", "properties": { "Name": "中国石化三元亦庄加油站", "Lon_Lat": "116.449848,39.817547", "Longitude": 116.449848, "Latitude": 39.817547, "Gdtype": "汽车服务;加油站;中国石化", "Prov": "北京市", "City": "北京市", "Address": "旧宫镇吉百利路临11号", "Operator": "中国石化" }, "geometry": { "type": "Point", "coordinates": [ 116.449848, 39.817547 ] } },
{ "type": "Feature", "properties": { "Name": "中国石化燕通加油站", "Lon_Lat": "116.771673,39.715312", "Longitude": 116.771673, "Latitude": 39.715312, "Gdtype": "汽车服务;加油站;中国石化", "Prov": "北京市", "City": "北京市", "Address": "永乐店镇新西庄村", "Operator": "中国石化" }, "geometry": { "type": "Point", "coordinates": [ 116.771673, 39.715312 ] } },
{ "type": "Feature", "properties": { "Name": "中国石化松树峪加油站", "Lon_Lat": "117.148891,40.555852", "Longitude": 117.148891, "Latitude": 40.555852, "Gdtype": "汽车服务;加油站;中国石化", "Prov": "北京市", "City": "北京市", "Address": "松树峪村", "Operator": "中国石化" }, "geometry": { "type": "Point", "coordinates": [ 117.148891, 40.555852 ] } },
{ "type": "Feature", "properties": { "Name": "中国石化腾达加油站", "Lon_Lat": "116.610989,39.849269", "Longitude": 116.610989, "Latitude": 39.849269, "Gdtype": "汽车服务;加油站;中国石化", "Prov": "北京市", "City": "北京市", "Address": "台湖镇口子村临3号", "Operator": "中国石化" }, "geometry": { "type": "Point", "coordinates": [ 116.610989, 39.849269 ] } },
{ "type": "Feature", "properties": { "Name": "中国石化齐万方加油站", "Lon_Lat": "116.332338,39.704162", "Longitude": 116.332338, "Latitude": 39.704162, "Gdtype": "汽车服务;加油站;中国石化", "Prov": "北京市", "City": "北京市", "Address": "黄村矿业路6号", "Operator": "中国石化" }, "geometry": { "type": "Point", "coordinates": [ 116.332338, 39.704162 ] } },
{ "type": "Feature", "properties": { "Name": "中国石化奥运加油站", "Lon_Lat": "116.558021,40.089584", "Longitude": 116.558021, "Latitude": 40.089584, "Gdtype": "汽车服务;加油站;中国石化", "Prov": "北京市", "City": "北京市", "Address": "空港B区喇苏营西侧富亿通旁边", "Operator": "中国石化" }, "geometry": { "type": "Point", "coordinates": [ 116.558021, 40.089584 ] } },
{ "type": "Feature", "properties": { "Name": "中国石化兴礼洼加油站", "Lon_Lat": "116.063476,39.597791", "Longitude": 116.063476, "Latitude": 39.597791, "Gdtype": "汽车服务;加油站;中国石化", "Prov": "北京市", "City": "北京市", "Address": "琉璃河地区兴礼村", "Operator": "中国石化" }, "geometry": { "type": "Point", "coordinates": [ 116.063476, 39.597791 ] } },
{ "type": "Feature", "properties": { "Name": "中国石化靳家堡加油站", "Lon_Lat": "115.963035,40.52084", "Longitude": 115.963035, "Latitude": 40.52084, "Gdtype": "汽车服务;加油站;中国石化", "Prov": "北京市", "City": "北京市", "Address": "京银路附近", "Operator": "中国石化" }, "geometry": { "type": "Point", "coordinates": [ 115.963035, 40.52084 ] } },
{ "type": "Feature", "properties": { "Name": "中国石化宛丰加油站", "Lon_Lat": "116.207901,39.845091", "Longitude": 116.207901, "Latitude": 39.845091, "Gdtype": "汽车服务;加油站;中国石化", "Prov": "北京市", "City": "北京市", "Address": "卢沟桥桥西街159号", "Operator": "中国石化" }, "geometry": { "type": "Point", "coordinates": [ 116.207901, 39.845091 ] } },
{ "type": "Feature", "properties": { "Name": "中国石化崇文门加油站", "Lon_Lat": "116.421177,39.900272", "Longitude": 116.421177, "Latitude": 39.900272, "Gdtype": "汽车服务;加油站;中国石化", "Prov": "北京市", "City": "北京市", "Address": "崇文门东大街甲22号", "Operator": "中国石化" }, "geometry": { "type": "Point", "coordinates": [ 116.421177, 39.900272 ] } },
{ "type": "Feature", "properties": { "Name": "中国石化燕东加油站", "Lon_Lat": "116.196283,39.711671", "Longitude": 116.196283, "Latitude": 39.711671, "Gdtype": "汽车服务;加油站;中国石化", "Prov": "北京市", "City": "北京市", "Address": "长阳镇葫芦垡村西", "Operator": "中国石化" }, "geometry": { "type": "Point", "coordinates": [ 116.196283, 39.711671 ] } },
{ "type": "Feature", "properties": { "Name": "中国石化加油站", "Lon_Lat": "116.346533,39.857003", "Longitude": 116.346533, "Latitude": 39.857003, "Gdtype": "汽车服务;加油站;中国石化", "Prov": "北京市", "City": "北京市", "Address": [ ], "Operator": "中国石化" }, "geometry": { "type": "Point", "coordinates": [ 116.346533, 39.857003 ] } },
{ "type": "Feature", "properties": { "Name": "中国石化延柏加油站", "Lon_Lat": "116.079107,40.528172", "Longitude": 116.079107, "Latitude": 40.528172, "Gdtype": "汽车服务;加油站;中国石化", "Prov": "北京市", "City": "北京市", "Address": "大柏老村", "Operator": "中国石化" }, "geometry": { "type": "Point", "coordinates": [ 116.079107, 40.528172 ] } },
{ "type": "Feature", "properties": { "Name": "中国石化大山子加油站", "Lon_Lat": "116.489179,39.978936", "Longitude": 116.489179, "Latitude": 39.978936, "Gdtype": "汽车服务;加油站;中国石化", "Prov": "北京市", "City": "北京市", "Address": "酒仙桥路13号", "Operator": "中国石化" }, "geometry": { "type": "Point", "coordinates": [ 116.489179, 39.978936 ] } },
{ "type": "Feature", "properties": { "Name": "中国石化巩华加油站", "Lon_Lat": "116.244993,40.121829", "Longitude": 116.244993, "Latitude": 40.121829, "Gdtype": "汽车服务;加油站;中国石化", "Prov": "北京市", "City": "北京市", "Address": "沙阳路沙河西路北50米", "Operator": "中国石化" }, "geometry": { "type": "Point", "coordinates": [ 116.244993, 40.121829 ] } },
{ "type": "Feature", "properties": { "Name": "中国石化龙禹加油站(密云区水政监察大队西)", "Lon_Lat": "116.832254,40.346394", "Longitude": 116.832254, "Latitude": 40.346394, "Gdtype": "汽车服务;加油站;中国石化", "Prov": "北京市", "City": "北京市", "Address": "寨镇潮白河大桥西侧", "Operator": "中国石化" }, "geometry": { "type": "Point", "coordinates": [ 116.832254, 40.346394 ] } },
{ "type": "Feature", "properties": { "Name": "中国石化加油站(暂停营业)", "Lon_Lat": "116.115348,39.651624", "Longitude": 116.115348, "Latitude": 39.651624, "Gdtype": "汽车服务;加油站;中国石化", "Prov": "北京市", "City": "北京市", "Address": "005县道,窦店镇房窑路与紫码路交汇处向北路东(交道中心家园北)", "Operator": "中国石化" }, "geometry": { "type": "Point", "coordinates": [ 116.115348, 39.651624 ] } },
{ "type": "Feature", "properties": { "Name": "中国石化沙坨加油站", "Lon_Lat": "116.413899,40.207197", "Longitude": 116.413899, "Latitude": 40.207197, "Gdtype": "汽车服务;加油站;中国石化", "Prov": "北京市", "City": "北京市", "Address": "沙坨村西", "Operator": "中国石化" }, "geometry": { "type": "Point", "coordinates": [ 116.413899, 40.207197 ] } },
{ "type": "Feature", "properties": { "Name": "中国石化三元七里渠加油站", "Lon_Lat": "116.305284,40.112258", "Longitude": 116.305284, "Latitude": 40.112258, "Gdtype": "汽车服务;加油站;中国石化", "Prov": "北京市", "City": "北京市", "Address": "定泗路与豆各庄路交汇处向东路北,冠芳园附近", "Operator": "中国石化" }, "geometry": { "type": "Point", "coordinates": [ 116.305284, 40.112258 ] } },
{ "type": "Feature", "properties": { "Name": "中国石化周家巷北加油站", "Lon_Lat": "116.135674,40.062541", "Longitude": 116.135674, "Latitude": 40.062541, "Gdtype": "汽车服务;加油站;中国石化", "Prov": "北京市", "City": "北京市", "Address": "周家巷村北六环主路16.5-17.5公里处北", "Operator": "中国石化" }, "geometry": { "type": "Point", "coordinates": [ 116.135674, 40.062541 ] } },
{ "type": "Feature", "properties": { "Name": "中国石化通州副中心加油站(不对外开放)", "Lon_Lat": "116.714008,39.906854", "Longitude": 116.714008, "Latitude": 39.906854, "Gdtype": "汽车服务;加油站;中国石化", "Prov": "北京市", "City": "北京市", "Address": "宏安街与涌翠西路交叉口", "Operator": "中国石化" }, "geometry": { "type": "Point", "coordinates": [ 116.714008, 39.906854 ] } },
{ "type": "Feature", "properties": { "Name": "中国石化加油站", "Lon_Lat": "116.423601,39.991124", "Longitude": 116.423601, "Latitude": 39.991124, "Gdtype": "汽车服务;加油站;中国石化", "Prov": "北京市", "City": "北京市", "Address": "北四环东路101号", "Operator": "中国石化" }, "geometry": { "type": "Point", "coordinates": [ 116.423601, 39.991124 ] } },
{ "type": "Feature", "properties": { "Name": "中国石化石美泉加油站", "Lon_Lat": "116.248447,39.897597", "Longitude": 116.248447, "Latitude": 39.897597, "Gdtype": "汽车服务;加油站;中国石化", "Prov": "北京市", "City": "北京市", "Address": "玉泉路南石槽", "Operator": "中国石化" }, "geometry": { "type": "Point", "coordinates": [ 116.248447, 39.897597 ] } },
{ "type": "Feature", "properties": { "Name": "中国石化龙禹玉泉加油站", "Lon_Lat": "116.257155,39.973896", "Longitude": 116.257155, "Latitude": 39.973896, "Gdtype": "汽车服务;加油站;中国石化", "Prov": "北京市", "City": "北京市", "Address": "四季青镇闵庄路3号(麦当劳得来速旁)", "Operator": "中国石化" }, "geometry": { "type": "Point", "coordinates": [ 116.257155, 39.973896 ] } },
{ "type": "Feature", "properties": { "Name": "中国石化白家庄加油站", "Lon_Lat": "116.464808,39.928678", "Longitude": 116.464808, "Latitude": 39.928678, "Gdtype": "汽车服务;加油站;中国石化", "Prov": "北京市", "City": "北京市", "Address": "白家庄东里甲23号", "Operator": "中国石化" }, "geometry": { "type": "Point", "coordinates": [ 116.464808, 39.928678 ] } },
{ "type": "Feature", "properties": { "Name": "中国石化古北口加油站", "Lon_Lat": "117.162586,40.694523", "Longitude": 117.162586, "Latitude": 40.694523, "Gdtype": "汽车服务;加油站;中国石化", "Prov": "北京市", "City": "北京市", "Address": "古北口镇政府西侧100米处", "Operator": "中国石化" }, "geometry": { "type": "Point", "coordinates": [ 117.162586, 40.694523 ] } },
{ "type": "Feature", "properties": { "Name": "中国石化汤顺加油站", "Lon_Lat": "116.375763,40.174130", "Longitude": 116.375763, "Latitude": 40.17413, "Gdtype": "汽车服务;加油站;加油站", "Prov": "北京市", "City": "北京市", "Address": "小汤山镇大汤山村", "Operator": "中国石化" }, "geometry": { "type": "Point", "coordinates": [ 116.375763, 40.17413 ] } },
{ "type": "Feature", "properties": { "Name": "中国石化益特诺加油站", "Lon_Lat": "116.53545,39.82383", "Longitude": 116.53545, "Latitude": 39.82383, "Gdtype": "汽车服务;加油站;中国石化", "Prov": "北京市", "City": "北京市", "Address": "亦庄镇渠羊路北", "Operator": "中国石化" }, "geometry": { "type": "Point", "coordinates": [ 116.53545, 39.82383 ] } },
{ "type": "Feature", "properties": { "Name": "中国石化加油站", "Lon_Lat": "116.462103,39.792829", "Longitude": 116.462103, "Latitude": 39.792829, "Gdtype": "汽车服务;加油站;中国石化", "Prov": "北京市", "City": "北京市", "Address": "Ｓ５０南五环与加油站交叉口东北约180米", "Operator": "中国石化" }, "geometry": { "type": "Point", "coordinates": [ 116.462103, 39.792829 ] } },
{ "type": "Feature", "properties": { "Name": "中国石化西关加油站", "Lon_Lat": "116.218213,40.216754", "Longitude": 116.218213, "Latitude": 40.216754, "Gdtype": "汽车服务;加油站;中国石化", "Prov": "北京市", "City": "北京市", "Address": "西关槐树巷南", "Operator": "中国石化" }, "geometry": { "type": "Point", "coordinates": [ 116.218213, 40.216754 ] } },
{ "type": "Feature", "properties": { "Name": "中国石化大灰厂加油站", "Lon_Lat": "116.1187,39.845485", "Longitude": 116.1187, "Latitude": 39.845485, "Gdtype": "汽车服务;加油站;中国石化", "Prov": "北京市", "City": "北京市", "Address": "大灰厂村南", "Operator": "中国石化" }, "geometry": { "type": "Point", "coordinates": [ 116.1187, 39.845485 ] } },
{ "type": "Feature", "properties": { "Name": "中国石化欣怡乐加油站", "Lon_Lat": "116.632532,39.891717", "Longitude": 116.632532, "Latitude": 39.891717, "Gdtype": "汽车服务;加油站;中国石化", "Prov": "北京市", "City": "北京市", "Address": "李老庄村", "Operator": "中国石化" }, "geometry": { "type": "Point", "coordinates": [ 116.632532, 39.891717 ] } },
{ "type": "Feature", "properties": { "Name": "中国石化陵石加油站(暂停营业)", "Lon_Lat": "116.213506,40.243833", "Longitude": 116.213506, "Latitude": 40.243833, "Gdtype": "汽车服务;加油站;中国石化", "Prov": "北京市", "City": "北京市", "Address": "涧头村东", "Operator": "中国石化" }, "geometry": { "type": "Point", "coordinates": [ 116.213506, 40.243833 ] } },
{ "type": "Feature", "properties": { "Name": "中国石化城市联建加油站", "Lon_Lat": "116.554072,39.868264", "Longitude": 116.554072, "Latitude": 39.868264, "Gdtype": "汽车服务;加油站;中国石化", "Prov": "北京市", "City": "北京市", "Address": "王四营乡道口村白鹿司路南", "Operator": "中国石化" }, "geometry": { "type": "Point", "coordinates": [ 116.554072, 39.868264 ] } },
{ "type": "Feature", "properties": { "Name": "中国石化幽燕加油站", "Lon_Lat": "116.056588,39.627355", "Longitude": 116.056588, "Latitude": 39.627355, "Gdtype": "汽车服务;加油站;中国石化", "Prov": "北京市", "City": "北京市", "Address": "琉璃河地区董家林村", "Operator": "中国石化" }, "geometry": { "type": "Point", "coordinates": [ 116.056588, 39.627355 ] } },
{ "type": "Feature", "properties": { "Name": "中国石化观音堂东加油站", "Lon_Lat": "116.548647,39.887574", "Longitude": 116.548647, "Latitude": 39.887574, "Gdtype": "汽车服务;加油站;中国石化", "Prov": "北京市", "City": "北京市", "Address": "南花园村五环路,观音堂段东侧", "Operator": "中国石化" }, "geometry": { "type": "Point", "coordinates": [ 116.548647, 39.887574 ] } },
{ "type": "Feature", "properties": { "Name": "中国石化融兴街加油站", "Lon_Lat": "116.500395,39.717775", "Longitude": 116.500395, "Latitude": 39.717775, "Gdtype": "汽车服务;加油站;中国石化", "Prov": "北京市", "City": "北京市", "Address": "经济技术开发区融兴南二街19号院1号", "Operator": "中国石化" }, "geometry": { "type": "Point", "coordinates": [ 116.500395, 39.717775 ] } },
{ "type": "Feature", "properties": { "Name": "中国石化加油站", "Lon_Lat": "116.645403,40.237539", "Longitude": 116.645403, "Latitude": 40.237539, "Gdtype": "汽车服务;加油站;中国石化", "Prov": "北京市", "City": "北京市", "Address": "牛山地区富各庄村东", "Operator": "中国石化" }, "geometry": { "type": "Point", "coordinates": [ 116.645403, 40.237539 ] } },
{ "type": "Feature", "properties": { "Name": "中国石化觅康加油站", "Lon_Lat": "116.88284,39.71913", "Longitude": 116.88284, "Latitude": 39.71913, "Gdtype": "汽车服务;加油站;加油站", "Prov": "北京市", "City": "北京市", "Address": "漷县镇觅子店村北口", "Operator": "中国石化" }, "geometry": { "type": "Point", "coordinates": [ 116.88284, 39.71913 ] } },
{ "type": "Feature", "properties": { "Name": "中国石化南环加油站(南华大街)", "Lon_Lat": "116.637081,40.308984", "Longitude": 116.637081, "Latitude": 40.308984, "Gdtype": "汽车服务;加油站;中国石化", "Prov": "北京市", "City": "北京市", "Address": "南华大街3号", "Operator": "中国石化" }, "geometry": { "type": "Point", "coordinates": [ 116.637081, 40.308984 ] } },
{ "type": "Feature", "properties": { "Name": "中国石化平谷平安加油站", "Lon_Lat": "117.164877,40.125178", "Longitude": 117.164877, "Latitude": 40.125178, "Gdtype": "汽车服务;加油站;中国石化", "Prov": "北京市", "City": "北京市", "Address": "夏各庄镇安固村北", "Operator": "中国石化" }, "geometry": { "type": "Point", "coordinates": [ 117.164877, 40.125178 ] } },
{ "type": "Feature", "properties": { "Name": "中国石化燕北加油站(暂停营业)", "Lon_Lat": "116.056467,40.425878", "Longitude": 116.056467, "Latitude": 40.425878, "Gdtype": "汽车服务;加油站;中国石化", "Prov": "北京市", "City": "北京市", "Address": "西二道河乡西红山村北", "Operator": "中国石化" }, "geometry": { "type": "Point", "coordinates": [ 116.056467, 40.425878 ] } },
{ "type": "Feature", "properties": { "Name": "中国石化加油站(暂停营业)", "Lon_Lat": "116.203219,39.752249", "Longitude": 116.203219, "Latitude": 39.752249, "Gdtype": "汽车服务;加油站;中国石化", "Prov": "北京市", "City": "北京市", "Address": "长阳镇长阳路北侧", "Operator": "中国石化" }, "geometry": { "type": "Point", "coordinates": [ 116.203219, 39.752249 ] } },
{ "type": "Feature", "properties": { "Name": "中国石化南辛庄加油站", "Lon_Lat": "116.45197,39.832007", "Longitude": 116.45197, "Latitude": 39.832007, "Gdtype": "汽车服务;加油站;中国石化", "Prov": "北京市", "City": "北京市", "Address": "南四环中路72号院1号", "Operator": "中国石化" }, "geometry": { "type": "Point", "coordinates": [ 116.45197, 39.832007 ] } },
{ "type": "Feature", "properties": { "Name": "中国石化海淀京铁加油站", "Lon_Lat": "116.332547,39.99065", "Longitude": 116.332547, "Latitude": 39.99065, "Gdtype": "汽车服务;加油站;中国石化", "Prov": "北京市", "City": "北京市", "Address": "中关村东路3号", "Operator": "中国石化" }, "geometry": { "type": "Point", "coordinates": [ 116.332547, 39.99065 ] } },
{ "type": "Feature", "properties": { "Name": "中国石化加油站", "Lon_Lat": "116.269003,40.128934", "Longitude": 116.269003, "Latitude": 40.128934, "Gdtype": "汽车服务;加油站;中国石化", "Prov": "北京市", "City": "北京市", "Address": "沙河镇巩华城大街67号", "Operator": "中国石化" }, "geometry": { "type": "Point", "coordinates": [ 116.269003, 40.128934 ] } },
{ "type": "Feature", "properties": { "Name": "中国石化新兴加油站", "Lon_Lat": "115.929281,39.644096", "Longitude": 115.929281, "Latitude": 39.644096, "Gdtype": "汽车服务;加油站;中国石化", "Prov": "北京市", "City": "北京市", "Address": "周口店镇房易路南韩继村路段路东", "Operator": "中国石化" }, "geometry": { "type": "Point", "coordinates": [ 115.929281, 39.644096 ] } },
{ "type": "Feature", "properties": { "Name": "中国石化永乐店服务区加油站", "Lon_Lat": "116.810044,39.643390", "Longitude": 116.810044, "Latitude": 39.64339, "Gdtype": "汽车服务;加油站;中国石化", "Prov": "北京市", "City": "北京市", "Address": "京津高速附近", "Operator": "中国石化" }, "geometry": { "type": "Point", "coordinates": [ 116.810044, 39.64339 ] } },
{ "type": "Feature", "properties": { "Name": "中国石化华山中原加油站", "Lon_Lat": "117.075898,40.283274", "Longitude": 117.075898, "Latitude": 40.283274, "Gdtype": "汽车服务;加油站;中国石化", "Prov": "北京市", "City": "北京市", "Address": "大华山村", "Operator": "中国石化" }, "geometry": { "type": "Point", "coordinates": [ 117.075898, 40.283274 ] } },
{ "type": "Feature", "properties": { "Name": "中国石化昌平北方加油站(满白路)", "Lon_Lat": "116.232659,40.183975", "Longitude": 116.232659, "Latitude": 40.183975, "Gdtype": "汽车服务;加油站;中国石化", "Prov": "北京市", "City": "北京市", "Address": [ ], "Operator": "中国石化" }, "geometry": { "type": "Point", "coordinates": [ 116.232659, 40.183975 ] } },
{ "type": "Feature", "properties": { "Name": "中国石化迪生加油站", "Lon_Lat": "116.635638,40.264462", "Longitude": 116.635638, "Latitude": 40.264462, "Gdtype": "汽车服务;加油站;中国石化", "Prov": "北京市", "City": "北京市", "Address": "庙城镇赵各庄路口西侧", "Operator": "中国石化" }, "geometry": { "type": "Point", "coordinates": [ 116.635638, 40.264462 ] } },
{ "type": "Feature", "properties": { "Name": "中国石化东风街加油站", "Lon_Lat": "115.965955,39.759535", "Longitude": 115.965955, "Latitude": 39.759535, "Gdtype": "汽车服务;加油站;中国石化", "Prov": "北京市", "City": "北京市", "Address": "燕山双泉路1号", "Operator": "中国石化" }, "geometry": { "type": "Point", "coordinates": [ 115.965955, 39.759535 ] } },
{ "type": "Feature", "properties": { "Name": "中国石化华京顺加油站", "Lon_Lat": "116.620862,40.118078", "Longitude": 116.620862, "Latitude": 40.118078, "Gdtype": "汽车服务;加油站;中国石化", "Prov": "北京市", "City": "北京市", "Address": "南法信顺平路望泉桥西侧路北100米", "Operator": "中国石化" }, "geometry": { "type": "Point", "coordinates": [ 116.620862, 40.118078 ] } },
{ "type": "Feature", "properties": { "Name": "中国石化长操加油站", "Lon_Lat": "115.786133,39.804034", "Longitude": 115.786133, "Latitude": 39.804034, "Gdtype": "汽车服务;加油站;中国石化", "Prov": "北京市", "City": "北京市", "Address": "京昆路与108国道复线交叉口东北100米", "Operator": "中国石化" }, "geometry": { "type": "Point", "coordinates": [ 115.786133, 39.804034 ] } },
{ "type": "Feature", "properties": { "Name": "中国石化百善南加油站", "Lon_Lat": "116.322381,40.174024", "Longitude": 116.322381, "Latitude": 40.174024, "Gdtype": "汽车服务;加油站;中国石化", "Prov": "北京市", "City": "北京市", "Address": "百善北六环主路175-176公里南侧", "Operator": "中国石化" }, "geometry": { "type": "Point", "coordinates": [ 116.322381, 40.174024 ] } },
{ "type": "Feature", "properties": { "Name": "中国石化太平中孚加油站", "Lon_Lat": "116.167963,39.722781", "Longitude": 116.167963, "Latitude": 39.722781, "Gdtype": "汽车服务;加油站;加油站", "Prov": "北京市", "City": "北京市", "Address": "良乡地区东羊庄村南", "Operator": "中国石化" }, "geometry": { "type": "Point", "coordinates": [ 116.167963, 39.722781 ] } },
{ "type": "Feature", "properties": { "Name": "中国石化太师屯服务区加油站", "Lon_Lat": "117.154760,40.560831", "Longitude": 117.15476, "Latitude": 40.560831, "Gdtype": "汽车服务;加油站;中国石化", "Prov": "北京市", "City": "北京市", "Address": "太师屯镇京承高速太师屯服务区内北侧", "Operator": "中国石化" }, "geometry": { "type": "Point", "coordinates": [ 117.15476, 40.560831 ] } },
{ "type": "Feature", "properties": { "Name": "中国石化永来顺加油站", "Lon_Lat": "116.155068,40.527413", "Longitude": 116.155068, "Latitude": 40.527413, "Gdtype": "汽车服务;加油站;中国石化", "Prov": "北京市", "City": "北京市", "Address": "西关村北", "Operator": "中国石化" }, "geometry": { "type": "Point", "coordinates": [ 116.155068, 40.527413 ] } },
{ "type": "Feature", "properties": { "Name": "中国石化展览路加油站", "Lon_Lat": "116.344462,39.927019", "Longitude": 116.344462, "Latitude": 39.927019, "Gdtype": "汽车服务;加油站;中国石化", "Prov": "北京市", "City": "北京市", "Address": "百万庄南口34号", "Operator": "中国石化" }, "geometry": { "type": "Point", "coordinates": [ 116.344462, 39.927019 ] } },
{ "type": "Feature", "properties": { "Name": "中国石化顺锦加油站", "Lon_Lat": "116.616602,40.15542", "Longitude": 116.616602, "Latitude": 40.15542, "Gdtype": "汽车服务;加油站;中国石化", "Prov": "北京市", "City": "北京市", "Address": "马坡地区衙门村", "Operator": "中国石化" }, "geometry": { "type": "Point", "coordinates": [ 116.616602, 40.15542 ] } },
{ "type": "Feature", "properties": { "Name": "中国石化密溪路加油站", "Lon_Lat": "116.840976,40.465939", "Longitude": 116.840976, "Latitude": 40.465939, "Gdtype": "汽车服务;加油站;中国石化", "Prov": "北京市", "City": "北京市", "Address": "溪翁庄村南", "Operator": "中国石化" }, "geometry": { "type": "Point", "coordinates": [ 116.840976, 40.465939 ] } },
{ "type": "Feature", "properties": { "Name": "中国石化高井加油站", "Lon_Lat": "116.538016,39.91571", "Longitude": 116.538016, "Latitude": 39.91571, "Gdtype": "汽车服务;加油站;中国石化", "Prov": "北京市", "City": "北京市", "Address": "朝阳路民航医院东侧700米", "Operator": "中国石化" }, "geometry": { "type": "Point", "coordinates": [ 116.538016, 39.91571 ] } },
{ "type": "Feature", "properties": { "Name": "中国石化和平里加油站", "Lon_Lat": "116.411728,39.959437", "Longitude": 116.411728, "Latitude": 39.959437, "Gdtype": "汽车服务;加油站;中国石化", "Prov": "北京市", "City": "北京市", "Address": "和平里北街23号", "Operator": "中国石化" }, "geometry": { "type": "Point", "coordinates": [ 116.411728, 39.959437 ] } },
{ "type": "Feature", "properties": { "Name": "中国石化姚家园加油站", "Lon_Lat": "116.494000,39.933561", "Longitude": 116.494, "Latitude": 39.933561, "Gdtype": "汽车服务;加油站;中国石化", "Prov": "北京市", "City": "北京市", "Address": "苇子坑100号", "Operator": "中国石化" }, "geometry": { "type": "Point", "coordinates": [ 116.494, 39.933561 ] } },
{ "type": "Feature", "properties": { "Name": "中国石化国普加油站", "Lon_Lat": "116.056542,39.705227", "Longitude": 116.056542, "Latitude": 39.705227, "Gdtype": "汽车服务;加油站;中国石化", "Prov": "北京市", "City": "北京市", "Address": "西坟村东", "Operator": "中国石化" }, "geometry": { "type": "Point", "coordinates": [ 116.056542, 39.705227 ] } },
{ "type": "Feature", "properties": { "Name": "中国石化加油站", "Lon_Lat": "116.799192,40.357171", "Longitude": 116.799192, "Latitude": 40.357171, "Gdtype": "汽车服务;加油站;中国石化", "Prov": "北京市", "City": "北京市", "Address": "十里堡镇", "Operator": "中国石化" }, "geometry": { "type": "Point", "coordinates": [ 116.799192, 40.357171 ] } },
{ "type": "Feature", "properties": { "Name": "中国石化燕云加油站", "Lon_Lat": "115.843725,39.594161", "Longitude": 115.843725, "Latitude": 39.594161, "Gdtype": "汽车服务;加油站;中国石化", "Prov": "北京市", "City": "北京市", "Address": "三座庵村", "Operator": "中国石化" }, "geometry": { "type": "Point", "coordinates": [ 115.843725, 39.594161 ] } },
{ "type": "Feature", "properties": { "Name": "中国石化建飞翔加油站", "Lon_Lat": "115.981893,39.656887", "Longitude": 115.981893, "Latitude": 39.656887, "Gdtype": "汽车服务;加油站;中国石化", "Prov": "北京市", "City": "北京市", "Address": "石楼镇北大桥西", "Operator": "中国石化" }, "geometry": { "type": "Point", "coordinates": [ 115.981893, 39.656887 ] } },
{ "type": "Feature", "properties": { "Name": "中国石化世博加油站", "Lon_Lat": "116.289343,40.148856", "Longitude": 116.289343, "Latitude": 40.148856, "Gdtype": "汽车服务;加油站;中国石化", "Prov": "北京市", "City": "北京市", "Address": "丰善村(沙河地铁站B2东口步行240米)", "Operator": "中国石化" }, "geometry": { "type": "Point", "coordinates": [ 116.289343, 40.148856 ] } },
{ "type": "Feature", "properties": { "Name": "中国石化劲松加油站", "Lon_Lat": "116.446802,39.878507", "Longitude": 116.446802, "Latitude": 39.878507, "Gdtype": "汽车服务;加油站;中国石化", "Prov": "北京市", "City": "北京市", "Address": "劲松七区725号临1号楼", "Operator": "中国石化" }, "geometry": { "type": "Point", "coordinates": [ 116.446802, 39.878507 ] } },
{ "type": "Feature", "properties": { "Name": "中国石化鑫溪凯旋北方加油站", "Lon_Lat": "116.849582,40.387234", "Longitude": 116.849582, "Latitude": 40.387234, "Gdtype": "汽车服务;加油站;中国石化", "Prov": "北京市", "City": "北京市", "Address": "密溪路东侧", "Operator": "中国石化" }, "geometry": { "type": "Point", "coordinates": [ 116.849582, 40.387234 ] } },
{ "type": "Feature", "properties": { "Name": "中国石化燕山路加油站(自助站)", "Lon_Lat": "116.028627,39.721800", "Longitude": 116.028627, "Latitude": 39.7218, "Gdtype": "汽车服务;加油站;中国石化", "Prov": "北京市", "City": "北京市", "Address": [ ], "Operator": "中国石化" }, "geometry": { "type": "Point", "coordinates": [ 116.028627, 39.7218 ] } },
{ "type": "Feature", "properties": { "Name": "中国石化京航加油站", "Lon_Lat": "116.408994,40.177866", "Longitude": 116.408994, "Latitude": 40.177866, "Gdtype": "汽车服务;加油站;中国石化", "Prov": "北京市", "City": "北京市", "Address": "大柳树村东", "Operator": "中国石化" }, "geometry": { "type": "Point", "coordinates": [ 116.408994, 40.177866 ] } },
{ "type": "Feature", "properties": { "Name": "中国石化奥运加油站", "Lon_Lat": "116.557845,40.090162", "Longitude": 116.557845, "Latitude": 40.090162, "Gdtype": "汽车服务;加油站;中国石化", "Prov": "北京市", "City": "北京市", "Address": "京密路西侧", "Operator": "中国石化" }, "geometry": { "type": "Point", "coordinates": [ 116.557845, 40.090162 ] } },
{ "type": "Feature", "properties": { "Name": "中国石化长子营加油站", "Lon_Lat": "116.592616,39.684221", "Longitude": 116.592616, "Latitude": 39.684221, "Gdtype": "汽车服务;加油站;中国石化", "Prov": "北京市", "City": "北京市", "Address": "北京市大兴区长子营镇三八桥北", "Operator": "中国石化" }, "geometry": { "type": "Point", "coordinates": [ 116.592616, 39.684221 ] } },
{ "type": "Feature", "properties": { "Name": "中国石化熊畅加油站", "Lon_Lat": "117.13302,40.286635", "Longitude": 117.13302, "Latitude": 40.286635, "Gdtype": "汽车服务;加油站;中国石化", "Prov": "北京市", "City": "北京市", "Address": "熊儿寨乡熊南路与平程路交汇处路东", "Operator": "中国石化" }, "geometry": { "type": "Point", "coordinates": [ 117.13302, 40.286635 ] } },
{ "type": "Feature", "properties": { "Name": "中国石化八里桥加油站", "Lon_Lat": "116.624924,39.905971", "Longitude": 116.624924, "Latitude": 39.905971, "Gdtype": "汽车服务;加油站;中国石化", "Prov": "北京市", "City": "北京市", "Address": "八里桥南街8号", "Operator": "中国石化" }, "geometry": { "type": "Point", "coordinates": [ 116.624924, 39.905971 ] } },
{ "type": "Feature", "properties": { "Name": "中国石化九龙加油站", "Lon_Lat": "116.712522,40.099761", "Longitude": 116.712522, "Latitude": 40.099761, "Gdtype": "汽车服务;加油站;中国石化", "Prov": "北京市", "City": "北京市", "Address": "河南村东", "Operator": "中国石化" }, "geometry": { "type": "Point", "coordinates": [ 116.712522, 40.099761 ] } },
{ "type": "Feature", "properties": { "Name": "中国石化分钟寺加油站", "Lon_Lat": "116.447014,39.859485", "Longitude": 116.447014, "Latitude": 39.859485, "Gdtype": "汽车服务;加油站;中国石化", "Prov": "北京市", "City": "北京市", "Address": "南三环东路13号", "Operator": "中国石化" }, "geometry": { "type": "Point", "coordinates": [ 116.447014, 39.859485 ] } },
{ "type": "Feature", "properties": { "Name": "中国石化京实永发加油站", "Lon_Lat": "116.418064,40.003367", "Longitude": 116.418064, "Latitude": 40.003367, "Gdtype": "汽车服务;加油站;中国石化", "Prov": "北京市", "City": "北京市", "Address": "安外大屯(北郊灌瓶厂)西南侧", "Operator": "中国石化" }, "geometry": { "type": "Point", "coordinates": [ 116.418064, 40.003367 ] } },
{ "type": "Feature", "properties": { "Name": "中国石化三间房东路加油站", "Lon_Lat": "116.577678,39.91758", "Longitude": 116.577678, "Latitude": 39.91758, "Gdtype": "汽车服务;加油站;中国石化", "Prov": "北京市", "City": "北京市", "Address": "三间房东路5号", "Operator": "中国石化" }, "geometry": { "type": "Point", "coordinates": [ 116.577678, 39.91758 ] } },
{ "type": "Feature", "properties": { "Name": "中国石化玉泉加油站(暂停营业)", "Lon_Lat": "116.090837,39.976574", "Longitude": 116.090837, "Latitude": 39.976574, "Gdtype": "汽车服务;加油站;中国石化", "Prov": "北京市", "City": "北京市", "Address": "龙泉务村南加油站", "Operator": "中国石化" }, "geometry": { "type": "Point", "coordinates": [ 116.090837, 39.976574 ] } },
{ "type": "Feature", "properties": { "Name": "中国石化中怀加油站", "Lon_Lat": "116.716735,40.32931", "Longitude": 116.716735, "Latitude": 40.32931, "Gdtype": "汽车服务;加油站;中国石化", "Prov": "北京市", "City": "北京市", "Address": "驸马庄村", "Operator": "中国石化" }, "geometry": { "type": "Point", "coordinates": [ 116.716735, 40.32931 ] } },
{ "type": "Feature", "properties": { "Name": "中国石化京福加油站", "Lon_Lat": "116.071077,39.723775", "Longitude": 116.071077, "Latitude": 39.723775, "Gdtype": "汽车服务;加油站;中国石化", "Prov": "北京市", "City": "北京市", "Address": "阎村镇小董村道口", "Operator": "中国石化" }, "geometry": { "type": "Point", "coordinates": [ 116.071077, 39.723775 ] } },
{ "type": "Feature", "properties": { "Name": "中国石化亚吉加油站", "Lon_Lat": "116.706478,39.88867", "Longitude": 116.706478, "Latitude": 39.88867, "Gdtype": "汽车服务;加油站;加油站", "Prov": "北京市", "City": "北京市", "Address": "永顺镇小圣庙村北", "Operator": "中国石化" }, "geometry": { "type": "Point", "coordinates": [ 116.706478, 39.88867 ] } },
{ "type": "Feature", "properties": { "Name": "中国石化郁花园兴华街加油站", "Lon_Lat": "116.331162,39.775657", "Longitude": 116.331162, "Latitude": 39.775657, "Gdtype": "汽车服务;加油站;中国石化", "Prov": "北京市", "City": "北京市", "Address": "黄村镇郁花园二里小区西北200米", "Operator": "中国石化" }, "geometry": { "type": "Point", "coordinates": [ 116.331162, 39.775657 ] } },
{ "type": "Feature", "properties": { "Name": "中国石化鑫宝山加油站", "Lon_Lat": "116.579154,40.691923", "Longitude": 116.579154, "Latitude": 40.691923, "Gdtype": "汽车服务;加油站;加油站", "Prov": "北京市", "City": "北京市", "Address": "宝山寺村", "Operator": "中国石化" }, "geometry": { "type": "Point", "coordinates": [ 116.579154, 40.691923 ] } },
{ "type": "Feature", "properties": { "Name": "中国石化东鲁加油站(暂停营业)", "Lon_Lat": "116.598616,39.838224", "Longitude": 116.598616, "Latitude": 39.838224, "Gdtype": "汽车服务;加油站;中国石化", "Prov": "北京市", "City": "北京市", "Address": "黑庄户乡大鲁店1队", "Operator": "中国石化" }, "geometry": { "type": "Point", "coordinates": [ 116.598616, 39.838224 ] } },
{ "type": "Feature", "properties": { "Name": "中国石化加油站", "Lon_Lat": "115.935179,39.654502", "Longitude": 115.935179, "Latitude": 39.654502, "Gdtype": "汽车服务;加油站;中国石化", "Prov": "北京市", "City": "北京市", "Address": "周口店地区新街村", "Operator": "中国石化" }, "geometry": { "type": "Point", "coordinates": [ 115.935179, 39.654502 ] } },
{ "type": "Feature", "properties": { "Name": "中国石化隆泉加油站", "Lon_Lat": "116.154681,39.643511", "Longitude": 116.154681, "Latitude": 39.643511, "Gdtype": "汽车服务;加油站;中国石化", "Prov": "北京市", "City": "北京市", "Address": "兴龙庄村", "Operator": "中国石化" }, "geometry": { "type": "Point", "coordinates": [ 116.154681, 39.643511 ] } },
{ "type": "Feature", "properties": { "Name": "中国石化十里居加油站(暂停营业)", "Lon_Lat": "116.489104,39.959107", "Longitude": 116.489104, "Latitude": 39.959107, "Gdtype": "汽车服务;加油站;中国石化", "Prov": "北京市", "City": "北京市", "Address": "亮马桥路9号院北京宝信行对面", "Operator": "中国石化" }, "geometry": { "type": "Point", "coordinates": [ 116.489104, 39.959107 ] } },
{ "type": "Feature", "properties": { "Name": "中国石化加油站(龙庆南路)", "Lon_Lat": "116.000638,40.462845", "Longitude": 116.000638, "Latitude": 40.462845, "Gdtype": "汽车服务;加油站;中国石化", "Prov": "北京市", "City": "北京市", "Address": [ ], "Operator": "中国石化" }, "geometry": { "type": "Point", "coordinates": [ 116.000638, 40.462845 ] } },
{ "type": "Feature", "properties": { "Name": "中国石化台津加油站(暂停营业)", "Lon_Lat": "116.673846,39.880693", "Longitude": 116.673846, "Latitude": 39.880693, "Gdtype": "汽车服务;加油站;中国石化", "Prov": "北京市", "City": "北京市", "Address": "京津公路东侧(梨园镇小街部队路口)", "Operator": "中国石化" }, "geometry": { "type": "Point", "coordinates": [ 116.673846, 39.880693 ] } },
{ "type": "Feature", "properties": { "Name": "中国石化台京加油站(暂停营业)", "Lon_Lat": "117.067933,40.146155", "Longitude": 117.067933, "Latitude": 40.146155, "Gdtype": "汽车服务;加油站;中国石化", "Prov": "北京市", "City": "北京市", "Address": "大兴庄镇鲁各庄村西路北", "Operator": "中国石化" }, "geometry": { "type": "Point", "coordinates": [ 117.067933, 40.146155 ] } },
{ "type": "Feature", "properties": { "Name": "中国石化加油站", "Lon_Lat": "116.250055,40.226278", "Longitude": 116.250055, "Latitude": 40.226278, "Gdtype": "汽车服务;加油站;中国石化", "Prov": "北京市", "City": "北京市", "Address": "松园路", "Operator": "中国石化" }, "geometry": { "type": "Point", "coordinates": [ 116.250055, 40.226278 ] } },
{ "type": "Feature", "properties": { "Name": "中国石化加油站(暂停营业)", "Lon_Lat": "115.988046,39.725819", "Longitude": 115.988046, "Latitude": 39.725819, "Gdtype": "汽车服务;加油站;中国石化", "Prov": "北京市", "City": "北京市", "Address": "大件路9号", "Operator": "中国石化" }, "geometry": { "type": "Point", "coordinates": [ 115.988046, 39.725819 ] } },
{ "type": "Feature", "properties": { "Name": "中国石化东方旺加油站", "Lon_Lat": "116.645924,40.313947", "Longitude": 116.645924, "Latitude": 40.313947, "Gdtype": "汽车服务;加油站;中国石化", "Prov": "北京市", "City": "北京市", "Address": "开放路6号(怀柔区火车站路南)", "Operator": "中国石化" }, "geometry": { "type": "Point", "coordinates": [ 116.645924, 40.313947 ] } },
{ "type": "Feature", "properties": { "Name": "中国石化鑫鑫旺园加油站", "Lon_Lat": "115.987392,40.436658", "Longitude": 115.987392, "Latitude": 40.436658, "Gdtype": "汽车服务;加油站;中国石化", "Prov": "北京市", "City": "北京市", "Address": "延庆镇司家营村南煤厂路", "Operator": "中国石化" }, "geometry": { "type": "Point", "coordinates": [ 115.987392, 40.436658 ] } },
{ "type": "Feature", "properties": { "Name": "中国石化北京龙禹通安源加油站", "Lon_Lat": "116.786878,39.752437", "Longitude": 116.786878, "Latitude": 39.752437, "Gdtype": "汽车服务;加油站;中国石化", "Prov": "北京市", "City": "北京市", "Address": "漷小路附近", "Operator": "中国石化" }, "geometry": { "type": "Point", "coordinates": [ 116.786878, 39.752437 ] } },
{ "type": "Feature", "properties": { "Name": "中国石化华鑫加油站", "Lon_Lat": "116.596025,40.036106", "Longitude": 116.596025, "Latitude": 40.036106, "Gdtype": "汽车服务;加油站;中国石化", "Prov": "北京市", "City": "北京市", "Address": "天竺地区天竺村东南", "Operator": "中国石化" }, "geometry": { "type": "Point", "coordinates": [ 116.596025, 40.036106 ] } },
{ "type": "Feature", "properties": { "Name": "中国石化华电加油站", "Lon_Lat": "116.528661,39.743097", "Longitude": 116.528661, "Latitude": 39.743097, "Gdtype": "汽车服务;加油站;中国石化", "Prov": "北京市", "City": "北京市", "Address": "马驹桥镇大白村西", "Operator": "中国石化" }, "geometry": { "type": "Point", "coordinates": [ 116.528661, 39.743097 ] } },
{ "type": "Feature", "properties": { "Name": "中国石化东大桥加油站", "Lon_Lat": "116.453193,39.921796", "Longitude": 116.453193, "Latitude": 39.921796, "Gdtype": "汽车服务;加油站;中国石化", "Prov": "北京市", "City": "北京市", "Address": "朝外大街关东店33号(东大桥地铁站D2西南口步行190米)", "Operator": "中国石化" }, "geometry": { "type": "Point", "coordinates": [ 116.453193, 39.921796 ] } },
{ "type": "Feature", "properties": { "Name": "中石化源兴园加油站", "Lon_Lat": "116.645165,40.329434", "Longitude": 116.645165, "Latitude": 40.329434, "Gdtype": "汽车服务;加油站;中国石化", "Prov": "北京市", "City": "北京市", "Address": "泉河园二区甲2号", "Operator": "中国石化" }, "geometry": { "type": "Point", "coordinates": [ 116.645165, 40.329434 ] } },
{ "type": "Feature", "properties": { "Name": "中国石化海洪加油站", "Lon_Lat": "116.606899,40.144447", "Longitude": 116.606899, "Latitude": 40.144447, "Gdtype": "汽车服务;加油站;中国石化", "Prov": "北京市", "City": "北京市", "Address": "南法信地区西海洪村西", "Operator": "中国石化" }, "geometry": { "type": "Point", "coordinates": [ 116.606899, 40.144447 ] } },
{ "type": "Feature", "properties": { "Name": "中国石化八大处加油站", "Lon_Lat": "116.213524,39.93309", "Longitude": 116.213524, "Latitude": 39.93309, "Gdtype": "汽车服务;加油站;中国石化", "Prov": "北京市", "City": "北京市", "Address": "西黄村东口", "Operator": "中国石化" }, "geometry": { "type": "Point", "coordinates": [ 116.213524, 39.93309 ] } },
{ "type": "Feature", "properties": { "Name": "中国石化三元德茂加油站", "Lon_Lat": "116.436616,39.775419", "Longitude": 116.436616, "Latitude": 39.775419, "Gdtype": "汽车服务;加油站;中国石化", "Prov": "北京市", "City": "北京市", "Address": "京福路西100米", "Operator": "中国石化" }, "geometry": { "type": "Point", "coordinates": [ 116.436616, 39.775419 ] } },
{ "type": "Feature", "properties": { "Name": "中国石化北务服务区加油站", "Lon_Lat": "116.833679,40.053922", "Longitude": 116.833679, "Latitude": 40.053922, "Gdtype": "汽车服务;加油站;中国石化", "Prov": "北京市", "City": "北京市", "Address": "京平高速公路", "Operator": "中国石化" }, "geometry": { "type": "Point", "coordinates": [ 116.833679, 40.053922 ] } },
{ "type": "Feature", "properties": { "Name": "中国石化华顺顺加油站", "Lon_Lat": "116.681391,40.132219", "Longitude": 116.681391, "Latitude": 40.132219, "Gdtype": "汽车服务;加油站;加油站", "Prov": "北京市", "City": "北京市", "Address": "潮白河大桥东侧", "Operator": "中国石化" }, "geometry": { "type": "Point", "coordinates": [ 116.681391, 40.132219 ] } },
{ "type": "Feature", "properties": { "Name": "中国石化鲁谷加油站", "Lon_Lat": "116.209803,39.904105", "Longitude": 116.209803, "Latitude": 39.904105, "Gdtype": "汽车服务;加油站;中国石化", "Prov": "北京市", "City": "北京市", "Address": "体育场南路北侧", "Operator": "中国石化" }, "geometry": { "type": "Point", "coordinates": [ 116.209803, 39.904105 ] } },
{ "type": "Feature", "properties": { "Name": "中国石化加油站(军红路)(暂停营业)", "Lon_Lat": "115.802039,39.874971", "Longitude": 115.802039, "Latitude": 39.874971, "Gdtype": "汽车服务;加油站;中国石化", "Prov": "北京市", "City": "北京市", "Address": "县道209号大安乡村路段东路北", "Operator": "中国石化" }, "geometry": { "type": "Point", "coordinates": [ 115.802039, 39.874971 ] } },
{ "type": "Feature", "properties": { "Name": "中国石化加油站(暂停营业)", "Lon_Lat": "116.652237,39.650098", "Longitude": 116.652237, "Latitude": 39.650098, "Gdtype": "汽车服务;加油站;中国石化", "Prov": "北京市", "City": "北京市", "Address": "采育镇东庄村委会东南400米", "Operator": "中国石化" }, "geometry": { "type": "Point", "coordinates": [ 116.652237, 39.650098 ] } },
{ "type": "Feature", "properties": { "Name": "中国石化杨闸加油站", "Lon_Lat": "116.599103,39.910443", "Longitude": 116.599103, "Latitude": 39.910443, "Gdtype": "汽车服务;加油站;中国石化", "Prov": "北京市", "City": "北京市", "Address": "杨闸村朗廷大厦南门", "Operator": "中国石化" }, "geometry": { "type": "Point", "coordinates": [ 116.599103, 39.910443 ] } },
{ "type": "Feature", "properties": { "Name": "中国石化长库京西加油站", "Lon_Lat": "116.108044,39.930492", "Longitude": 116.108044, "Latitude": 39.930492, "Gdtype": "汽车服务;加油站;中国石化", "Prov": "北京市", "City": "北京市", "Address": "新桥南大街34号", "Operator": "中国石化" }, "geometry": { "type": "Point", "coordinates": [ 116.108044, 39.930492 ] } },
{ "type": "Feature", "properties": { "Name": "中国石化年福加油站", "Lon_Lat": "116.383928,40.101538", "Longitude": 116.383928, "Latitude": 40.101538, "Gdtype": "汽车服务;加油站;中国石化", "Prov": "北京市", "City": "北京市", "Address": "北七家镇平西府村东", "Operator": "中国石化" }, "geometry": { "type": "Point", "coordinates": [ 116.383928, 40.101538 ] } },
{ "type": "Feature", "properties": { "Name": "中国石化北京站加油站", "Lon_Lat": "116.422854,39.903992", "Longitude": 116.422854, "Latitude": 39.903992, "Gdtype": "汽车服务;加油站;中国石化", "Prov": "北京市", "City": "北京市", "Address": "北京站西街路北(邮局路西,103总站)", "Operator": "中国石化" }, "geometry": { "type": "Point", "coordinates": [ 116.422854, 39.903992 ] } },
{ "type": "Feature", "properties": { "Name": "中国石化大城堡加油站", "Lon_Lat": "115.994241,40.47477", "Longitude": 115.994241, "Latitude": 40.47477, "Gdtype": "汽车服务;加油站;中国石化", "Prov": "北京市", "City": "北京市", "Address": "延庆镇京张路口北火车站道口北", "Operator": "中国石化" }, "geometry": { "type": "Point", "coordinates": [ 115.994241, 40.47477 ] } },
{ "type": "Feature", "properties": { "Name": "中国石化港通加油站", "Lon_Lat": "116.779451,39.830371", "Longitude": 116.779451, "Latitude": 39.830371, "Gdtype": "汽车服务;加油站;中国石化", "Prov": "北京市", "City": "北京市", "Address": "里二泗村", "Operator": "中国石化" }, "geometry": { "type": "Point", "coordinates": [ 116.779451, 39.830371 ] } },
{ "type": "Feature", "properties": { "Name": "中国石化潭柘寺加油站", "Lon_Lat": "116.031897,39.877872", "Longitude": 116.031897, "Latitude": 39.877872, "Gdtype": "汽车服务;加油站;中国石化", "Prov": "北京市", "City": "北京市", "Address": "鲁家滩村西", "Operator": "中国石化" }, "geometry": { "type": "Point", "coordinates": [ 116.031897, 39.877872 ] } },
{ "type": "Feature", "properties": { "Name": "中国石化房山三宝加油站", "Lon_Lat": "115.979101,39.600674", "Longitude": 115.979101, "Latitude": 39.600674, "Gdtype": "汽车服务;加油站;中国石化", "Prov": "北京市", "City": "北京市", "Address": "西东村", "Operator": "中国石化" }, "geometry": { "type": "Point", "coordinates": [ 115.979101, 39.600674 ] } },
{ "type": "Feature", "properties": { "Name": "中国石化德利发加油站", "Lon_Lat": "116.378087,39.797903", "Longitude": 116.378087, "Latitude": 39.797903, "Gdtype": "汽车服务;加油站;中国石化", "Prov": "北京市", "City": "北京市", "Address": "团河路29号", "Operator": "中国石化" }, "geometry": { "type": "Point", "coordinates": [ 116.378087, 39.797903 ] } },
{ "type": "Feature", "properties": { "Name": "中国石化怀闽加油站", "Lon_Lat": "116.725906,40.329504", "Longitude": 116.725906, "Latitude": 40.329504, "Gdtype": "汽车服务;加油站;中国石化", "Prov": "北京市", "City": "北京市", "Address": "北房镇梨园庄村", "Operator": "中国石化" }, "geometry": { "type": "Point", "coordinates": [ 116.725906, 40.329504 ] } },
{ "type": "Feature", "properties": { "Name": "中国石化南宫加油站", "Lon_Lat": "116.159138,39.800897", "Longitude": 116.159138, "Latitude": 39.800897, "Gdtype": "汽车服务;加油站;中国石化", "Prov": "北京市", "City": "北京市", "Address": "王佐镇长青路89号", "Operator": "中国石化" }, "geometry": { "type": "Point", "coordinates": [ 116.159138, 39.800897 ] } },
{ "type": "Feature", "properties": { "Name": "中国石化正兴加油站", "Lon_Lat": "116.339661,39.868613", "Longitude": 116.339661, "Latitude": 39.868613, "Gdtype": "汽车服务;加油站;中国石化", "Prov": "北京市", "City": "北京市", "Address": "三路居村(菜户营桥西嘉年华商务会馆对面)", "Operator": "中国石化" }, "geometry": { "type": "Point", "coordinates": [ 116.339661, 39.868613 ] } },
{ "type": "Feature", "properties": { "Name": "中国石化住海加油站", "Lon_Lat": "116.635726,40.034847", "Longitude": 116.635726, "Latitude": 40.034847, "Gdtype": "汽车服务;加油站;中国石化", "Prov": "北京市", "City": "北京市", "Address": "李桥镇南半壁店村", "Operator": "中国石化" }, "geometry": { "type": "Point", "coordinates": [ 116.635726, 40.034847 ] } },
{ "type": "Feature", "properties": { "Name": "中国石化销售股份有限公司北京密云友谊加油站", "Lon_Lat": "116.870814,40.376664", "Longitude": 116.870814, "Latitude": 40.376664, "Gdtype": "汽车服务;加油站;中国石化", "Prov": "北京市", "City": "北京市", "Address": "京密路气象局南", "Operator": "中国石化" }, "geometry": { "type": "Point", "coordinates": [ 116.870814, 40.376664 ] } },
{ "type": "Feature", "properties": { "Name": "中国石化西永和屯加油站", "Lon_Lat": "116.719231,39.767965", "Longitude": 116.719231, "Latitude": 39.767965, "Gdtype": "汽车服务;加油站;中国石化", "Prov": "北京市", "City": "北京市", "Address": "张家湾镇永和屯村口", "Operator": "中国石化" }, "geometry": { "type": "Point", "coordinates": [ 116.719231, 39.767965 ] } },
{ "type": "Feature", "properties": { "Name": "中国石化加油站", "Lon_Lat": "116.257052,40.146421", "Longitude": 116.257052, "Latitude": 40.146421, "Gdtype": "汽车服务;加油站;中国石化", "Prov": "北京市", "City": "北京市", "Address": "昌平路89号", "Operator": "中国石化" }, "geometry": { "type": "Point", "coordinates": [ 116.257052, 40.146421 ] } },
{ "type": "Feature", "properties": { "Name": "中国石化望京新城加油站", "Lon_Lat": "116.472272,40.001308", "Longitude": 116.472272, "Latitude": 40.001308, "Gdtype": "汽车服务;加油站;中国石化", "Prov": "北京市", "City": "北京市", "Address": "望京体育公园D区", "Operator": "中国石化" }, "geometry": { "type": "Point", "coordinates": [ 116.472272, 40.001308 ] } },
{ "type": "Feature", "properties": { "Name": "中国石化加油站", "Lon_Lat": "116.412294,40.040818", "Longitude": 116.412294, "Latitude": 40.040818, "Gdtype": "汽车服务;加油站;中国石化", "Prov": "北京市", "City": "北京市", "Address": "安立路仰山桥向北第三个红绿灯路东", "Operator": "中国石化" }, "geometry": { "type": "Point", "coordinates": [ 116.412294, 40.040818 ] } },
{ "type": "Feature", "properties": { "Name": "中国石化三元西磁加油站", "Lon_Lat": "116.409659,39.719957", "Longitude": 116.409659, "Latitude": 39.719957, "Gdtype": "汽车服务;加油站;中国石化", "Prov": "北京市", "City": "北京市", "Address": "黄村镇磁各庄桥南", "Operator": "中国石化" }, "geometry": { "type": "Point", "coordinates": [ 116.409659, 39.719957 ] } },
{ "type": "Feature", "properties": { "Name": "中国石化日兴加油站", "Lon_Lat": "117.141946,40.344684", "Longitude": 117.141946, "Latitude": 40.344684, "Gdtype": "汽车服务;加油站;中国石化", "Prov": "北京市", "City": "北京市", "Address": "上营村北", "Operator": "中国石化" }, "geometry": { "type": "Point", "coordinates": [ 117.141946, 40.344684 ] } },
{ "type": "Feature", "properties": { "Name": "中国石化潮河加油站", "Lon_Lat": "116.690745,40.131886", "Longitude": 116.690745, "Latitude": 40.131886, "Gdtype": "汽车服务;加油站;中国石化", "Prov": "北京市", "City": "北京市", "Address": "潮白河大桥东侧路南", "Operator": "中国石化" }, "geometry": { "type": "Point", "coordinates": [ 116.690745, 40.131886 ] } },
{ "type": "Feature", "properties": { "Name": "中国石化中杲加油站", "Lon_Lat": "116.289776,39.696764", "Longitude": 116.289776, "Latitude": 39.696764, "Gdtype": "汽车服务;加油站;中国石化", "Prov": "北京市", "City": "北京市", "Address": "北臧村镇新立村东黄良路北侧", "Operator": "中国石化" }, "geometry": { "type": "Point", "coordinates": [ 116.289776, 39.696764 ] } },
{ "type": "Feature", "properties": { "Name": "中国石化机场路加油站", "Lon_Lat": "116.585122,40.050589", "Longitude": 116.585122, "Latitude": 40.050589, "Gdtype": "汽车服务;加油站;中国石化", "Prov": "北京市", "City": "北京市", "Address": "北京市顺义区天竺镇小天竺西幸福街3号", "Operator": "中国石化" }, "geometry": { "type": "Point", "coordinates": [ 116.585122, 40.050589 ] } },
{ "type": "Feature", "properties": { "Name": "中国石化桥头加油站", "Lon_Lat": "116.833583,40.369067", "Longitude": 116.833583, "Latitude": 40.369067, "Gdtype": "汽车服务;加油站;中国石化", "Prov": "北京市", "City": "北京市", "Address": "西大桥", "Operator": "中国石化" }, "geometry": { "type": "Point", "coordinates": [ 116.833583, 40.369067 ] } },
{ "type": "Feature", "properties": { "Name": "中国石化温百星加油站", "Lon_Lat": "116.155217,40.0918", "Longitude": 116.155217, "Latitude": 40.0918, "Gdtype": "汽车服务;加油站;中国石化", "Prov": "北京市", "City": "北京市", "Address": "前沙涧村南(温阳公路旁)", "Operator": "中国石化" }, "geometry": { "type": "Point", "coordinates": [ 116.155217, 40.0918 ] } },
{ "type": "Feature", "properties": { "Name": "中国石化惠龙腾加油站", "Lon_Lat": "116.463267,40.057089", "Longitude": 116.463267, "Latitude": 40.057089, "Gdtype": "汽车服务;加油站;中国石化", "Prov": "北京市", "City": "北京市", "Address": "来广营北路166号", "Operator": "中国石化" }, "geometry": { "type": "Point", "coordinates": [ 116.463267, 40.057089 ] } },
{ "type": "Feature", "properties": { "Name": "中国石化石银加油站", "Lon_Lat": "116.463277,39.856694", "Longitude": 116.463277, "Latitude": 39.856694, "Gdtype": "汽车服务;加油站;中国石化", "Prov": "北京市", "City": "北京市", "Address": "十里河村三环肿瘤医院南门", "Operator": "中国石化" }, "geometry": { "type": "Point", "coordinates": [ 116.463277, 39.856694 ] } },
{ "type": "Feature", "properties": { "Name": "中国石化新立北加油站", "Lon_Lat": "116.275087,39.691279", "Longitude": 116.275087, "Latitude": 39.691279, "Gdtype": "汽车服务;加油站;中国石化", "Prov": "北京市", "City": "北京市", "Address": "新立村六环主路89公里处北", "Operator": "中国石化" }, "geometry": { "type": "Point", "coordinates": [ 116.275087, 39.691279 ] } },
{ "type": "Feature", "properties": { "Name": "中国石化燕广海加油站", "Lon_Lat": "116.231955,39.891717", "Longitude": 116.231955, "Latitude": 39.891717, "Gdtype": "汽车服务;加油站;中国石化", "Prov": "北京市", "City": "北京市", "Address": "鲁谷大街80号", "Operator": "中国石化" }, "geometry": { "type": "Point", "coordinates": [ 116.231955, 39.891717 ] } },
{ "type": "Feature", "properties": { "Name": "中石化燕北华瑞加油站", "Lon_Lat": "115.637895,39.639626", "Longitude": 115.637895, "Latitude": 39.639626, "Gdtype": "汽车服务;加油站;中国石化", "Prov": "北京市", "City": "北京市", "Address": "十渡镇六渡村", "Operator": "中国石化" }, "geometry": { "type": "Point", "coordinates": [ 115.637895, 39.639626 ] } },
{ "type": "Feature", "properties": { "Name": "中国石化加油站", "Lon_Lat": "116.119988,40.096221", "Longitude": 116.119988, "Latitude": 40.096221, "Gdtype": "汽车服务;加油站;中国石化", "Prov": "北京市", "City": "北京市", "Address": "聂各庄路聂各庄村路段", "Operator": "中国石化" }, "geometry": { "type": "Point", "coordinates": [ 116.119988, 40.096221 ] } },
{ "type": "Feature", "properties": { "Name": "中国石化加油站", "Lon_Lat": "116.780091,39.68478", "Longitude": 116.780091, "Latitude": 39.68478, "Gdtype": "汽车服务;加油站;中国石化", "Prov": "北京市", "City": "北京市", "Address": "永乐店镇德仁务村北", "Operator": "中国石化" }, "geometry": { "type": "Point", "coordinates": [ 116.780091, 39.68478 ] } },
{ "type": "Feature", "properties": { "Name": "中国石化加油站(暂停营业)", "Lon_Lat": "116.754641,40.212769", "Longitude": 116.754641, "Latitude": 40.212769, "Gdtype": "汽车服务;加油站;中国石化", "Prov": "北京市", "City": "北京市", "Address": "北府村(北府顺木路至木林路南上辇红绿灯东边)", "Operator": "中国石化" }, "geometry": { "type": "Point", "coordinates": [ 116.754641, 40.212769 ] } },
{ "type": "Feature", "properties": { "Name": "中国石化左家庄加油站", "Lon_Lat": "116.449444,39.955726", "Longitude": 116.449444, "Latitude": 39.955726, "Gdtype": "汽车服务;加油站;中国石化", "Prov": "北京市", "City": "北京市", "Address": "东直门外香河园中里2号", "Operator": "中国石化" }, "geometry": { "type": "Point", "coordinates": [ 116.449444, 39.955726 ] } },
{ "type": "Feature", "properties": { "Name": "中国石化军庄加油站", "Lon_Lat": "116.09386,39.995139", "Longitude": 116.09386, "Latitude": 39.995139, "Gdtype": "汽车服务;加油站;中国石化", "Prov": "北京市", "City": "北京市", "Address": "军庄村路口", "Operator": "中国石化" }, "geometry": { "type": "Point", "coordinates": [ 116.09386, 39.995139 ] } },
{ "type": "Feature", "properties": { "Name": "中国石化太平湖加油站", "Lon_Lat": "116.365814,39.947011", "Longitude": 116.365814, "Latitude": 39.947011, "Gdtype": "汽车服务;加油站;中国石化", "Prov": "北京市", "City": "北京市", "Address": "德胜门西大街甲5-1号", "Operator": "中国石化" }, "geometry": { "type": "Point", "coordinates": [ 116.365814, 39.947011 ] } },
{ "type": "Feature", "properties": { "Name": "中国石化房山京良加油站", "Lon_Lat": "116.130603,39.712818", "Longitude": 116.130603, "Latitude": 39.712818, "Gdtype": "汽车服务;加油站;加油站", "Prov": "北京市", "City": "北京市", "Address": "良乡地区大南关村南", "Operator": "中国石化" }, "geometry": { "type": "Point", "coordinates": [ 116.130603, 39.712818 ] } },
{ "type": "Feature", "properties": { "Name": "中国石化中原创业加油站", "Lon_Lat": "116.735025,39.931708", "Longitude": 116.735025, "Latitude": 39.931708, "Gdtype": "汽车服务;加油站;中国石化", "Prov": "北京市", "City": "北京市", "Address": "丁各庄村(丁各庄路与宋梁路交叉口向北路东)", "Operator": "中国石化" }, "geometry": { "type": "Point", "coordinates": [ 116.735025, 39.931708 ] } },
{ "type": "Feature", "properties": { "Name": "中国石化大华合智加油站", "Lon_Lat": "116.351735,40.010905", "Longitude": 116.351735, "Latitude": 40.010905, "Gdtype": "汽车服务;加油站;中国石化", "Prov": "北京市", "City": "北京市", "Address": "学院路甲5号", "Operator": "中国石化" }, "geometry": { "type": "Point", "coordinates": [ 116.351735, 40.010905 ] } },
{ "type": "Feature", "properties": { "Name": "中国石化永乐店服务区加油站", "Lon_Lat": "116.812963,39.643440", "Longitude": 116.812963, "Latitude": 39.64344, "Gdtype": "汽车服务;加油站;中国石化", "Prov": "北京市", "City": "北京市", "Address": "京津高速永乐店服务区", "Operator": "中国石化" }, "geometry": { "type": "Point", "coordinates": [ 116.812963, 39.64344 ] } },
{ "type": "Feature", "properties": { "Name": "中国石化航润加油站", "Lon_Lat": "116.628643,40.095250", "Longitude": 116.628643, "Latitude": 40.09525, "Gdtype": "汽车服务;加油站;中国石化", "Prov": "北京市", "City": "北京市", "Address": "机场东路与顺平南线交叉口南200米路西", "Operator": "中国石化" }, "geometry": { "type": "Point", "coordinates": [ 116.628643, 40.09525 ] } },
{ "type": "Feature", "properties": { "Name": "中国石化加油站(暂停营业)", "Lon_Lat": "116.167930,39.876787", "Longitude": 116.16793, "Latitude": 39.876787, "Gdtype": "汽车服务;加油站;中国石化", "Prov": "北京市", "City": "北京市", "Address": "北宫镇芦井路(北京园博园西侧)", "Operator": "中国石化" }, "geometry": { "type": "Point", "coordinates": [ 116.16793, 39.876787 ] } },
{ "type": "Feature", "properties": { "Name": "中国石化顺煤加油站", "Lon_Lat": "116.641638,40.121301", "Longitude": 116.641638, "Latitude": 40.121301, "Gdtype": "汽车服务;加油站;加油站", "Prov": "北京市", "City": "北京市", "Address": "仁和顺西路24号", "Operator": "中国石化" }, "geometry": { "type": "Point", "coordinates": [ 116.641638, 40.121301 ] } },
{ "type": "Feature", "properties": { "Name": "中国石化祁家豁子加油站", "Lon_Lat": "116.381672,39.978188", "Longitude": 116.381672, "Latitude": 39.978188, "Gdtype": "汽车服务;加油站;中国石化", "Prov": "北京市", "City": "北京市", "Address": "德胜门外祁家豁子", "Operator": "中国石化" }, "geometry": { "type": "Point", "coordinates": [ 116.381672, 39.978188 ] } },
{ "type": "Feature", "properties": { "Name": "中国石化杨桥加油站", "Lon_Lat": "116.986475,40.14539", "Longitude": 116.986475, "Latitude": 40.14539, "Gdtype": "汽车服务;加油站;中国石化", "Prov": "北京市", "City": "北京市", "Address": "峪口镇杨桥路口", "Operator": "中国石化" }, "geometry": { "type": "Point", "coordinates": [ 116.986475, 40.14539 ] } },
{ "type": "Feature", "properties": { "Name": "中国石化(燕广友加油站)", "Lon_Lat": "116.127728,39.939434", "Longitude": 116.127728, "Latitude": 39.939434, "Gdtype": "汽车服务;加油站;中国石化", "Prov": "北京市", "City": "北京市", "Address": "麻峪双峪路", "Operator": "中国石化" }, "geometry": { "type": "Point", "coordinates": [ 116.127728, 39.939434 ] } },
{ "type": "Feature", "properties": { "Name": "中国石化北京密云高岭加油站", "Lon_Lat": "117.143277,40.595238", "Longitude": 117.143277, "Latitude": 40.595238, "Gdtype": "汽车服务;加油站;中国石化", "Prov": "北京市", "City": "北京市", "Address": "高岭镇辛庄道口", "Operator": "中国石化" }, "geometry": { "type": "Point", "coordinates": [ 117.143277, 40.595238 ] } },
{ "type": "Feature", "properties": { "Name": "中国石化住海三利加油站", "Lon_Lat": "116.763322,39.935524", "Longitude": 116.763322, "Latitude": 39.935524, "Gdtype": "汽车服务;加油站;中国石化", "Prov": "北京市", "City": "北京市", "Address": "白庙村西", "Operator": "中国石化" }, "geometry": { "type": "Point", "coordinates": [ 116.763322, 39.935524 ] } },
{ "type": "Feature", "properties": { "Name": "中国石化三元北清路加油站", "Lon_Lat": "116.297493,40.093755", "Longitude": 116.297493, "Latitude": 40.093755, "Gdtype": "汽车服务;加油站;中国石化", "Prov": "北京市", "City": "北京市", "Address": "二拔子村辛庄桥西南角", "Operator": "中国石化" }, "geometry": { "type": "Point", "coordinates": [ 116.297493, 40.093755 ] } },
{ "type": "Feature", "properties": { "Name": "中国石化服务区北京巨铭天晟油品有限公司加油站", "Lon_Lat": "115.967445,39.830132", "Longitude": 115.967445, "Latitude": 39.830132, "Gdtype": "汽车服务;加油站;加油站", "Prov": "北京市", "City": "北京市", "Address": "京昆路南50米", "Operator": "中国石化" }, "geometry": { "type": "Point", "coordinates": [ 115.967445, 39.830132 ] } },
{ "type": "Feature", "properties": { "Name": "中国石化李桥东加油站", "Lon_Lat": "116.653956,40.054898", "Longitude": 116.653956, "Latitude": 40.054898, "Gdtype": "汽车服务;加油站;中国石化", "Prov": "北京市", "City": "北京市", "Address": "李桥镇东六环主路21-2公里处东侧", "Operator": "中国石化" }, "geometry": { "type": "Point", "coordinates": [ 116.653956, 40.054898 ] } },
{ "type": "Feature", "properties": { "Name": "中国石化聚福锦余加油站", "Lon_Lat": "116.703556,39.71825", "Longitude": 116.703556, "Latitude": 39.71825, "Gdtype": "汽车服务;加油站;中国石化", "Prov": "北京市", "City": "北京市", "Address": "于家务村西", "Operator": "中国石化" }, "geometry": { "type": "Point", "coordinates": [ 116.703556, 39.71825 ] } },
{ "type": "Feature", "properties": { "Name": "中国石化汤河路加油站", "Lon_Lat": "116.641099,40.733011", "Longitude": 116.641099, "Latitude": 40.733011, "Gdtype": "汽车服务;加油站;中国石化", "Prov": "北京市", "City": "北京市", "Address": "汤河口村", "Operator": "中国石化" }, "geometry": { "type": "Point", "coordinates": [ 116.641099, 40.733011 ] } },
{ "type": "Feature", "properties": { "Name": "中国石化堡辛加油站", "Lon_Lat": "116.72533,39.916471", "Longitude": 116.72533, "Latitude": 39.916471, "Gdtype": "汽车服务;加油站;中国石化", "Prov": "北京市", "City": "北京市", "Address": "潞城镇潞源街道办事处旁", "Operator": "中国石化" }, "geometry": { "type": "Point", "coordinates": [ 116.72533, 39.916471 ] } },
{ "type": "Feature", "properties": { "Name": "中国石化农机兆元加油站", "Lon_Lat": "116.597949,39.895103", "Longitude": 116.597949, "Latitude": 39.895103, "Gdtype": "汽车服务;加油站;加油站", "Prov": "北京市", "City": "北京市", "Address": "双桥中路10号平房", "Operator": "中国石化" }, "geometry": { "type": "Point", "coordinates": [ 116.597949, 39.895103 ] } },
{ "type": "Feature", "properties": { "Name": "中国石化西直河加油站", "Lon_Lat": "116.527331,39.850703", "Longitude": 116.527331, "Latitude": 39.850703, "Gdtype": "汽车服务;加油站;中国石化", "Prov": "北京市", "City": "北京市", "Address": "西直河路(北京染料厂南侧)", "Operator": "中国石化" }, "geometry": { "type": "Point", "coordinates": [ 116.527331, 39.850703 ] } },
{ "type": "Feature", "properties": { "Name": "中国石化怀丰路加油站", "Lon_Lat": "116.690073,40.39239", "Longitude": 116.690073, "Latitude": 40.39239, "Gdtype": "汽车服务;加油站;中国石化", "Prov": "北京市", "City": "北京市", "Address": "怀北镇西庄村京加路与龙德行路交口红绿灯西侧", "Operator": "中国石化" }, "geometry": { "type": "Point", "coordinates": [ 116.690073, 40.39239 ] } },
{ "type": "Feature", "properties": { "Name": "中国石化宛平加油站", "Lon_Lat": "116.226239,39.846981", "Longitude": 116.226239, "Latitude": 39.846981, "Gdtype": "汽车服务;加油站;中国石化", "Prov": "北京市", "City": "北京市", "Address": "北京市丰台区卢沟桥抗战雕塑园西200米", "Operator": "中国石化" }, "geometry": { "type": "Point", "coordinates": [ 116.226239, 39.846981 ] } },
{ "type": "Feature", "properties": { "Name": "中国石化加油站(暂停营业)", "Lon_Lat": "116.020204,40.440852", "Longitude": 116.020204, "Latitude": 40.440852, "Gdtype": "汽车服务;加油站;中国石化", "Prov": "北京市", "City": "北京市", "Address": "姜家台村", "Operator": "中国石化" }, "geometry": { "type": "Point", "coordinates": [ 116.020204, 40.440852 ] } },
{ "type": "Feature", "properties": { "Name": "中国石化龙达加油站", "Lon_Lat": "116.514734,39.738846", "Longitude": 116.514734, "Latitude": 39.738846, "Gdtype": "汽车服务;加油站;中国石化", "Prov": "北京市", "City": "北京市", "Address": "瀛海镇千顷路东侧1米", "Operator": "中国石化" }, "geometry": { "type": "Point", "coordinates": [ 116.514734, 39.738846 ] } },
{ "type": "Feature", "properties": { "Name": "中国石化柳林加油站(建设中)", "Lon_Lat": "115.749186,39.820154", "Longitude": 115.749186, "Latitude": 39.820154, "Gdtype": "汽车服务;加油站;中国石化", "Prov": "北京市", "City": "北京市", "Address": "鸳鸯水村南", "Operator": "中国石化" }, "geometry": { "type": "Point", "coordinates": [ 115.749186, 39.820154 ] } },
{ "type": "Feature", "properties": { "Name": "中国石化西大桥加油站", "Lon_Lat": "116.118004,40.227616", "Longitude": 116.118004, "Latitude": 40.227616, "Gdtype": "汽车服务;加油站;中国石化", "Prov": "北京市", "City": "北京市", "Address": "南口镇西大桥西", "Operator": "中国石化" }, "geometry": { "type": "Point", "coordinates": [ 116.118004, 40.227616 ] } },
{ "type": "Feature", "properties": { "Name": "中国石化(京新高速加油站)(暂停营业)", "Lon_Lat": "116.207506,40.205042", "Longitude": 116.207506, "Latitude": 40.205042, "Gdtype": "汽车服务;加油站;中国石化", "Prov": "北京市", "City": "北京市", "Address": "京新高速停车区内", "Operator": "中国石化" }, "geometry": { "type": "Point", "coordinates": [ 116.207506, 40.205042 ] } },
{ "type": "Feature", "properties": { "Name": "中国石化服务区加油站", "Lon_Lat": "116.275087,39.691279", "Longitude": 116.275087, "Latitude": 39.691279, "Gdtype": "汽车服务;加油站;中国石化", "Prov": "北京市", "City": "北京市", "Address": "新立村六环主路89公里处北", "Operator": "中国石化" }, "geometry": { "type": "Point", "coordinates": [ 116.275087, 39.691279 ] } },
{ "type": "Feature", "properties": { "Name": "中国石化加油站(公交车专用)", "Lon_Lat": "116.128904,39.899935", "Longitude": 116.128904, "Latitude": 39.899935, "Gdtype": "汽车服务;加油站;中国石化", "Prov": "北京市", "City": "北京市", "Address": [ ], "Operator": "中国石化" }, "geometry": { "type": "Point", "coordinates": [ 116.128904, 39.899935 ] } },
{ "type": "Feature", "properties": { "Name": "中国石化加油站", "Lon_Lat": "116.117899,40.231958", "Longitude": 116.117899, "Latitude": 40.231958, "Gdtype": "汽车服务;加油站;中国石化", "Prov": "北京市", "City": "北京市", "Address": "南口镇西大桥路北", "Operator": "中国石化" }, "geometry": { "type": "Point", "coordinates": [ 116.117899, 40.231958 ] } },
{ "type": "Feature", "properties": { "Name": "中国石化百善宏飞加油站", "Lon_Lat": "116.319331,40.16951", "Longitude": 116.319331, "Latitude": 40.16951, "Gdtype": "汽车服务;加油站;中国石化", "Prov": "北京市", "City": "北京市", "Address": "顺沙路", "Operator": "中国石化" }, "geometry": { "type": "Point", "coordinates": [ 116.319331, 40.16951 ] } },
{ "type": "Feature", "properties": { "Name": "中国石化加油站", "Lon_Lat": "116.214134,39.951385", "Longitude": 116.214134, "Latitude": 39.951385, "Gdtype": "汽车服务;加油站;中国石化", "Prov": "北京市", "City": "北京市", "Address": "香山南路南辛庄", "Operator": "中国石化" }, "geometry": { "type": "Point", "coordinates": [ 116.214134, 39.951385 ] } },
{ "type": "Feature", "properties": { "Name": "中国石化西黄庄加油站", "Lon_Lat": "116.276872,39.953217", "Longitude": 116.276872, "Latitude": 39.953217, "Gdtype": "汽车服务;加油站;中国石化", "Prov": "北京市", "City": "北京市", "Address": "昆明湖南路37号", "Operator": "中国石化" }, "geometry": { "type": "Point", "coordinates": [ 116.276872, 39.953217 ] } },
{ "type": "Feature", "properties": { "Name": "中国石化台金加油站", "Lon_Lat": "116.208605,39.838821", "Longitude": 116.208605, "Latitude": 39.838821, "Gdtype": "汽车服务;加油站;中国石化", "Prov": "北京市", "City": "北京市", "Address": "杜家坎南路13号", "Operator": "中国石化" }, "geometry": { "type": "Point", "coordinates": [ 116.208605, 39.838821 ] } },
{ "type": "Feature", "properties": { "Name": "中国石化马坊加油站", "Lon_Lat": "116.410105,40.143379", "Longitude": 116.410105, "Latitude": 40.143379, "Gdtype": "汽车服务;加油站;中国石化", "Prov": "北京市", "City": "北京市", "Address": "马坊村", "Operator": "中国石化" }, "geometry": { "type": "Point", "coordinates": [ 116.410105, 40.143379 ] } },
{ "type": "Feature", "properties": { "Name": "中国石化加油站", "Lon_Lat": "116.173705,39.843194", "Longitude": 116.173705, "Latitude": 39.843194, "Gdtype": "汽车服务;加油站;中国石化", "Prov": "北京市", "City": "北京市", "Address": "太子峪村", "Operator": "中国石化" }, "geometry": { "type": "Point", "coordinates": [ 116.173705, 39.843194 ] } },
{ "type": "Feature", "properties": { "Name": "中国石化北京市通州顺兴加油站", "Lon_Lat": "116.67234,39.969041", "Longitude": 116.67234, "Latitude": 39.969041, "Gdtype": "汽车服务;加油站;中国石化", "Prov": "北京市", "City": "北京市", "Address": "宋庄镇双埠头村口", "Operator": "中国石化" }, "geometry": { "type": "Point", "coordinates": [ 116.67234, 39.969041 ] } },
{ "type": "Feature", "properties": { "Name": "中国石化荣光加油站", "Lon_Lat": "116.343889,39.749724", "Longitude": 116.343889, "Latitude": 39.749724, "Gdtype": "汽车服务;加油站;中国石化", "Prov": "北京市", "City": "北京市", "Address": "黄村二中东侧", "Operator": "中国石化" }, "geometry": { "type": "Point", "coordinates": [ 116.343889, 39.749724 ] } },
{ "type": "Feature", "properties": { "Name": "中国石化加油站", "Lon_Lat": "116.594566,40.364188", "Longitude": 116.594566, "Latitude": 40.364188, "Gdtype": "汽车服务;加油站;中国石化", "Prov": "北京市", "City": "北京市", "Address": "怀柔镇", "Operator": "中国石化" }, "geometry": { "type": "Point", "coordinates": [ 116.594566, 40.364188 ] } },
{ "type": "Feature", "properties": { "Name": "中国石化广达加油站", "Lon_Lat": "116.802243,40.357315", "Longitude": 116.802243, "Latitude": 40.357315, "Gdtype": "汽车服务;加油站;中国石化", "Prov": "北京市", "City": "北京市", "Address": "工业开发区西侧", "Operator": "中国石化" }, "geometry": { "type": "Point", "coordinates": [ 116.802243, 40.357315 ] } },
{ "type": "Feature", "properties": { "Name": "中国石化松利新加油站", "Lon_Lat": "115.832237,40.468185", "Longitude": 115.832237, "Latitude": 40.468185, "Gdtype": "汽车服务;加油站;中国石化", "Prov": "北京市", "City": "北京市", "Address": "110国道京银路", "Operator": "中国石化" }, "geometry": { "type": "Point", "coordinates": [ 115.832237, 40.468185 ] } },
{ "type": "Feature", "properties": { "Name": "中国石化横街子加油站", "Lon_Lat": "116.506917,39.827631", "Longitude": 116.506917, "Latitude": 39.827631, "Gdtype": "汽车服务;加油站;加油站", "Prov": "北京市", "City": "北京市", "Address": "大羊坊路与横街子化工宿舍路交叉口西北150米", "Operator": "中国石化" }, "geometry": { "type": "Point", "coordinates": [ 116.506917, 39.827631 ] } },
{ "type": "Feature", "properties": { "Name": "中国石化跃路发加油站", "Lon_Lat": "117.011893,40.442725", "Longitude": 117.011893, "Latitude": 40.442725, "Gdtype": "汽车服务;加油站;中国石化", "Prov": "北京市", "City": "北京市", "Address": "穆家峪镇上峪村", "Operator": "中国石化" }, "geometry": { "type": "Point", "coordinates": [ 117.011893, 40.442725 ] } },
{ "type": "Feature", "properties": { "Name": "中国石化次渠通惠特许加油站", "Lon_Lat": "116.57324,39.811325", "Longitude": 116.57324, "Latitude": 39.811325, "Gdtype": "汽车服务;加油站;中国石化", "Prov": "北京市", "City": "北京市", "Address": "次渠镇通马路辅路", "Operator": "中国石化" }, "geometry": { "type": "Point", "coordinates": [ 116.57324, 39.811325 ] } },
{ "type": "Feature", "properties": { "Name": "中国石化土沟停车区西加油站", "Lon_Lat": "116.482401,40.127894", "Longitude": 116.482401, "Latitude": 40.127894, "Gdtype": "汽车服务;加油站;中国石化", "Prov": "北京市", "City": "北京市", "Address": "北京市昌平区京承高速进京方向,土沟服务区内加油站。(六环至五环之间)", "Operator": "中国石化" }, "geometry": { "type": "Point", "coordinates": [ 116.482401, 40.127894 ] } },
{ "type": "Feature", "properties": { "Name": "中国石化特许房山沈晨鹏亚加油站", "Lon_Lat": "116.172661,39.751322", "Longitude": 116.172661, "Latitude": 39.751322, "Gdtype": "汽车服务;加油站;中国石化", "Prov": "北京市", "City": "北京市", "Address": "长篱路与长阳路交叉口东南100米", "Operator": "中国石化" }, "geometry": { "type": "Point", "coordinates": [ 116.172661, 39.751322 ] } },
{ "type": "Feature", "properties": { "Name": "中国石化昆明湖加油站", "Lon_Lat": "116.279259,39.975062", "Longitude": 116.279259, "Latitude": 39.975062, "Gdtype": "汽车服务;加油站;中国石化", "Prov": "北京市", "City": "北京市", "Address": "金河路", "Operator": "中国石化" }, "geometry": { "type": "Point", "coordinates": [ 116.279259, 39.975062 ] } },
{ "type": "Feature", "properties": { "Name": "中国石化大郊亭加油站", "Lon_Lat": "116.498878,39.893638", "Longitude": 116.498878, "Latitude": 39.893638, "Gdtype": "汽车服务;加油站;中国石化", "Prov": "北京市", "City": "北京市", "Address": "南磨房(地区)乡石门中路", "Operator": "中国石化" }, "geometry": { "type": "Point", "coordinates": [ 116.498878, 39.893638 ] } },
{ "type": "Feature", "properties": { "Name": "中国石化千家富加油站", "Lon_Lat": "116.352193,40.694368", "Longitude": 116.352193, "Latitude": 40.694368, "Gdtype": "汽车服务;加油站;中国石化", "Prov": "北京市", "City": "北京市", "Address": "千家店村", "Operator": "中国石化" }, "geometry": { "type": "Point", "coordinates": [ 116.352193, 40.694368 ] } },
{ "type": "Feature", "properties": { "Name": "中国石化北郎中加油站", "Lon_Lat": "116.555356,40.209246", "Longitude": 116.555356, "Latitude": 40.209246, "Gdtype": "汽车服务;加油站;中国石化", "Prov": "北京市", "City": "北京市", "Address": "赵全营镇北郎中村西", "Operator": "中国石化" }, "geometry": { "type": "Point", "coordinates": [ 116.555356, 40.209246 ] } },
{ "type": "Feature", "properties": { "Name": "中国石化半壁店加油站", "Lon_Lat": "116.63744,40.035075", "Longitude": 116.63744, "Latitude": 40.035075, "Gdtype": "汽车服务;加油站;中国石化", "Prov": "北京市", "City": "北京市", "Address": "李桥镇李天路南半壁店段7号", "Operator": "中国石化" }, "geometry": { "type": "Point", "coordinates": [ 116.63744, 40.035075 ] } },
{ "type": "Feature", "properties": { "Name": "中国石化燕顺京加油站", "Lon_Lat": "116.473698,40.087801", "Longitude": 116.473698, "Latitude": 40.087801, "Gdtype": "汽车服务;加油站;中国石化", "Prov": "北京市", "City": "北京市", "Address": "后沙峪地区西泗上村西", "Operator": "中国石化" }, "geometry": { "type": "Point", "coordinates": [ 116.473698, 40.087801 ] } },
{ "type": "Feature", "properties": { "Name": "中国石化东高村加油站", "Lon_Lat": "117.113592,40.098924", "Longitude": 117.113592, "Latitude": 40.098924, "Gdtype": "汽车服务;加油站;中国石化", "Prov": "北京市", "City": "北京市", "Address": "东高村南", "Operator": "中国石化" }, "geometry": { "type": "Point", "coordinates": [ 117.113592, 40.098924 ] } },
{ "type": "Feature", "properties": { "Name": "中国石化大北关加油站", "Lon_Lat": "116.697875,39.778261", "Longitude": 116.697875, "Latitude": 39.778261, "Gdtype": "汽车服务;加油站;中国石化", "Prov": "北京市", "City": "北京市", "Address": "大北关村", "Operator": "中国石化" }, "geometry": { "type": "Point", "coordinates": [ 116.697875, 39.778261 ] } },
{ "type": "Feature", "properties": { "Name": "中国石化果庄加油站", "Lon_Lat": "116.151725,40.329126", "Longitude": 116.151725, "Latitude": 40.329126, "Gdtype": "汽车服务;加油站;中国石化", "Prov": "北京市", "City": "北京市", "Address": "果庄村", "Operator": "中国石化" }, "geometry": { "type": "Point", "coordinates": [ 116.151725, 40.329126 ] } },
{ "type": "Feature", "properties": { "Name": "中国石化志润峰加油站", "Lon_Lat": "116.159124,39.72359", "Longitude": 116.159124, "Latitude": 39.72359, "Gdtype": "汽车服务;加油站;中国石化", "Prov": "北京市", "City": "北京市", "Address": "良乡长虹东路温泉山庄东侧", "Operator": "中国石化" }, "geometry": { "type": "Point", "coordinates": [ 116.159124, 39.72359 ] } },
{ "type": "Feature", "properties": { "Name": "中国石化黄村加油站", "Lon_Lat": "116.322938,39.667052", "Longitude": 116.322938, "Latitude": 39.667052, "Gdtype": "汽车服务;加油站;中国石化", "Prov": "北京市", "City": "北京市", "Address": "北臧村镇纬四路东口北侧10米", "Operator": "中国石化" }, "geometry": { "type": "Point", "coordinates": [ 116.322938, 39.667052 ] } },
{ "type": "Feature", "properties": { "Name": "中国石化长久加油站", "Lon_Lat": "116.745247,40.792552", "Longitude": 116.745247, "Latitude": 40.792552, "Gdtype": "汽车服务;加油站;加油站", "Prov": "北京市", "City": "北京市", "Address": "长哨营村", "Operator": "中国石化" }, "geometry": { "type": "Point", "coordinates": [ 116.745247, 40.792552 ] } },
{ "type": "Feature", "properties": { "Name": "中国石化永飞加油站", "Lon_Lat": "116.914779,40.154099", "Longitude": 116.914779, "Latitude": 40.154099, "Gdtype": "汽车服务;加油站;中国石化", "Prov": "北京市", "City": "北京市", "Address": "行宫村南500米", "Operator": "中国石化" }, "geometry": { "type": "Point", "coordinates": [ 116.914779, 40.154099 ] } },
{ "type": "Feature", "properties": { "Name": "中国石化兴康加油站", "Lon_Lat": "115.907096,40.370466", "Longitude": 115.907096, "Latitude": 40.370466, "Gdtype": "汽车服务;加油站;中国石化", "Prov": "北京市", "City": "北京市", "Address": "康庄镇地税所东100米(延康路出京张高速路拐弯处)", "Operator": "中国石化" }, "geometry": { "type": "Point", "coordinates": [ 115.907096, 40.370466 ] } },
{ "type": "Feature", "properties": { "Name": "中国石化苗圃加油站", "Lon_Lat": "116.407613,40.162443", "Longitude": 116.407613, "Latitude": 40.162443, "Gdtype": "汽车服务;加油站;中国石化", "Prov": "北京市", "City": "北京市", "Address": "小汤山镇马坊村北(小汤山苗圃场部)", "Operator": "中国石化" }, "geometry": { "type": "Point", "coordinates": [ 116.407613, 40.162443 ] } },
{ "type": "Feature", "properties": { "Name": "中国石化运恒加油站(暂停营业)", "Lon_Lat": "116.657072,39.949605", "Longitude": 116.657072, "Latitude": 39.949605, "Gdtype": "汽车服务;加油站;中国石化", "Prov": "北京市", "City": "北京市", "Address": "永顺地区北马庄村(通顺路路东,翠福园小区路东向)", "Operator": "中国石化" }, "geometry": { "type": "Point", "coordinates": [ 116.657072, 39.949605 ] } },
{ "type": "Feature", "properties": { "Name": "中国石化三元东北旺加油站", "Lon_Lat": "116.296539,40.043321", "Longitude": 116.296539, "Latitude": 40.043321, "Gdtype": "汽车服务;加油站;中国石化", "Prov": "北京市", "City": "北京市", "Address": "东北旺路20号与唐家岭路交叉处", "Operator": "中国石化" }, "geometry": { "type": "Point", "coordinates": [ 116.296539, 40.043321 ] } },
{ "type": "Feature", "properties": { "Name": "中国石化龙禹欣顺发加油站", "Lon_Lat": "116.054225,39.721409", "Longitude": 116.054225, "Latitude": 39.721409, "Gdtype": "汽车服务;加油站;中国石化", "Prov": "北京市", "City": "北京市", "Address": "大件路与大窦路交叉处(焦庄村路口南)", "Operator": "中国石化" }, "geometry": { "type": "Point", "coordinates": [ 116.054225, 39.721409 ] } },
{ "type": "Feature", "properties": { "Name": "中国石化清华开拓加油站", "Lon_Lat": "116.315655,40.000477", "Longitude": 116.315655, "Latitude": 40.000477, "Gdtype": "汽车服务;加油站;中国石化", "Prov": "北京市", "City": "北京市", "Address": "北京市海淀区清华大学14区", "Operator": "中国石化" }, "geometry": { "type": "Point", "coordinates": [ 116.315655, 40.000477 ] } },
{ "type": "Feature", "properties": { "Name": "中国石化金燕农良加油站", "Lon_Lat": "116.570217,39.661", "Longitude": 116.570217, "Latitude": 39.661, "Gdtype": "汽车服务;加油站;中国石化", "Prov": "北京市", "City": "北京市", "Address": "长子营镇区良种场西侧", "Operator": "中国石化" }, "geometry": { "type": "Point", "coordinates": [ 116.570217, 39.661 ] } },
{ "type": "Feature", "properties": { "Name": "中国石化服务区加油站", "Lon_Lat": "116.652832,40.054827", "Longitude": 116.652832, "Latitude": 40.054827, "Gdtype": "汽车服务;加油站;中国石化", "Prov": "北京市", "City": "北京市", "Address": [ ], "Operator": "中国石化" }, "geometry": { "type": "Point", "coordinates": [ 116.652832, 40.054827 ] } },
{ "type": "Feature", "properties": { "Name": "中国石化冯家峪加油站", "Lon_Lat": "116.878028,40.610495", "Longitude": 116.878028, "Latitude": 40.610495, "Gdtype": "汽车服务;加油站;中国石化", "Prov": "北京市", "City": "北京市", "Address": "冯家峪石洞子村", "Operator": "中国石化" }, "geometry": { "type": "Point", "coordinates": [ 116.878028, 40.610495 ] } },
{ "type": "Feature", "properties": { "Name": "中国石化兴房加油站", "Lon_Lat": "115.974117,39.680021", "Longitude": 115.974117, "Latitude": 39.680021, "Gdtype": "汽车服务;加油站;中国石化", "Prov": "北京市", "City": "北京市", "Address": "房山街道顾册村北500米", "Operator": "中国石化" }, "geometry": { "type": "Point", "coordinates": [ 115.974117, 39.680021 ] } },
{ "type": "Feature", "properties": { "Name": "中国石化北京通州运政加油站", "Lon_Lat": "116.877492,39.813292", "Longitude": 116.877492, "Latitude": 39.813292, "Gdtype": "汽车服务;加油站;中国石化", "Prov": "北京市", "City": "北京市", "Address": "西集镇车屯村", "Operator": "中国石化" }, "geometry": { "type": "Point", "coordinates": [ 116.877492, 39.813292 ] } },
{ "type": "Feature", "properties": { "Name": "中国石化金福龙加油站", "Lon_Lat": "116.108619,39.943234", "Longitude": 116.108619, "Latitude": 39.943234, "Gdtype": "汽车服务;加油站;中国石化", "Prov": "北京市", "City": "北京市", "Address": "滨河路20号", "Operator": "中国石化" }, "geometry": { "type": "Point", "coordinates": [ 116.108619, 39.943234 ] } },
{ "type": "Feature", "properties": { "Name": "中国石化广宝惠加油站", "Lon_Lat": "116.151505,40.238881", "Longitude": 116.151505, "Latitude": 40.238881, "Gdtype": "汽车服务;加油站;中国石化", "Prov": "北京市", "City": "北京市", "Address": "龙虎台村", "Operator": "中国石化" }, "geometry": { "type": "Point", "coordinates": [ 116.151505, 40.238881 ] } },
{ "type": "Feature", "properties": { "Name": "中国石化房山国华加油站", "Lon_Lat": "115.945498,39.818685", "Longitude": 115.945498, "Latitude": 39.818685, "Gdtype": "汽车服务;加油站;中国石化", "Prov": "北京市", "City": "北京市", "Address": "李各庄村", "Operator": "中国石化" }, "geometry": { "type": "Point", "coordinates": [ 115.945498, 39.818685 ] } },
{ "type": "Feature", "properties": { "Name": "中国石化三元西郊加油站", "Lon_Lat": "116.217148,40.122587", "Longitude": 116.217148, "Latitude": 40.122587, "Gdtype": "汽车服务;加油站;中国石化", "Prov": "北京市", "City": "北京市", "Address": "馨瑞嘉园东侧", "Operator": "中国石化" }, "geometry": { "type": "Point", "coordinates": [ 116.217148, 40.122587 ] } },
{ "type": "Feature", "properties": { "Name": "中国石化三元双桥加油站", "Lon_Lat": "116.589271,39.893027", "Longitude": 116.589271, "Latitude": 39.893027, "Gdtype": "汽车服务;加油站;中国石化", "Prov": "北京市", "City": "北京市", "Address": "双桥中路双桥中学对面", "Operator": "中国石化" }, "geometry": { "type": "Point", "coordinates": [ 116.589271, 39.893027 ] } },
{ "type": "Feature", "properties": { "Name": "中国石化加油站", "Lon_Lat": "116.732598,40.206332", "Longitude": 116.732598, "Latitude": 40.206332, "Gdtype": "汽车服务;加油站;中国石化", "Prov": "北京市", "City": "北京市", "Address": "北小营", "Operator": "中国石化" }, "geometry": { "type": "Point", "coordinates": [ 116.732598, 40.206332 ] } },
{ "type": "Feature", "properties": { "Name": "中国石化大立加油站", "Lon_Lat": "116.439707,39.876121", "Longitude": 116.439707, "Latitude": 39.876121, "Gdtype": "汽车服务;加油站;中国石化", "Prov": "北京市", "City": "北京市", "Address": "龙潭湖公园西侧左安门内大街甲2号", "Operator": "中国石化" }, "geometry": { "type": "Point", "coordinates": [ 116.439707, 39.876121 ] } },
{ "type": "Feature", "properties": { "Name": "中国石化加油站", "Lon_Lat": "116.531867,40.243773", "Longitude": 116.531867, "Latitude": 40.243773, "Gdtype": "汽车服务;加油站;中国石化", "Prov": "北京市", "City": "北京市", "Address": "北石槽村南", "Operator": "中国石化" }, "geometry": { "type": "Point", "coordinates": [ 116.531867, 40.243773 ] } },
{ "type": "Feature", "properties": { "Name": "中国石化妫河南加油站", "Lon_Lat": "115.966334,40.450007", "Longitude": 115.966334, "Latitude": 40.450007, "Gdtype": "汽车服务;加油站;中国石化", "Prov": "北京市", "City": "北京市", "Address": "延康路妫河森林公园往南150米路西", "Operator": "中国石化" }, "geometry": { "type": "Point", "coordinates": [ 115.966334, 40.450007 ] } },
{ "type": "Feature", "properties": { "Name": "中国石化每天来加油站", "Lon_Lat": "116.557953,40.072338", "Longitude": 116.557953, "Latitude": 40.072338, "Gdtype": "汽车服务;加油站;中国石化", "Prov": "北京市", "City": "北京市", "Address": "天竺地区马连店村西(国展地铁站B东北口步行330米)", "Operator": "中国石化" }, "geometry": { "type": "Point", "coordinates": [ 116.557953, 40.072338 ] } },
{ "type": "Feature", "properties": { "Name": "中国石化东环加油站", "Lon_Lat": "116.644144,40.332481", "Longitude": 116.644144, "Latitude": 40.332481, "Gdtype": "汽车服务;加油站;中国石化", "Prov": "北京市", "City": "北京市", "Address": "东环路西侧", "Operator": "中国石化" }, "geometry": { "type": "Point", "coordinates": [ 116.644144, 40.332481 ] } },
{ "type": "Feature", "properties": { "Name": "中国石化北京房山永立加油站", "Lon_Lat": "116.231577,39.76926", "Longitude": 116.231577, "Latitude": 39.76926, "Gdtype": "汽车服务;加油站;中国石化", "Prov": "北京市", "City": "北京市", "Address": "长阳镇马场村", "Operator": "中国石化" }, "geometry": { "type": "Point", "coordinates": [ 116.231577, 39.76926 ] } },
{ "type": "Feature", "properties": { "Name": "中国石化龙禹加油站", "Lon_Lat": "116.653117,39.752983", "Longitude": 116.653117, "Latitude": 39.752983, "Gdtype": "汽车服务;加油站;加油站", "Prov": "北京市", "City": "北京市", "Address": "大杜社村", "Operator": "中国石化" }, "geometry": { "type": "Point", "coordinates": [ 116.653117, 39.752983 ] } },
{ "type": "Feature", "properties": { "Name": "中国石化加油站(富各庄)", "Lon_Lat": "116.645843,40.237530", "Longitude": 116.645843, "Latitude": 40.23753, "Gdtype": "汽车服务;加油站;中国石化", "Prov": "北京市", "City": "北京市", "Address": [ ], "Operator": "中国石化" }, "geometry": { "type": "Point", "coordinates": [ 116.645843, 40.23753 ] } },
{ "type": "Feature", "properties": { "Name": "中国石化东段加油站", "Lon_Lat": "116.425462,39.58091", "Longitude": 116.425462, "Latitude": 39.58091, "Gdtype": "汽车服务;加油站;中国石化", "Prov": "北京市", "City": "北京市", "Address": "礼贤镇东段家务村北路西200米", "Operator": "中国石化" }, "geometry": { "type": "Point", "coordinates": [ 116.425462, 39.58091 ] } },
{ "type": "Feature", "properties": { "Name": "中国石化加油站(卸甲山加油站)", "Lon_Lat": "116.767413,40.427917", "Longitude": 116.767413, "Latitude": 40.427917, "Gdtype": "汽车服务;加油站;中国石化", "Prov": "北京市", "City": "北京市", "Address": "卸甲山村", "Operator": "中国石化" }, "geometry": { "type": "Point", "coordinates": [ 116.767413, 40.427917 ] } },
{ "type": "Feature", "properties": { "Name": "中国石化加油站(暂停营业)", "Lon_Lat": "115.967662,39.71984", "Longitude": 115.967662, "Latitude": 39.71984, "Gdtype": "汽车服务;加油站;中国石化", "Prov": "北京市", "City": "北京市", "Address": "燕山杏花东路西侧", "Operator": "中国石化" }, "geometry": { "type": "Point", "coordinates": [ 115.967662, 39.71984 ] } },
{ "type": "Feature", "properties": { "Name": "中国石化卫星城加油站", "Lon_Lat": "116.345186,39.733331", "Longitude": 116.345186, "Latitude": 39.733331, "Gdtype": "汽车服务;加油站;中国石化", "Prov": "北京市", "City": "北京市", "Address": "黄村镇黄村东大街1号北侧15米", "Operator": "中国石化" }, "geometry": { "type": "Point", "coordinates": [ 116.345186, 39.733331 ] } },
{ "type": "Feature", "properties": { "Name": "中国石化庙城加油站", "Lon_Lat": "116.640538,40.292839", "Longitude": 116.640538, "Latitude": 40.292839, "Gdtype": "汽车服务;加油站;中国石化", "Prov": "北京市", "City": "北京市", "Address": "庙城村东", "Operator": "中国石化" }, "geometry": { "type": "Point", "coordinates": [ 116.640538, 40.292839 ] } },
{ "type": "Feature", "properties": { "Name": "中国石化龙禹加油站", "Lon_Lat": "116.661118,39.955946", "Longitude": 116.661118, "Latitude": 39.955946, "Gdtype": "汽车服务;加油站;中国石化", "Prov": "北京市", "City": "北京市", "Address": "通顺路与富壁路交叉处", "Operator": "中国石化" }, "geometry": { "type": "Point", "coordinates": [ 116.661118, 39.955946 ] } },
{ "type": "Feature", "properties": { "Name": "中国石化三海加油站", "Lon_Lat": "116.208288,39.925308", "Longitude": 116.208288, "Latitude": 39.925308, "Gdtype": "汽车服务;加油站;中国石化", "Prov": "北京市", "City": "北京市", "Address": "阜石路辅路晋元庄1号", "Operator": "中国石化" }, "geometry": { "type": "Point", "coordinates": [ 116.208288, 39.925308 ] } },
{ "type": "Feature", "properties": { "Name": "中国石化马驹桥服务区路网加油站", "Lon_Lat": "116.562563,39.761156", "Longitude": 116.562563, "Latitude": 39.761156, "Gdtype": "汽车服务;加油站;中国石化", "Prov": "北京市", "City": "北京市", "Address": "G2京沪高速东50米", "Operator": "中国石化" }, "geometry": { "type": "Point", "coordinates": [ 116.562563, 39.761156 ] } },
{ "type": "Feature", "properties": { "Name": "中国石化加油站", "Lon_Lat": "116.379374,39.771319", "Longitude": 116.379374, "Latitude": 39.771319, "Gdtype": "汽车服务;加油站;中国石化", "Prov": "北京市", "City": "北京市", "Address": "西红门镇汽车队院内", "Operator": "中国石化" }, "geometry": { "type": "Point", "coordinates": [ 116.379374, 39.771319 ] } },
{ "type": "Feature", "properties": { "Name": "中国石化京榆路加油站", "Lon_Lat": "116.746421,39.946215", "Longitude": 116.746421, "Latitude": 39.946215, "Gdtype": "汽车服务;加油站;中国石化", "Prov": "北京市", "City": "北京市", "Address": "宋庄村东", "Operator": "中国石化" }, "geometry": { "type": "Point", "coordinates": [ 116.746421, 39.946215 ] } },
{ "type": "Feature", "properties": { "Name": "中国石化三元果家店南加油站", "Lon_Lat": "116.607941,39.907587", "Longitude": 116.607941, "Latitude": 39.907587, "Gdtype": "汽车服务;加油站;中国石化", "Prov": "北京市", "City": "北京市", "Address": "建国路2号", "Operator": "中国石化" }, "geometry": { "type": "Point", "coordinates": [ 116.607941, 39.907587 ] } },
{ "type": "Feature", "properties": { "Name": "中国石化加油站", "Lon_Lat": "116.330357,39.693789", "Longitude": 116.330357, "Latitude": 39.693789, "Gdtype": "汽车服务;加油站;中国石化", "Prov": "北京市", "City": "北京市", "Address": "黄村镇大庄桥北200米", "Operator": "中国石化" }, "geometry": { "type": "Point", "coordinates": [ 116.330357, 39.693789 ] } },
{ "type": "Feature", "properties": { "Name": "中国石化房山良鑫源加油站", "Lon_Lat": "116.061584,39.64765", "Longitude": 116.061584, "Latitude": 39.64765, "Gdtype": "汽车服务;加油站;中国石化", "Prov": "北京市", "City": "北京市", "Address": "窦店镇窦店村西", "Operator": "中国石化" }, "geometry": { "type": "Point", "coordinates": [ 116.061584, 39.64765 ] } },
{ "type": "Feature", "properties": { "Name": "中国石化鹿圈加油站", "Lon_Lat": "116.495836,39.77319", "Longitude": 116.495836, "Latitude": 39.77319, "Gdtype": "汽车服务;加油站;中国石化", "Prov": "北京市", "City": "北京市", "Address": "亦庄镇鹿圈农机站东侧100米", "Operator": "中国石化" }, "geometry": { "type": "Point", "coordinates": [ 116.495836, 39.77319 ] } },
{ "type": "Feature", "properties": { "Name": "中国石化十三里加油站", "Lon_Lat": "116.106913,39.689088", "Longitude": 116.106913, "Latitude": 39.689088, "Gdtype": "汽车服务;加油站;中国石化", "Prov": "北京市", "City": "北京市", "Address": "阎村镇大十三里村", "Operator": "中国石化" }, "geometry": { "type": "Point", "coordinates": [ 116.106913, 39.689088 ] } },
{ "type": "Feature", "properties": { "Name": "中国石化宏达加油站", "Lon_Lat": "117.043754,40.234889", "Longitude": 117.043754, "Latitude": 40.234889, "Gdtype": "汽车服务;加油站;中国石化", "Prov": "北京市", "City": "北京市", "Address": "前北宫村南", "Operator": "中国石化" }, "geometry": { "type": "Point", "coordinates": [ 117.043754, 40.234889 ] } },
{ "type": "Feature", "properties": { "Name": "中国石化石五联加油站", "Lon_Lat": "116.476890,39.898824", "Longitude": 116.47689, "Latitude": 39.898824, "Gdtype": "汽车服务;加油站;加油站", "Prov": "北京市", "City": "北京市", "Address": "西大望路20号", "Operator": "中国石化" }, "geometry": { "type": "Point", "coordinates": [ 116.47689, 39.898824 ] } },
{ "type": "Feature", "properties": { "Name": "中国石化加油站", "Lon_Lat": "116.618086,40.211537", "Longitude": 116.618086, "Latitude": 40.211537, "Gdtype": "汽车服务;加油站;中国石化", "Prov": "北京市", "City": "北京市", "Address": "赵全营镇昌金路与南陈路交叉口", "Operator": "中国石化" }, "geometry": { "type": "Point", "coordinates": [ 116.618086, 40.211537 ] } },
{ "type": "Feature", "properties": { "Name": "中国石化加油站", "Lon_Lat": "116.265037,39.872144", "Longitude": 116.265037, "Latitude": 39.872144, "Gdtype": "汽车服务;加油站;中国石化", "Prov": "北京市", "City": "北京市", "Address": "田各庄村(永定路南延东侧)", "Operator": "中国石化" }, "geometry": { "type": "Point", "coordinates": [ 116.265037, 39.872144 ] } },
{ "type": "Feature", "properties": { "Name": "中国石化田村加油站", "Lon_Lat": "116.26018,39.931422", "Longitude": 116.26018, "Latitude": 39.931422, "Gdtype": "汽车服务;加油站;中国石化", "Prov": "北京市", "City": "北京市", "Address": "半壁店64号", "Operator": "中国石化" }, "geometry": { "type": "Point", "coordinates": [ 116.26018, 39.931422 ] } },
{ "type": "Feature", "properties": { "Name": "中国石化龙合宫加油站", "Lon_Lat": "116.725389,40.122985", "Longitude": 116.725389, "Latitude": 40.122985, "Gdtype": "汽车服务;加油站;中国石化", "Prov": "北京市", "City": "北京市", "Address": "河北村", "Operator": "中国石化" }, "geometry": { "type": "Point", "coordinates": [ 116.725389, 40.122985 ] } },
{ "type": "Feature", "properties": { "Name": "中国石化燕山上苑加油站", "Lon_Lat": "116.450284,40.230065", "Longitude": 116.450284, "Latitude": 40.230065, "Gdtype": "汽车服务;加油站;中国石化", "Prov": "北京市", "City": "北京市", "Address": "怀昌路兴寿镇下苑村路段路北,老徐苹果采摘园附近", "Operator": "中国石化" }, "geometry": { "type": "Point", "coordinates": [ 116.450284, 40.230065 ] } },
{ "type": "Feature", "properties": { "Name": "中国石化龙禹加油站(暂停营业)", "Lon_Lat": "115.953378,39.823895", "Longitude": 115.953378, "Latitude": 39.823895, "Gdtype": "汽车服务;加油站;中国石化", "Prov": "北京市", "City": "北京市", "Address": "河北镇檀木港村西", "Operator": "中国石化" }, "geometry": { "type": "Point", "coordinates": [ 115.953378, 39.823895 ] } },
{ "type": "Feature", "properties": { "Name": "中国石化京教加油站", "Lon_Lat": "116.687221,39.931145", "Longitude": 116.687221, "Latitude": 39.931145, "Gdtype": "汽车服务;加油站;中国石化", "Prov": "北京市", "City": "北京市", "Address": "永顺地区耿庄村东", "Operator": "中国石化" }, "geometry": { "type": "Point", "coordinates": [ 116.687221, 39.931145 ] } },
{ "type": "Feature", "properties": { "Name": "中国石化实华加油站", "Lon_Lat": "116.361793,39.956103", "Longitude": 116.361793, "Latitude": 39.956103, "Gdtype": "汽车服务;加油站;中国石化", "Prov": "北京市", "City": "北京市", "Address": "文慧园北路10号", "Operator": "中国石化" }, "geometry": { "type": "Point", "coordinates": [ 116.361793, 39.956103 ] } },
{ "type": "Feature", "properties": { "Name": "中国石化一路好运加油站", "Lon_Lat": "117.323227,40.638853", "Longitude": 117.323227, "Latitude": 40.638853, "Gdtype": "汽车服务;加油站;中国石化", "Prov": "北京市", "City": "北京市", "Address": "新城子村", "Operator": "中国石化" }, "geometry": { "type": "Point", "coordinates": [ 117.323227, 40.638853 ] } },
{ "type": "Feature", "properties": { "Name": "中国石化润辰华益加油站", "Lon_Lat": "115.990346,39.739385", "Longitude": 115.990346, "Latitude": 39.739385, "Gdtype": "汽车服务;加油站;中国石化", "Prov": "北京市", "City": "北京市", "Address": "燕山中国石化加油站(009县道西)", "Operator": "中国石化" }, "geometry": { "type": "Point", "coordinates": [ 115.990346, 39.739385 ] } },
{ "type": "Feature", "properties": { "Name": "中国石化加油站", "Lon_Lat": "116.794519,39.782013", "Longitude": 116.794519, "Latitude": 39.782013, "Gdtype": "汽车服务;加油站;中国石化", "Prov": "北京市", "City": "北京市", "Address": "漷县镇长凌营道口", "Operator": "中国石化" }, "geometry": { "type": "Point", "coordinates": [ 116.794519, 39.782013 ] } },
{ "type": "Feature", "properties": { "Name": "中国石化高两河加油站", "Lon_Lat": "116.640997,40.287829", "Longitude": 116.640997, "Latitude": 40.287829, "Gdtype": "汽车服务;加油站;中国石化", "Prov": "北京市", "City": "北京市", "Address": "庙城镇高两河路口西侧", "Operator": "中国石化" }, "geometry": { "type": "Point", "coordinates": [ 116.640997, 40.287829 ] } },
{ "type": "Feature", "properties": { "Name": "中国石化真顺加油站", "Lon_Lat": "116.350103,40.219675", "Longitude": 116.350103, "Latitude": 40.219675, "Gdtype": "汽车服务;加油站;中国石化", "Prov": "北京市", "City": "北京市", "Address": "真顺村", "Operator": "中国石化" }, "geometry": { "type": "Point", "coordinates": [ 116.350103, 40.219675 ] } },
{ "type": "Feature", "properties": { "Name": "中国石化三联加油站", "Lon_Lat": "116.884322,40.119585", "Longitude": 116.884322, "Latitude": 40.119585, "Gdtype": "汽车服务;加油站;中国石化", "Prov": "北京市", "City": "北京市", "Address": "赵家峪村西", "Operator": "中国石化" }, "geometry": { "type": "Point", "coordinates": [ 116.884322, 40.119585 ] } },
{ "type": "Feature", "properties": { "Name": "中国石化鑫溢都加油站", "Lon_Lat": "116.344514,39.783536", "Longitude": 116.344514, "Latitude": 39.783536, "Gdtype": "汽车服务;加油站;中国石化", "Prov": "北京市", "City": "北京市", "Address": "西红门镇", "Operator": "中国石化" }, "geometry": { "type": "Point", "coordinates": [ 116.344514, 39.783536 ] } },
{ "type": "Feature", "properties": { "Name": "中国石化华电加油站(北五村小区路)", "Lon_Lat": "116.528778,39.743252", "Longitude": 116.528778, "Latitude": 39.743252, "Gdtype": "汽车服务;加油站;中国石化", "Prov": "北京市", "City": "北京市", "Address": "西红门", "Operator": "中国石化" }, "geometry": { "type": "Point", "coordinates": [ 116.528778, 39.743252 ] } },
{ "type": "Feature", "properties": { "Name": "中国石化城西加油站", "Lon_Lat": "117.103488,40.145072", "Longitude": 117.103488, "Latitude": 40.145072, "Gdtype": "汽车服务;加油站;中国石化", "Prov": "北京市", "City": "北京市", "Address": "平谷镇新平北路64号", "Operator": "中国石化" }, "geometry": { "type": "Point", "coordinates": [ 117.103488, 40.145072 ] } },
{ "type": "Feature", "properties": { "Name": "中国石化上庄加油站", "Lon_Lat": "116.215463,40.091728", "Longitude": 116.215463, "Latitude": 40.091728, "Gdtype": "汽车服务;加油站;中国石化", "Prov": "北京市", "City": "北京市", "Address": "西马坊路103", "Operator": "中国石化" }, "geometry": { "type": "Point", "coordinates": [ 116.215463, 40.091728 ] } },
{ "type": "Feature", "properties": { "Name": "中国石化延庆京西加油站(暂停营业)", "Lon_Lat": "115.787562,40.436816", "Longitude": 115.787562, "Latitude": 40.436816, "Gdtype": "汽车服务;加油站;中国石化", "Prov": "北京市", "City": "北京市", "Address": "下营村西", "Operator": "中国石化" }, "geometry": { "type": "Point", "coordinates": [ 115.787562, 40.436816 ] } },
{ "type": "Feature", "properties": { "Name": "中国石化中垦丰南加油站", "Lon_Lat": "116.345831,39.814704", "Longitude": 116.345831, "Latitude": 39.814704, "Gdtype": "汽车服务;加油站;中国石化", "Prov": "北京市", "City": "北京市", "Address": "新发地洗车厂南侧", "Operator": "中国石化" }, "geometry": { "type": "Point", "coordinates": [ 116.345831, 39.814704 ] } },
{ "type": "Feature", "properties": { "Name": "中国石化北京怀柔九渡河桥加油站", "Lon_Lat": "116.367611,40.367357", "Longitude": 116.367611, "Latitude": 40.367357, "Gdtype": "汽车服务;加油站;中国石化", "Prov": "北京市", "City": "北京市", "Address": "九渡河镇九渡河村西", "Operator": "中国石化" }, "geometry": { "type": "Point", "coordinates": [ 116.367611, 40.367357 ] } },
{ "type": "Feature", "properties": { "Name": "中国石化京北加油站", "Lon_Lat": "116.111975,40.365382", "Longitude": 116.111975, "Latitude": 40.365382, "Gdtype": "汽车服务;加油站;中国石化", "Prov": "北京市", "City": "北京市", "Address": "西二道河乡碓臼石村", "Operator": "中国石化" }, "geometry": { "type": "Point", "coordinates": [ 116.111975, 40.365382 ] } },
{ "type": "Feature", "properties": { "Name": "中国石化加油站(暂停营业)", "Lon_Lat": "116.27641,39.8935", "Longitude": 116.27641, "Latitude": 39.8935, "Gdtype": "汽车服务;加油站;中国石化", "Prov": "北京市", "City": "北京市", "Address": "卢沟桥西四环中路京铁家园", "Operator": "中国石化" }, "geometry": { "type": "Point", "coordinates": [ 116.27641, 39.8935 ] } },
{ "type": "Feature", "properties": { "Name": "中国石化后苇沟加油站", "Lon_Lat": "116.551784,40.030262", "Longitude": 116.551784, "Latitude": 40.030262, "Gdtype": "汽车服务;加油站;中国石化", "Prov": "北京市", "City": "北京市", "Address": "北京市朝阳区孙河乡康营东路苇沟环岛北", "Operator": "中国石化" }, "geometry": { "type": "Point", "coordinates": [ 116.551784, 40.030262 ] } },
{ "type": "Feature", "properties": { "Name": "中国石化长青加油站", "Lon_Lat": "116.558076,40.078049", "Longitude": 116.558076, "Latitude": 40.078049, "Gdtype": "汽车服务;加油站;中国石化", "Prov": "北京市", "City": "北京市", "Address": "花梨坎村东", "Operator": "中国石化" }, "geometry": { "type": "Point", "coordinates": [ 116.558076, 40.078049 ] } },
{ "type": "Feature", "properties": { "Name": "中国石化加油站(张村祖传正骨东)", "Lon_Lat": "116.076441,39.722211", "Longitude": 116.076441, "Latitude": 39.722211, "Gdtype": "汽车服务;加油站;中国石化", "Prov": "北京市", "City": "北京市", "Address": [ ], "Operator": "中国石化" }, "geometry": { "type": "Point", "coordinates": [ 116.076441, 39.722211 ] } },
{ "type": "Feature", "properties": { "Name": "中国石化南邵加油站", "Lon_Lat": "116.28061,40.208364", "Longitude": 116.28061, "Latitude": 40.208364, "Gdtype": "汽车服务;加油站;中国石化", "Prov": "北京市", "City": "北京市", "Address": "南邵镇南邵村西", "Operator": "中国石化" }, "geometry": { "type": "Point", "coordinates": [ 116.28061, 40.208364 ] } },
{ "type": "Feature", "properties": { "Name": "中国石化赵辛店加油站", "Lon_Lat": "116.196564,39.807065", "Longitude": 116.196564, "Latitude": 39.807065, "Gdtype": "汽车服务;加油站;加油站", "Prov": "北京市", "City": "北京市", "Address": "赵辛店村99号(京石高速路赵辛店出口向南过红绿灯约500米)", "Operator": "中国石化" }, "geometry": { "type": "Point", "coordinates": [ 116.196564, 39.807065 ] } },
{ "type": "Feature", "properties": { "Name": "中国石化大都加油站", "Lon_Lat": "116.20554,40.04059", "Longitude": 116.20554, "Latitude": 40.04059, "Gdtype": "汽车服务;加油站;中国石化", "Prov": "北京市", "City": "北京市", "Address": "太舟坞钢管厂内", "Operator": "中国石化" }, "geometry": { "type": "Point", "coordinates": [ 116.20554, 40.04059 ] } },
{ "type": "Feature", "properties": { "Name": "中国石化加油站(暂停营业)", "Lon_Lat": "116.543175,40.099407", "Longitude": 116.543175, "Latitude": 40.099407, "Gdtype": "汽车服务;加油站;中国石化", "Prov": "北京市", "City": "北京市", "Address": "后沙峪地区裕民大街南侧", "Operator": "中国石化" }, "geometry": { "type": "Point", "coordinates": [ 116.543175, 40.099407 ] } },
{ "type": "Feature", "properties": { "Name": "中国石化霍营京汤加油站(暂停营业)", "Lon_Lat": "116.411156,40.089393", "Longitude": 116.411156, "Latitude": 40.089393, "Gdtype": "汽车服务;加油站;中国石化", "Prov": "北京市", "City": "北京市", "Address": "霍营半塔村村东", "Operator": "中国石化" }, "geometry": { "type": "Point", "coordinates": [ 116.411156, 40.089393 ] } },
{ "type": "Feature", "properties": { "Name": "中国石化房山龙轩加油站", "Lon_Lat": "115.948699,39.822502", "Longitude": 115.948699, "Latitude": 39.822502, "Gdtype": "汽车服务;加油站;中国石化", "Prov": "北京市", "City": "北京市", "Address": "李各庄村", "Operator": "中国石化" }, "geometry": { "type": "Point", "coordinates": [ 115.948699, 39.822502 ] } },
{ "type": "Feature", "properties": { "Name": "中国石化服务区加油站", "Lon_Lat": "116.647524,39.809097", "Longitude": 116.647524, "Latitude": 39.809097, "Gdtype": "汽车服务;加油站;中国石化", "Prov": "北京市", "City": "北京市", "Address": "东六环与服务区交叉口东150米", "Operator": "中国石化" }, "geometry": { "type": "Point", "coordinates": [ 116.647524, 39.809097 ] } },
{ "type": "Feature", "properties": { "Name": "中国石化石富丰加油站", "Lon_Lat": "116.286026,39.837144", "Longitude": 116.286026, "Latitude": 39.837144, "Gdtype": "汽车服务;加油站;中国石化", "Prov": "北京市", "City": "北京市", "Address": "西四环南路109号", "Operator": "中国石化" }, "geometry": { "type": "Point", "coordinates": [ 116.286026, 39.837144 ] } },
{ "type": "Feature", "properties": { "Name": "中国石化京俸伯加油站", "Lon_Lat": "116.704118,40.141629", "Longitude": 116.704118, "Latitude": 40.141629, "Gdtype": "汽车服务;加油站;中国石化", "Prov": "北京市", "City": "北京市", "Address": "潮白河东路北", "Operator": "中国石化" }, "geometry": { "type": "Point", "coordinates": [ 116.704118, 40.141629 ] } },
{ "type": "Feature", "properties": { "Name": "中国石化加油站", "Lon_Lat": "116.321066,39.717734", "Longitude": 116.321066, "Latitude": 39.717734, "Gdtype": "汽车服务;加油站;中国石化", "Prov": "北京市", "City": "北京市", "Address": "黄村镇义和庄北路与太福路交叉口往西150米", "Operator": "中国石化" }, "geometry": { "type": "Point", "coordinates": [ 116.321066, 39.717734 ] } },
{ "type": "Feature", "properties": { "Name": "中国石化燕开兴加油站", "Lon_Lat": "116.361494,39.793142", "Longitude": 116.361494, "Latitude": 39.793142, "Gdtype": "汽车服务;加油站;中国石化", "Prov": "北京市", "City": "北京市", "Address": "西红门镇西红门路26号", "Operator": "中国石化" }, "geometry": { "type": "Point", "coordinates": [ 116.361494, 39.793142 ] } },
{ "type": "Feature", "properties": { "Name": "中国石化京侨加油站", "Lon_Lat": "116.572375,39.884926", "Longitude": 116.572375, "Latitude": 39.884926, "Gdtype": "汽车服务;加油站;中国石化", "Prov": "北京市", "City": "北京市", "Address": "双桥中路于家围村东临21号", "Operator": "中国石化" }, "geometry": { "type": "Point", "coordinates": [ 116.572375, 39.884926 ] } },
{ "type": "Feature", "properties": { "Name": "中国石化庆海河加油站", "Lon_Lat": "116.83171,40.346265", "Longitude": 116.83171, "Latitude": 40.346265, "Gdtype": "汽车服务;加油站;中国石化", "Prov": "北京市", "City": "北京市", "Address": "河南寨镇潮河大桥西侧", "Operator": "中国石化" }, "geometry": { "type": "Point", "coordinates": [ 116.83171, 40.346265 ] } },
{ "type": "Feature", "properties": { "Name": "中国石化加油站", "Lon_Lat": "116.068697,39.658875", "Longitude": 116.068697, "Latitude": 39.658875, "Gdtype": "汽车服务;加油站;中国石化", "Prov": "北京市", "City": "北京市", "Address": "窦店镇田家园村", "Operator": "中国石化" }, "geometry": { "type": "Point", "coordinates": [ 116.068697, 39.658875 ] } },
{ "type": "Feature", "properties": { "Name": "中国石化北庄加油站", "Lon_Lat": "115.982994,39.713433", "Longitude": 115.982994, "Latitude": 39.713433, "Gdtype": "汽车服务;加油站;中国石化", "Prov": "北京市", "City": "北京市", "Address": "燕山燕房路100号", "Operator": "中国石化" }, "geometry": { "type": "Point", "coordinates": [ 115.982994, 39.713433 ] } },
{ "type": "Feature", "properties": { "Name": "中国石化龙禹太阳宫加油站", "Lon_Lat": "116.453119,39.978043", "Longitude": 116.453119, "Latitude": 39.978043, "Gdtype": "汽车服务;加油站;中国石化", "Prov": "北京市", "City": "北京市", "Address": "太阳宫中路4号", "Operator": "中国石化" }, "geometry": { "type": "Point", "coordinates": [ 116.453119, 39.978043 ] } },
{ "type": "Feature", "properties": { "Name": "中国石化燕东兴加油站", "Lon_Lat": "117.172243,40.168269", "Longitude": 117.172243, "Latitude": 40.168269, "Gdtype": "汽车服务;加油站;中国石化", "Prov": "北京市", "City": "北京市", "Address": "山东庄镇北寺村东(平蓟路北)", "Operator": "中国石化" }, "geometry": { "type": "Point", "coordinates": [ 117.172243, 40.168269 ] } },
{ "type": "Feature", "properties": { "Name": "中国石化加油站(暂停营业)", "Lon_Lat": "116.844387,39.799206", "Longitude": 116.844387, "Latitude": 39.799206, "Gdtype": "汽车服务;加油站;中国石化", "Prov": "北京市", "City": "北京市", "Address": "郎府供销社煤场", "Operator": "中国石化" }, "geometry": { "type": "Point", "coordinates": [ 116.844387, 39.799206 ] } },
{ "type": "Feature", "properties": { "Name": "中国石化宏路国加油站", "Lon_Lat": "116.170148,40.179214", "Longitude": 116.170148, "Latitude": 40.179214, "Gdtype": "汽车服务;加油站;中国石化", "Prov": "北京市", "City": "北京市", "Address": "北小营村南", "Operator": "中国石化" }, "geometry": { "type": "Point", "coordinates": [ 116.170148, 40.179214 ] } },
{ "type": "Feature", "properties": { "Name": "中国石化昌保加油站", "Lon_Lat": "116.207995,40.223581", "Longitude": 116.207995, "Latitude": 40.223581, "Gdtype": "汽车服务;加油站;中国石化", "Prov": "北京市", "City": "北京市", "Address": "北郝庄村", "Operator": "中国石化" }, "geometry": { "type": "Point", "coordinates": [ 116.207995, 40.223581 ] } },
{ "type": "Feature", "properties": { "Name": "中国石化龙禹五环加油站", "Lon_Lat": "116.436601,40.02244", "Longitude": 116.436601, "Latitude": 40.02244, "Gdtype": "汽车服务;加油站;中国石化", "Prov": "北京市", "City": "北京市", "Address": "来广营乡北苑村", "Operator": "中国石化" }, "geometry": { "type": "Point", "coordinates": [ 116.436601, 40.02244 ] } },
{ "type": "Feature", "properties": { "Name": "中国石化采育加油站", "Lon_Lat": "116.633879,39.644197", "Longitude": 116.633879, "Latitude": 39.644197, "Gdtype": "汽车服务;加油站;中国石化", "Prov": "北京市", "City": "北京市", "Address": "采育镇南口", "Operator": "中国石化" }, "geometry": { "type": "Point", "coordinates": [ 116.633879, 39.644197 ] } },
{ "type": "Feature", "properties": { "Name": "中国石化亚运加油站", "Lon_Lat": "116.429453,39.988564", "Longitude": 116.429453, "Latitude": 39.988564, "Gdtype": "汽车服务;加油站;中国石化", "Prov": "北京市", "City": "北京市", "Address": "北四环东路高原街乙2号", "Operator": "中国石化" }, "geometry": { "type": "Point", "coordinates": [ 116.429453, 39.988564 ] } },
{ "type": "Feature", "properties": { "Name": "中国石化九棵树加油站", "Lon_Lat": "116.660626,39.89005", "Longitude": 116.660626, "Latitude": 39.89005, "Gdtype": "汽车服务;加油站;中国石化", "Prov": "北京市", "City": "北京市", "Address": "梨园镇九棵树", "Operator": "中国石化" }, "geometry": { "type": "Point", "coordinates": [ 116.660626, 39.89005 ] } },
{ "type": "Feature", "properties": { "Name": "中国石化凯旋加油站", "Lon_Lat": "116.148029,39.72962", "Longitude": 116.148029, "Latitude": 39.72962, "Gdtype": "汽车服务;加油站;中国石化", "Prov": "北京市", "City": "北京市", "Address": "良乡昊天大街118号", "Operator": "中国石化" }, "geometry": { "type": "Point", "coordinates": [ 116.148029, 39.72962 ] } },
{ "type": "Feature", "properties": { "Name": "中国石化航天加油站", "Lon_Lat": "116.26917,40.07534", "Longitude": 116.26917, "Latitude": 40.07534, "Gdtype": "汽车服务;加油站;中国石化", "Prov": "北京市", "City": "北京市", "Address": "友谊路103号", "Operator": "中国石化" }, "geometry": { "type": "Point", "coordinates": [ 116.26917, 40.07534 ] } },
{ "type": "Feature", "properties": { "Name": "中国石化张辛加油站", "Lon_Lat": "116.677924,40.015208", "Longitude": 116.677924, "Latitude": 40.015208, "Gdtype": "汽车服务;加油站;中国石化", "Prov": "北京市", "City": "北京市", "Address": "张辛庄村南", "Operator": "中国石化" }, "geometry": { "type": "Point", "coordinates": [ 116.677924, 40.015208 ] } },
{ "type": "Feature", "properties": { "Name": "中国石化路顺加油站", "Lon_Lat": "116.656306,40.314377", "Longitude": 116.656306, "Latitude": 40.314377, "Gdtype": "汽车服务;加油站;中国石化", "Prov": "北京市", "City": "北京市", "Address": "怀柔镇张各长路口", "Operator": "中国石化" }, "geometry": { "type": "Point", "coordinates": [ 116.656306, 40.314377 ] } },
{ "type": "Feature", "properties": { "Name": "中国石化观音堂西加油站", "Lon_Lat": "116.547583,39.887506", "Longitude": 116.547583, "Latitude": 39.887506, "Gdtype": "汽车服务;加油站;中国石化", "Prov": "北京市", "City": "北京市", "Address": [ ], "Operator": "中国石化" }, "geometry": { "type": "Point", "coordinates": [ 116.547583, 39.887506 ] } },
{ "type": "Feature", "properties": { "Name": "中国石化服务区加油站", "Lon_Lat": "116.328052,39.830321", "Longitude": 116.328052, "Latitude": 39.830321, "Gdtype": "汽车服务;加油站;中国石化", "Prov": "北京市", "City": "北京市", "Address": "南四环西路64号", "Operator": "中国石化" }, "geometry": { "type": "Point", "coordinates": [ 116.328052, 39.830321 ] } },
{ "type": "Feature", "properties": { "Name": "中国石化首发能源加油站", "Lon_Lat": "116.477264,39.841094", "Longitude": 116.477264, "Latitude": 39.841094, "Gdtype": "汽车服务;加油站;中国石化", "Prov": "北京市", "City": "北京市", "Address": "南四环东路2号", "Operator": "中国石化" }, "geometry": { "type": "Point", "coordinates": [ 116.477264, 39.841094 ] } },
{ "type": "Feature", "properties": { "Name": "中国石化陈庄加油站", "Lon_Lat": "116.166558,40.234094", "Longitude": 116.166558, "Latitude": 40.234094, "Gdtype": "汽车服务;加油站;中国石化", "Prov": "北京市", "City": "北京市", "Address": "陈庄村", "Operator": "中国石化" }, "geometry": { "type": "Point", "coordinates": [ 116.166558, 40.234094 ] } },
{ "type": "Feature", "properties": { "Name": "中国石化化工路加油站", "Lon_Lat": "116.49255,39.881147", "Longitude": 116.49255, "Latitude": 39.881147, "Gdtype": "汽车服务;加油站;加油站", "Prov": "北京市", "City": "北京市", "Address": "化工路南楼梓庄村北", "Operator": "中国石化" }, "geometry": { "type": "Point", "coordinates": [ 116.49255, 39.881147 ] } },
{ "type": "Feature", "properties": { "Name": "中国石化加油站", "Lon_Lat": "116.516111,39.916560", "Longitude": 116.516111, "Latitude": 39.91656, "Gdtype": "汽车服务;加油站;加油站", "Prov": "北京市", "City": "北京市", "Address": "甘露园南里", "Operator": "中国石化" }, "geometry": { "type": "Point", "coordinates": [ 116.516111, 39.91656 ] } },
{ "type": "Feature", "properties": { "Name": "中国石化于觅路加油站", "Lon_Lat": "116.821926,39.707546", "Longitude": 116.821926, "Latitude": 39.707546, "Gdtype": "汽车服务;加油站;中国石化", "Prov": "北京市", "City": "北京市", "Address": "永乐店镇老槐庄村委会西100米", "Operator": "中国石化" }, "geometry": { "type": "Point", "coordinates": [ 116.821926, 39.707546 ] } },
{ "type": "Feature", "properties": { "Name": "中国石化加油站", "Lon_Lat": "116.647818,39.811137", "Longitude": 116.647818, "Latitude": 39.811137, "Gdtype": "汽车服务;加油站;中国石化", "Prov": "北京市", "City": "北京市", "Address": "台湖镇北火垡村,六环主路52-53公里内西", "Operator": "中国石化" }, "geometry": { "type": "Point", "coordinates": [ 116.647818, 39.811137 ] } },
{ "type": "Feature", "properties": { "Name": "中国石化城南加油站", "Lon_Lat": "116.647528,39.880048", "Longitude": 116.647528, "Latitude": 39.880048, "Gdtype": "汽车服务;加油站;中国石化", "Prov": "北京市", "City": "北京市", "Address": "梨园镇西小马庄村东", "Operator": "中国石化" }, "geometry": { "type": "Point", "coordinates": [ 116.647528, 39.880048 ] } },
{ "type": "Feature", "properties": { "Name": "中国石化加油站", "Lon_Lat": "116.025764,39.974103", "Longitude": 116.025764, "Latitude": 39.974103, "Gdtype": "汽车服务;加油站;中国石化", "Prov": "北京市", "City": "北京市", "Address": "王平地区办事处西马各庄村", "Operator": "中国石化" }, "geometry": { "type": "Point", "coordinates": [ 116.025764, 39.974103 ] } },
{ "type": "Feature", "properties": { "Name": "中国石化王府加油站", "Lon_Lat": "116.407668,40.125927", "Longitude": 116.407668, "Latitude": 40.125927, "Gdtype": "汽车服务;加油站;中国石化", "Prov": "北京市", "City": "北京市", "Address": "东沙各庄369号", "Operator": "中国石化" }, "geometry": { "type": "Point", "coordinates": [ 116.407668, 40.125927 ] } },
{ "type": "Feature", "properties": { "Name": "中国石化古海城加油站", "Lon_Lat": "116.409761,40.530551", "Longitude": 116.409761, "Latitude": 40.530551, "Gdtype": "汽车服务;加油站;中国石化", "Prov": "北京市", "City": "北京市", "Address": "四海村", "Operator": "中国石化" }, "geometry": { "type": "Point", "coordinates": [ 116.409761, 40.530551 ] } },
{ "type": "Feature", "properties": { "Name": "中国石化军响加油站(暂停营业)", "Lon_Lat": "115.779621,40.00024", "Longitude": 115.779621, "Latitude": 40.00024, "Gdtype": "汽车服务;加油站;中国石化", "Prov": "北京市", "City": "北京市", "Address": "军响村东", "Operator": "中国石化" }, "geometry": { "type": "Point", "coordinates": [ 115.779621, 40.00024 ] } },
{ "type": "Feature", "properties": { "Name": "中国石化加油站", "Lon_Lat": "115.90391,39.589903", "Longitude": 115.90391, "Latitude": 39.589903, "Gdtype": "汽车服务;加油站;中国石化", "Prov": "北京市", "City": "北京市", "Address": "长沟镇房易路", "Operator": "中国石化" }, "geometry": { "type": "Point", "coordinates": [ 115.90391, 39.589903 ] } },
{ "type": "Feature", "properties": { "Name": "中国石化加油站(三台山路)(暂停营业)", "Lon_Lat": "116.452198,39.826193", "Longitude": 116.452198, "Latitude": 39.826193, "Gdtype": "汽车服务;加油站;中国石化", "Prov": "北京市", "City": "北京市", "Address": "小红门镇三台山路23号瑞佛莱士汽车美容对面", "Operator": "中国石化" }, "geometry": { "type": "Point", "coordinates": [ 116.452198, 39.826193 ] } },
{ "type": "Feature", "properties": { "Name": "中国石化汇杰鑫加油站", "Lon_Lat": "116.570543,39.975699", "Longitude": 116.570543, "Latitude": 39.975699, "Gdtype": "汽车服务;加油站;中国石化", "Prov": "北京市", "City": "北京市", "Address": "东坝乡马场路口南", "Operator": "中国石化" }, "geometry": { "type": "Point", "coordinates": [ 116.570543, 39.975699 ] } },
{ "type": "Feature", "properties": { "Name": "中国石化苏庄加油站", "Lon_Lat": "116.123065,39.730736", "Longitude": 116.123065, "Latitude": 39.730736, "Gdtype": "汽车服务;加油站;中国石化", "Prov": "北京市", "City": "北京市", "Address": "良乡镇月华南大街2号", "Operator": "中国石化" }, "geometry": { "type": "Point", "coordinates": [ 116.123065, 39.730736 ] } },
{ "type": "Feature", "properties": { "Name": "中国石化东关加油站", "Lon_Lat": "116.262143,40.228592", "Longitude": 116.262143, "Latitude": 40.228592, "Gdtype": "汽车服务;加油站;中国石化", "Prov": "北京市", "City": "北京市", "Address": "水库路", "Operator": "中国石化" }, "geometry": { "type": "Point", "coordinates": [ 116.262143, 40.228592 ] } },
{ "type": "Feature", "properties": { "Name": "中国石化加油站", "Lon_Lat": "116.713082,40.099892", "Longitude": 116.713082, "Latitude": 40.099892, "Gdtype": "汽车服务;加油站;中国石化", "Prov": "北京市", "City": "北京市", "Address": "双河大街甲1号", "Operator": "中国石化" }, "geometry": { "type": "Point", "coordinates": [ 116.713082, 40.099892 ] } },
{ "type": "Feature", "properties": { "Name": "中国石化安宁庄加油站", "Lon_Lat": "116.320494,40.049008", "Longitude": 116.320494, "Latitude": 40.049008, "Gdtype": "汽车服务;加油站;中国石化", "Prov": "北京市", "City": "北京市", "Address": "安宁庄村西侧", "Operator": "中国石化" }, "geometry": { "type": "Point", "coordinates": [ 116.320494, 40.049008 ] } },
{ "type": "Feature", "properties": { "Name": "中国石化玉泉营加油站", "Lon_Lat": "116.347741,39.843112", "Longitude": 116.347741, "Latitude": 39.843112, "Gdtype": "汽车服务;加油站;中国石化", "Prov": "北京市", "City": "北京市", "Address": "右外玉泉营27号(东方家园对面)", "Operator": "中国石化" }, "geometry": { "type": "Point", "coordinates": [ 116.347741, 39.843112 ] } },
{ "type": "Feature", "properties": { "Name": "中国石化羊坊加油站(明春苑东南)", "Lon_Lat": "116.301983,39.781573", "Longitude": 116.301983, "Latitude": 39.781573, "Gdtype": "汽车服务;加油站;中国石化", "Prov": "北京市", "City": "北京市", "Address": "京良公路羊坊村南", "Operator": "中国石化" }, "geometry": { "type": "Point", "coordinates": [ 116.301983, 39.781573 ] } },
{ "type": "Feature", "properties": { "Name": "中国石化台宜加油站", "Lon_Lat": "116.297595,39.879644", "Longitude": 116.297595, "Latitude": 39.879644, "Gdtype": "汽车服务;加油站;中国石化", "Prov": "北京市", "City": "北京市", "Address": "小井村东广安路(六里桥地铁站A西北口步行470米)", "Operator": "中国石化" }, "geometry": { "type": "Point", "coordinates": [ 116.297595, 39.879644 ] } },
{ "type": "Feature", "properties": { "Name": "中国石化快洁加油站", "Lon_Lat": "116.470112,39.892908", "Longitude": 116.470112, "Latitude": 39.892908, "Gdtype": "汽车服务;加油站;中国石化", "Prov": "北京市", "City": "北京市", "Address": "广渠路34号院", "Operator": "中国石化" }, "geometry": { "type": "Point", "coordinates": [ 116.470112, 39.892908 ] } },
{ "type": "Feature", "properties": { "Name": "中国石化加油站(暂停营业)", "Lon_Lat": "116.341055,39.851144", "Longitude": 116.341055, "Latitude": 39.851144, "Gdtype": "汽车服务;加油站;中国石化", "Prov": "北京市", "City": "北京市", "Address": "南三环西路85号", "Operator": "中国石化" }, "geometry": { "type": "Point", "coordinates": [ 116.341055, 39.851144 ] } },
{ "type": "Feature", "properties": { "Name": "中国石化朱庄加油站", "Lon_Lat": "116.586609,39.654761", "Longitude": 116.586609, "Latitude": 39.654761, "Gdtype": "汽车服务;加油站;中国石化", "Prov": "北京市", "City": "北京市", "Address": "罗庄村东104国道南侧50米", "Operator": "中国石化" }, "geometry": { "type": "Point", "coordinates": [ 116.586609, 39.654761 ] } },
{ "type": "Feature", "properties": { "Name": "中国石化昌平北方加油站", "Lon_Lat": "116.232725,40.18364", "Longitude": 116.232725, "Latitude": 40.18364, "Gdtype": "汽车服务;加油站;加油站", "Prov": "北京市", "City": "北京市", "Address": "马池口村", "Operator": "中国石化" }, "geometry": { "type": "Point", "coordinates": [ 116.232725, 40.18364 ] } },
{ "type": "Feature", "properties": { "Name": "中国石化燕鑫加油站", "Lon_Lat": "116.474513,39.945853", "Longitude": 116.474513, "Latitude": 39.945853, "Gdtype": "汽车服务;加油站;中国石化", "Prov": "北京市", "City": "北京市", "Address": "麦子店正街甲80号", "Operator": "中国石化" }, "geometry": { "type": "Point", "coordinates": [ 116.474513, 39.945853 ] } },
{ "type": "Feature", "properties": { "Name": "中国石化暖风加油站", "Lon_Lat": "116.721705,39.862393", "Longitude": 116.721705, "Latitude": 39.862393, "Gdtype": "汽车服务;加油站;中国石化", "Prov": "北京市", "City": "北京市", "Address": "张家湾镇土桥村东", "Operator": "中国石化" }, "geometry": { "type": "Point", "coordinates": [ 116.721705, 39.862393 ] } },
{ "type": "Feature", "properties": { "Name": "中国石化滨阳加油站", "Lon_Lat": "116.858258,40.371682", "Longitude": 116.858258, "Latitude": 40.371682, "Gdtype": "汽车服务;加油站;中国石化", "Prov": "北京市", "City": "北京市", "Address": "密云镇新南路62号", "Operator": "中国石化" }, "geometry": { "type": "Point", "coordinates": [ 116.858258, 40.371682 ] } },
{ "type": "Feature", "properties": { "Name": "中国石化北沙滩加油站", "Lon_Lat": "116.367919,40.005178", "Longitude": 116.367919, "Latitude": 40.005178, "Gdtype": "汽车服务;加油站;中国石化", "Prov": "北京市", "City": "北京市", "Address": "G6出京方向辅路北沙滩桥红星美凯龙北侧200米", "Operator": "中国石化" }, "geometry": { "type": "Point", "coordinates": [ 116.367919, 40.005178 ] } },
{ "type": "Feature", "properties": { "Name": "中国石化凤合营二站加油站", "Lon_Lat": "116.692048,39.612507", "Longitude": 116.692048, "Latitude": 39.612507, "Gdtype": "汽车服务;加油站;中国石化", "Prov": "北京市", "City": "北京市", "Address": "采育镇庙营村委会东200米", "Operator": "中国石化" }, "geometry": { "type": "Point", "coordinates": [ 116.692048, 39.612507 ] } },
{ "type": "Feature", "properties": { "Name": "中国石化三元旧宫加油站", "Lon_Lat": "116.451921,39.806881", "Longitude": 116.451921, "Latitude": 39.806881, "Gdtype": "汽车服务;加油站;中国石化", "Prov": "北京市", "City": "北京市", "Address": "旧宫东路57号", "Operator": "中国石化" }, "geometry": { "type": "Point", "coordinates": [ 116.451921, 39.806881 ] } },
{ "type": "Feature", "properties": { "Name": "中国石化燕海加油站", "Lon_Lat": "116.325667,39.73648", "Longitude": 116.325667, "Latitude": 39.73648, "Gdtype": "汽车服务;加油站;中国石化", "Prov": "北京市", "City": "北京市", "Address": "兴业大街(三段)30号", "Operator": "中国石化" }, "geometry": { "type": "Point", "coordinates": [ 116.325667, 39.73648 ] } },
{ "type": "Feature", "properties": { "Name": "中国石化礼贤服务区加油站(暂停营业)", "Lon_Lat": "116.409250,39.542174", "Longitude": 116.40925, "Latitude": 39.542174, "Gdtype": "汽车服务;加油站;中国石化", "Prov": "北京市", "City": "北京市", "Address": "新机场高速公路", "Operator": "中国石化" }, "geometry": { "type": "Point", "coordinates": [ 116.40925, 39.542174 ] } },
{ "type": "Feature", "properties": { "Name": "中国石化迎宾园加油站", "Lon_Lat": "116.641146,40.301801", "Longitude": 116.641146, "Latitude": 40.301801, "Gdtype": "汽车服务;加油站;中国石化", "Prov": "北京市", "City": "北京市", "Address": "迎宾路南侧路西", "Operator": "中国石化" }, "geometry": { "type": "Point", "coordinates": [ 116.641146, 40.301801 ] } },
{ "type": "Feature", "properties": { "Name": "中国石化月月新加油站", "Lon_Lat": "116.64668,40.296221", "Longitude": 116.64668, "Latitude": 40.296221, "Gdtype": "汽车服务;加油站;中国石化", "Prov": "北京市", "City": "北京市", "Address": "怀杨新路西侧", "Operator": "中国石化" }, "geometry": { "type": "Point", "coordinates": [ 116.64668, 40.296221 ] } },
{ "type": "Feature", "properties": { "Name": "中国石化加油站", "Lon_Lat": "116.728422,39.681707", "Longitude": 116.728422, "Latitude": 39.681707, "Gdtype": "汽车服务;加油站;中国石化", "Prov": "北京市", "City": "北京市", "Address": "渠头村西口", "Operator": "中国石化" }, "geometry": { "type": "Point", "coordinates": [ 116.728422, 39.681707 ] } },
{ "type": "Feature", "properties": { "Name": "中国石化周家巷南加油站", "Lon_Lat": "116.136548,40.062066", "Longitude": 116.136548, "Latitude": 40.062066, "Gdtype": "汽车服务;加油站;中国石化", "Prov": "北京市", "City": "北京市", "Address": "西六环与加油站交叉口西南约200米", "Operator": "中国石化" }, "geometry": { "type": "Point", "coordinates": [ 116.136548, 40.062066 ] } },
{ "type": "Feature", "properties": { "Name": "中国石化加油站(百善学校南)", "Lon_Lat": "116.318970,40.169381", "Longitude": 116.31897, "Latitude": 40.169381, "Gdtype": "汽车服务;加油站;中国石化", "Prov": "北京市", "City": "北京市", "Address": [ ], "Operator": "中国石化" }, "geometry": { "type": "Point", "coordinates": [ 116.31897, 40.169381 ] } },
{ "type": "Feature", "properties": { "Name": "中国石化加油站", "Lon_Lat": "116.500299,39.735941", "Longitude": 116.500299, "Latitude": 39.735941, "Gdtype": "汽车服务;加油站;中国石化", "Prov": "北京市", "City": "北京市", "Address": "瀛海镇下十号村委会西200米", "Operator": "中国石化" }, "geometry": { "type": "Point", "coordinates": [ 116.500299, 39.735941 ] } },
{ "type": "Feature", "properties": { "Name": "中国石化京兰加油站", "Lon_Lat": "115.71689,39.979251", "Longitude": 115.71689, "Latitude": 39.979251, "Gdtype": "汽车服务;加油站;中国石化", "Prov": "北京市", "City": "北京市", "Address": "斋堂镇东斋堂东老道", "Operator": "中国石化" }, "geometry": { "type": "Point", "coordinates": [ 115.71689, 39.979251 ] } },
{ "type": "Feature", "properties": { "Name": "中国石化房通加油站", "Lon_Lat": "116.006267,39.702357", "Longitude": 116.006267, "Latitude": 39.702357, "Gdtype": "汽车服务;加油站;中国石化", "Prov": "北京市", "City": "北京市", "Address": "城关街道饶乐府村", "Operator": "中国石化" }, "geometry": { "type": "Point", "coordinates": [ 116.006267, 39.702357 ] } },
{ "type": "Feature", "properties": { "Name": "中国石化北务服务区加油站", "Lon_Lat": "116.835995,40.052972", "Longitude": 116.835995, "Latitude": 40.052972, "Gdtype": "汽车服务;加油站;中国石化", "Prov": "北京市", "City": "北京市", "Address": "北务服务区加油站(京平高速公路南)", "Operator": "中国石化" }, "geometry": { "type": "Point", "coordinates": [ 116.835995, 40.052972 ] } },
{ "type": "Feature", "properties": { "Name": "中国石化加油站(暂停营业)", "Lon_Lat": "115.759512,39.817748", "Longitude": 115.759512, "Latitude": 39.817748, "Gdtype": "汽车服务;加油站;中国石化", "Prov": "北京市", "City": "北京市", "Address": "史家营鸳鸯水村", "Operator": "中国石化" }, "geometry": { "type": "Point", "coordinates": [ 115.759512, 39.817748 ] } },
{ "type": "Feature", "properties": { "Name": "中国石化首发能源左安东路服务区加油站(暂停营业)", "Lon_Lat": "116.488459,39.871926", "Longitude": 116.488459, "Latitude": 39.871926, "Gdtype": "汽车服务;加油站;中国石化", "Prov": "北京市", "City": "北京市", "Address": "东四环南路25号", "Operator": "中国石化" }, "geometry": { "type": "Point", "coordinates": [ 116.488459, 39.871926 ] } },
{ "type": "Feature", "properties": { "Name": "中国石化宝捷森加油站", "Lon_Lat": "116.574135,39.909297", "Longitude": 116.574135, "Latitude": 39.909297, "Gdtype": "汽车服务;加油站;中国石化", "Prov": "北京市", "City": "北京市", "Address": "三间房乡京通快速路出口", "Operator": "中国石化" }, "geometry": { "type": "Point", "coordinates": [ 116.574135, 39.909297 ] } },
{ "type": "Feature", "properties": { "Name": "中国石化天利加油站", "Lon_Lat": "116.410228,39.871657", "Longitude": 116.410228, "Latitude": 39.871657, "Gdtype": "汽车服务;加油站;中国石化", "Prov": "北京市", "City": "北京市", "Address": "崇文区永外东滨河路11号(天坛公园南门马路斜对面)", "Operator": "中国石化" }, "geometry": { "type": "Point", "coordinates": [ 116.410228, 39.871657 ] } },
{ "type": "Feature", "properties": { "Name": "中国石化加油站", "Lon_Lat": "116.484339,39.95615", "Longitude": 116.484339, "Latitude": 39.95615, "Gdtype": "汽车服务;加油站;中国石化", "Prov": "北京市", "City": "北京市", "Address": "亮马桥路10号", "Operator": "中国石化" }, "geometry": { "type": "Point", "coordinates": [ 116.484339, 39.95615 ] } },
{ "type": "Feature", "properties": { "Name": "中国石化汇万源加油站", "Lon_Lat": "116.004469,39.72549", "Longitude": 116.004469, "Latitude": 39.72549, "Gdtype": "汽车服务;加油站;中国石化", "Prov": "北京市", "City": "北京市", "Address": "房山街道丁家洼村", "Operator": "中国石化" }, "geometry": { "type": "Point", "coordinates": [ 116.004469, 39.72549 ] } },
{ "type": "Feature", "properties": { "Name": "中国石化京昌加油站", "Lon_Lat": "116.414746,40.097813", "Longitude": 116.414746, "Latitude": 40.097813, "Gdtype": "汽车服务;加油站;中国石化", "Prov": "北京市", "City": "北京市", "Address": "亚运村汽车交易市场北侧", "Operator": "中国石化" }, "geometry": { "type": "Point", "coordinates": [ 116.414746, 40.097813 ] } },
{ "type": "Feature", "properties": { "Name": "中国石化福利加油站", "Lon_Lat": "116.326513,39.568299", "Longitude": 116.326513, "Latitude": 39.568299, "Gdtype": "汽车服务;加油站;中国石化", "Prov": "北京市", "City": "北京市", "Address": "京开公路东大辛庄道口", "Operator": "中国石化" }, "geometry": { "type": "Point", "coordinates": [ 116.326513, 39.568299 ] } },
{ "type": "Feature", "properties": { "Name": "中国石化加油站", "Lon_Lat": "116.484221,39.621719", "Longitude": 116.484221, "Latitude": 39.621719, "Gdtype": "汽车服务;加油站;中国石化", "Prov": "北京市", "City": "北京市", "Address": "安定镇火车站", "Operator": "中国石化" }, "geometry": { "type": "Point", "coordinates": [ 116.484221, 39.621719 ] } },
{ "type": "Feature", "properties": { "Name": "中国石化京张路加油站", "Lon_Lat": "116.000986,40.4629", "Longitude": 116.000986, "Latitude": 40.4629, "Gdtype": "汽车服务;加油站;中国石化", "Prov": "北京市", "City": "北京市", "Address": "京张路口南", "Operator": "中国石化" }, "geometry": { "type": "Point", "coordinates": [ 116.000986, 40.4629 ] } },
{ "type": "Feature", "properties": { "Name": "燕山盛祥石油中银加油站", "Lon_Lat": "117.158254,40.185027", "Longitude": 117.158254, "Latitude": 40.185027, "Gdtype": "汽车服务;加油站;中国石化", "Prov": "北京市", "City": "北京市", "Address": "桥山路", "Operator": "中国石化" }, "geometry": { "type": "Point", "coordinates": [ 117.158254, 40.185027 ] } },
{ "type": "Feature", "properties": { "Name": "中国石化房山京石路加油站二站加油站", "Lon_Lat": "116.079816,39.628503", "Longitude": 116.079816, "Latitude": 39.628503, "Gdtype": "汽车服务;加油站;中国石化", "Prov": "北京市", "City": "北京市", "Address": "丁各庄村西", "Operator": "中国石化" }, "geometry": { "type": "Point", "coordinates": [ 116.079816, 39.628503 ] } },
{ "type": "Feature", "properties": { "Name": "中国石化西苑加油站", "Lon_Lat": "116.297427,39.992858", "Longitude": 116.297427, "Latitude": 39.992858, "Gdtype": "汽车服务;加油站;中国石化", "Prov": "北京市", "City": "北京市", "Address": "万泉河路30号", "Operator": "中国石化" }, "geometry": { "type": "Point", "coordinates": [ 116.297427, 39.992858 ] } },
{ "type": "Feature", "properties": { "Name": "中国石化京铁诚信加油站", "Lon_Lat": "116.365968,39.855746", "Longitude": 116.365968, "Latitude": 39.855746, "Gdtype": "汽车服务;加油站;中国石化", "Prov": "北京市", "City": "北京市", "Address": "右安门外南河沿35号(300路总站东侧)", "Operator": "中国石化" }, "geometry": { "type": "Point", "coordinates": [ 116.365968, 39.855746 ] } },
{ "type": "Feature", "properties": { "Name": "中国石化加油站(嘉创路站)", "Lon_Lat": "116.542949,39.824385", "Longitude": 116.542949, "Latitude": 39.824385, "Gdtype": "汽车服务;加油站;中国石化", "Prov": "北京市", "City": "北京市", "Address": "北神树村嘉创路与东渠路交叉口", "Operator": "中国石化" }, "geometry": { "type": "Point", "coordinates": [ 116.542949, 39.824385 ] } },
{ "type": "Feature", "properties": { "Name": "中国石化燕广友加油站", "Lon_Lat": "116.127727,39.939343", "Longitude": 116.127727, "Latitude": 39.939343, "Gdtype": "汽车服务;加油站;中国石化", "Prov": "北京市", "City": "北京市", "Address": "广宁路麻峪村北", "Operator": "中国石化" }, "geometry": { "type": "Point", "coordinates": [ 116.127727, 39.939343 ] } },
{ "type": "Feature", "properties": { "Name": "中国石化龙祥加油站", "Lon_Lat": "116.228396,40.20757", "Longitude": 116.228396, "Latitude": 40.20757, "Gdtype": "汽车服务;加油站;中国石化", "Prov": "北京市", "City": "北京市", "Address": "振兴路59号院", "Operator": "中国石化" }, "geometry": { "type": "Point", "coordinates": [ 116.228396, 40.20757 ] } },
{ "type": "Feature", "properties": { "Name": "中国石化润北加油站", "Lon_Lat": "116.800895,40.100294", "Longitude": 116.800895, "Latitude": 40.100294, "Gdtype": "汽车服务;加油站;加油站", "Prov": "北京市", "City": "北京市", "Address": "杨镇地区田家营村南", "Operator": "中国石化" }, "geometry": { "type": "Point", "coordinates": [ 116.800895, 40.100294 ] } },
{ "type": "Feature", "properties": { "Name": "中国石化上店服务区加油站(建设中)", "Lon_Lat": "116.097722,40.171799", "Longitude": 116.097722, "Latitude": 40.171799, "Gdtype": "汽车服务;加油站;中国石化", "Prov": "北京市", "City": "北京市", "Address": null, "Operator": "中国石化" }, "geometry": { "type": "Point", "coordinates": [ 116.097722, 40.171799 ] } },
{ "type": "Feature", "properties": { "Name": "中国石化加油站(暂停营业)", "Lon_Lat": "116.399858,39.817088", "Longitude": 116.399858, "Latitude": 39.817088, "Gdtype": "汽车服务;加油站;中国石化", "Prov": "北京市", "City": "北京市", "Address": "南苑路附近", "Operator": "中国石化" }, "geometry": { "type": "Point", "coordinates": [ 116.399858, 39.817088 ] } },
{ "type": "Feature", "properties": { "Name": "中国石化洲顺达加油站", "Lon_Lat": "115.892703,40.376237", "Longitude": 115.892703, "Latitude": 40.376237, "Gdtype": "汽车服务;加油站;中国石化", "Prov": "北京市", "City": "北京市", "Address": "康庄镇三街", "Operator": "中国石化" }, "geometry": { "type": "Point", "coordinates": [ 115.892703, 40.376237 ] } },
{ "type": "Feature", "properties": { "Name": "中国石化柏春耀加油站", "Lon_Lat": "115.972382,40.363095", "Longitude": 115.972382, "Latitude": 40.363095, "Gdtype": "汽车服务;加油站;中国石化", "Prov": "北京市", "City": "北京市", "Address": "八达岭镇政府西200米", "Operator": "中国石化" }, "geometry": { "type": "Point", "coordinates": [ 115.972382, 40.363095 ] } },
{ "type": "Feature", "properties": { "Name": "中国石化龙河宫加油站", "Lon_Lat": "116.725344,40.123288", "Longitude": 116.725344, "Latitude": 40.123288, "Gdtype": "汽车服务;加油站;中国石化", "Prov": "北京市", "City": "北京市", "Address": [ ], "Operator": "中国石化" }, "geometry": { "type": "Point", "coordinates": [ 116.725344, 40.123288 ] } },
{ "type": "Feature", "properties": { "Name": "中国石化京林加油站", "Lon_Lat": "116.347229,40.001199", "Longitude": 116.347229, "Latitude": 40.001199, "Gdtype": "汽车服务;加油站;中国石化", "Prov": "北京市", "City": "北京市", "Address": "清华东路35号林业大学南门", "Operator": "中国石化" }, "geometry": { "type": "Point", "coordinates": [ 116.347229, 40.001199 ] } },
{ "type": "Feature", "properties": { "Name": "中国石化顺利龙加油站", "Lon_Lat": "116.854825,40.231167", "Longitude": 116.854825, "Latitude": 40.231167, "Gdtype": "汽车服务;加油站;中国石化", "Prov": "北京市", "City": "北京市", "Address": "龙湾屯村西", "Operator": "中国石化" }, "geometry": { "type": "Point", "coordinates": [ 116.854825, 40.231167 ] } },
{ "type": "Feature", "properties": { "Name": "中国石化兆元加油站", "Lon_Lat": "116.495703,39.934772", "Longitude": 116.495703, "Latitude": 39.934772, "Gdtype": "汽车服务;加油站;中国石化", "Prov": "北京市", "City": "北京市", "Address": "姚家园路99号", "Operator": "中国石化" }, "geometry": { "type": "Point", "coordinates": [ 116.495703, 39.934772 ] } },
{ "type": "Feature", "properties": { "Name": "中国石化金穗加油站", "Lon_Lat": "116.660092,40.32235", "Longitude": 116.660092, "Latitude": 40.32235, "Gdtype": "汽车服务;加油站;加油站", "Prov": "北京市", "City": "北京市", "Address": "开放路环岛北200米", "Operator": "中国石化" }, "geometry": { "type": "Point", "coordinates": [ 116.660092, 40.32235 ] } },
{ "type": "Feature", "properties": { "Name": "中国石化销售股份有限公司北京平谷金海加油站", "Lon_Lat": "117.241359,40.175893", "Longitude": 117.241359, "Latitude": 40.175893, "Gdtype": "汽车服务;加油站;中国石化", "Prov": "北京市", "City": "北京市", "Address": "南独乐河镇新农村东", "Operator": "中国石化" }, "geometry": { "type": "Point", "coordinates": [ 117.241359, 40.175893 ] } },
{ "type": "Feature", "properties": { "Name": "中国石化加油站", "Lon_Lat": "117.186333,40.133348", "Longitude": 117.186333, "Latitude": 40.133348, "Gdtype": "汽车服务;加油站;中国石化", "Prov": "北京市", "City": "北京市", "Address": "南太务村西南", "Operator": "中国石化" }, "geometry": { "type": "Point", "coordinates": [ 117.186333, 40.133348 ] } },
{ "type": "Feature", "properties": { "Name": "中国石化百善北加油站", "Lon_Lat": "116.322578,40.174488", "Longitude": 116.322578, "Latitude": 40.174488, "Gdtype": "汽车服务;加油站;中国石化", "Prov": "北京市", "City": "北京市", "Address": "百善北六环主路175-186公路北侧", "Operator": "中国石化" }, "geometry": { "type": "Point", "coordinates": [ 116.322578, 40.174488 ] } },
{ "type": "Feature", "properties": { "Name": "中国石化加油站", "Lon_Lat": "116.460875,40.207862", "Longitude": 116.460875, "Latitude": 40.207862, "Gdtype": "汽车服务;加油站;中国石化", "Prov": "北京市", "City": "北京市", "Address": [ ], "Operator": "中国石化" }, "geometry": { "type": "Point", "coordinates": [ 116.460875, 40.207862 ] } },
{ "type": "Feature", "properties": { "Name": "中国石化加油站", "Lon_Lat": "115.725814,39.567928", "Longitude": 115.725814, "Latitude": 39.567928, "Gdtype": "汽车服务;加油站;中国石化", "Prov": "北京市", "City": "北京市", "Address": [ ], "Operator": "中国石化" }, "geometry": { "type": "Point", "coordinates": [ 115.725814, 39.567928 ] } },
{ "type": "Feature", "properties": { "Name": "中国石化深顺达加油站", "Lon_Lat": "116.755987,40.13869", "Longitude": 116.755987, "Latitude": 40.13869, "Gdtype": "汽车服务;加油站;中国石化", "Prov": "北京市", "City": "北京市", "Address": "南彩镇顺平路北侧", "Operator": "中国石化" }, "geometry": { "type": "Point", "coordinates": [ 116.755987, 40.13869 ] } },
{ "type": "Feature", "properties": { "Name": "中国石化北京朝英加油站", "Lon_Lat": "116.493439,39.863852", "Longitude": 116.493439, "Latitude": 39.863852, "Gdtype": "汽车服务;加油站;中国石化", "Prov": "北京市", "City": "北京市", "Address": "十八里店东四环外小武基路172号", "Operator": "中国石化" }, "geometry": { "type": "Point", "coordinates": [ 116.493439, 39.863852 ] } },
{ "type": "Feature", "properties": { "Name": "中国石化加油站(暂停营业)", "Lon_Lat": "116.622236,40.894072", "Longitude": 116.622236, "Latitude": 40.894072, "Gdtype": "汽车服务;加油站;中国石化", "Prov": "北京市", "City": "北京市", "Address": "喇叭沟乡喇叭沟村庄喇路", "Operator": "中国石化" }, "geometry": { "type": "Point", "coordinates": [ 116.622236, 40.894072 ] } },
{ "type": "Feature", "properties": { "Name": "中国石化运河加油站", "Lon_Lat": "116.663109,39.892812", "Longitude": 116.663109, "Latitude": 39.892812, "Gdtype": "汽车服务;加油站;中国石化", "Prov": "北京市", "City": "北京市", "Address": "运河西大街古船面粉厂西", "Operator": "中国石化" }, "geometry": { "type": "Point", "coordinates": [ 116.663109, 39.892812 ] } },
{ "type": "Feature", "properties": { "Name": "中国石化四路通加油站(榆南路)", "Lon_Lat": "116.393361,39.501543", "Longitude": 116.393361, "Latitude": 39.501543, "Gdtype": "汽车服务;加油站;中国石化", "Prov": "北京市", "City": "北京市", "Address": "榆垡镇南各庄村南口", "Operator": "中国石化" }, "geometry": { "type": "Point", "coordinates": [ 116.393361, 39.501543 ] } },
{ "type": "Feature", "properties": { "Name": "中国石化固村加油站", "Lon_Lat": "116.123806,39.748332", "Longitude": 116.123806, "Latitude": 39.748332, "Gdtype": "汽车服务;加油站;加油站", "Prov": "北京市", "City": "北京市", "Address": "良乡镇固村", "Operator": "中国石化" }, "geometry": { "type": "Point", "coordinates": [ 116.123806, 39.748332 ] } },
{ "type": "Feature", "properties": { "Name": "中国石化顺规加油站", "Lon_Lat": "116.629636,40.125032", "Longitude": 116.629636, "Latitude": 40.125032, "Gdtype": "汽车服务;加油站;中国石化", "Prov": "北京市", "City": "北京市", "Address": "石门村南侧", "Operator": "中国石化" }, "geometry": { "type": "Point", "coordinates": [ 116.629636, 40.125032 ] } },
{ "type": "Feature", "properties": { "Name": "中国石化沙阳加油站", "Lon_Lat": "116.153481,40.131421", "Longitude": 116.153481, "Latitude": 40.131421, "Gdtype": "汽车服务;加油站;中国石化", "Prov": "北京市", "City": "北京市", "Address": "西贯市村", "Operator": "中国石化" }, "geometry": { "type": "Point", "coordinates": [ 116.153481, 40.131421 ] } },
{ "type": "Feature", "properties": { "Name": "中国石化世纪燕华加油站", "Lon_Lat": "116.522460,40.002683", "Longitude": 116.52246, "Latitude": 40.002683, "Gdtype": "汽车服务;加油站;中国石化", "Prov": "北京市", "City": "北京市", "Address": "崔各庄乡南皋路129号塑料三厂内", "Operator": "中国石化" }, "geometry": { "type": "Point", "coordinates": [ 116.52246, 40.002683 ] } },
{ "type": "Feature", "properties": { "Name": "中国石化上店服务区加油站(暂停营业)", "Lon_Lat": "116.095335,40.171706", "Longitude": 116.095335, "Latitude": 40.171706, "Gdtype": "汽车服务;加油站;加油站", "Prov": "北京市", "City": "北京市", "Address": null, "Operator": "中国石化" }, "geometry": { "type": "Point", "coordinates": [ 116.095335, 40.171706 ] } },
{ "type": "Feature", "properties": { "Name": "中国石化鑫燕东加油站", "Lon_Lat": "116.092128,39.665502", "Longitude": 116.092128, "Latitude": 39.665502, "Gdtype": "汽车服务;加油站;中国石化", "Prov": "北京市", "City": "北京市", "Address": "七里店村", "Operator": "中国石化" }, "geometry": { "type": "Point", "coordinates": [ 116.092128, 39.665502 ] } },
{ "type": "Feature", "properties": { "Name": "中国石化加油站", "Lon_Lat": "116.594583,40.364158", "Longitude": 116.594583, "Latitude": 40.364158, "Gdtype": "汽车服务;加油站;中国石化", "Prov": "北京市", "City": "北京市", "Address": "怀柔镇", "Operator": "中国石化" }, "geometry": { "type": "Point", "coordinates": [ 116.594583, 40.364158 ] } },
{ "type": "Feature", "properties": { "Name": "中国石化赫凯加油站", "Lon_Lat": "116.514467,39.766174", "Longitude": 116.514467, "Latitude": 39.766174, "Gdtype": "汽车服务;加油站;中国石化", "Prov": "北京市", "City": "北京市", "Address": "亦庄镇博兴路与凉水河一街交叉口", "Operator": "中国石化" }, "geometry": { "type": "Point", "coordinates": [ 116.514467, 39.766174 ] } },
{ "type": "Feature", "properties": { "Name": "中国石化平安大街加油站", "Lon_Lat": "116.386616,39.932911", "Longitude": 116.386616, "Latitude": 39.932911, "Gdtype": "汽车服务;加油站;中国石化", "Prov": "北京市", "City": "北京市", "Address": "地安门西大街教场胡同26号", "Operator": "中国石化" }, "geometry": { "type": "Point", "coordinates": [ 116.386616, 39.932911 ] } },
{ "type": "Feature", "properties": { "Name": "中国石化燕鑫通加油站", "Lon_Lat": "115.819902,39.550791", "Longitude": 115.819902, "Latitude": 39.550791, "Gdtype": "汽车服务;加油站;中国石化", "Prov": "北京市", "City": "北京市", "Address": "石窝村", "Operator": "中国石化" }, "geometry": { "type": "Point", "coordinates": [ 115.819902, 39.550791 ] } },
{ "type": "Feature", "properties": { "Name": "中国石化盛秋加油站", "Lon_Lat": "116.476916,39.890985", "Longitude": 116.476916, "Latitude": 39.890985, "Gdtype": "汽车服务;加油站;中国石化", "Prov": "北京市", "City": "北京市", "Address": "西大望路24号", "Operator": "中国石化" }, "geometry": { "type": "Point", "coordinates": [ 116.476916, 39.890985 ] } },
{ "type": "Feature", "properties": { "Name": "中国石化太平加油站", "Lon_Lat": "116.067996,39.715723", "Longitude": 116.067996, "Latitude": 39.715723, "Gdtype": "汽车服务;加油站;中国石化", "Prov": "北京市", "City": "北京市", "Address": "阎村镇京周路燕化星城对面", "Operator": "中国石化" }, "geometry": { "type": "Point", "coordinates": [ 116.067996, 39.715723 ] } },
{ "type": "Feature", "properties": { "Name": "中国石化大里庄加油站", "Lon_Lat": "116.692535,39.641998", "Longitude": 116.692535, "Latitude": 39.641998, "Gdtype": "汽车服务;加油站;中国石化", "Prov": "北京市", "City": "北京市", "Address": "大里庄村2号院", "Operator": "中国石化" }, "geometry": { "type": "Point", "coordinates": [ 116.692535, 39.641998 ] } },
{ "type": "Feature", "properties": { "Name": "中国石化东升加油站", "Lon_Lat": "116.68836,39.7575", "Longitude": 116.68836, "Latitude": 39.7575, "Gdtype": "汽车服务;加油站;中国石化", "Prov": "北京市", "City": "北京市", "Address": "张家湾镇前街村", "Operator": "中国石化" }, "geometry": { "type": "Point", "coordinates": [ 116.68836, 39.7575 ] } },
{ "type": "Feature", "properties": { "Name": "中国石化昊良加油站", "Lon_Lat": "116.154328,39.749862", "Longitude": 116.154328, "Latitude": 39.749862, "Gdtype": "汽车服务;加油站;中国石化", "Prov": "北京市", "City": "北京市", "Address": "良乡昊天大街1号", "Operator": "中国石化" }, "geometry": { "type": "Point", "coordinates": [ 116.154328, 39.749862 ] } },
{ "type": "Feature", "properties": { "Name": "中国石化加油站", "Lon_Lat": "116.039289,39.710713", "Longitude": 116.039289, "Latitude": 39.710713, "Gdtype": "汽车服务;加油站;中国石化", "Prov": "北京市", "City": "北京市", "Address": "京周路北京市经贸高级技术学校东南侧", "Operator": "中国石化" }, "geometry": { "type": "Point", "coordinates": [ 116.039289, 39.710713 ] } },
{ "type": "Feature", "properties": { "Name": "中国石化杨宋加油站", "Lon_Lat": "116.677977,40.300594", "Longitude": 116.677977, "Latitude": 40.300594, "Gdtype": "汽车服务;加油站;中国石化", "Prov": "北京市", "City": "北京市", "Address": "杨宋镇星辰路24号", "Operator": "中国石化" }, "geometry": { "type": "Point", "coordinates": [ 116.677977, 40.300594 ] } },
{ "type": "Feature", "properties": { "Name": "中国石化西召加油站", "Lon_Lat": "116.115809,39.614598", "Longitude": 116.115809, "Latitude": 39.614598, "Gdtype": "汽车服务;加油站;中国石化", "Prov": "北京市", "City": "北京市", "Address": "琉璃河镇西南召村北", "Operator": "中国石化" }, "geometry": { "type": "Point", "coordinates": [ 116.115809, 39.614598 ] } },
{ "type": "Feature", "properties": { "Name": "中国石化永丰加油站", "Lon_Lat": "116.249828,40.059912", "Longitude": 116.249828, "Latitude": 40.059912, "Gdtype": "汽车服务;加油站;中国石化", "Prov": "北京市", "City": "北京市", "Address": "六里屯村南", "Operator": "中国石化" }, "geometry": { "type": "Point", "coordinates": [ 116.249828, 40.059912 ] } },
{ "type": "Feature", "properties": { "Name": "中国石化服务区战备加油站", "Lon_Lat": "116.766579,39.936236", "Longitude": 116.766579, "Latitude": 39.936236, "Gdtype": "汽车服务;加油站;中国石化", "Prov": "北京市", "City": "北京市", "Address": "京哈高速公路白庙村收费站口", "Operator": "中国石化" }, "geometry": { "type": "Point", "coordinates": [ 116.766579, 39.936236 ] } },
{ "type": "Feature", "properties": { "Name": "中国石化窦店服务区加油站", "Lon_Lat": "116.079832,39.628717", "Longitude": 116.079832, "Latitude": 39.628717, "Gdtype": "汽车服务;加油站;中国石化", "Prov": "北京市", "City": "北京市", "Address": "丁各庄村西", "Operator": "中国石化" }, "geometry": { "type": "Point", "coordinates": [ 116.079832, 39.628717 ] } },
{ "type": "Feature", "properties": { "Name": "中国石化振铎加油站", "Lon_Lat": "116.192036,40.168727", "Longitude": 116.192036, "Latitude": 40.168727, "Gdtype": "汽车服务;加油站;中国石化", "Prov": "北京市", "City": "北京市", "Address": "横桥村", "Operator": "中国石化" }, "geometry": { "type": "Point", "coordinates": [ 116.192036, 40.168727 ] } },
{ "type": "Feature", "properties": { "Name": "中国石化中旅望京加油站", "Lon_Lat": "116.465592,39.997576", "Longitude": 116.465592, "Latitude": 39.997576, "Gdtype": "汽车服务;加油站;中国石化", "Prov": "北京市", "City": "北京市", "Address": "湖光中街9号", "Operator": "中国石化" }, "geometry": { "type": "Point", "coordinates": [ 116.465592, 39.997576 ] } },
{ "type": "Feature", "properties": { "Name": "中国石化六里桥加油站", "Lon_Lat": "116.309851,39.888728", "Longitude": 116.309851, "Latitude": 39.888728, "Gdtype": "汽车服务;加油站;中国石化", "Prov": "北京市", "City": "北京市", "Address": "六里桥北里6号", "Operator": "中国石化" }, "geometry": { "type": "Point", "coordinates": [ 116.309851, 39.888728 ] } },
{ "type": "Feature", "properties": { "Name": "中国石化丰北加油站", "Lon_Lat": "116.281632,39.868086", "Longitude": 116.281632, "Latitude": 39.868086, "Gdtype": "汽车服务;加油站;中国石化", "Prov": "北京市", "City": "北京市", "Address": "西四环南路51号", "Operator": "中国石化" }, "geometry": { "type": "Point", "coordinates": [ 116.281632, 39.868086 ] } },
{ "type": "Feature", "properties": { "Name": "中国石化房山京海润加油站", "Lon_Lat": "115.902747,39.585138", "Longitude": 115.902747, "Latitude": 39.585138, "Gdtype": "汽车服务;加油站;中国石化", "Prov": "北京市", "City": "北京市", "Address": "长沟村北", "Operator": "中国石化" }, "geometry": { "type": "Point", "coordinates": [ 115.902747, 39.585138 ] } },
{ "type": "Feature", "properties": { "Name": "中国石化小营加油站", "Lon_Lat": "116.422606,39.988272", "Longitude": 116.422606, "Latitude": 39.988272, "Gdtype": "汽车服务;加油站;中国石化", "Prov": "北京市", "City": "北京市", "Address": "朝阳区 北四环东路104号18路公交总站院内", "Operator": "中国石化" }, "geometry": { "type": "Point", "coordinates": [ 116.422606, 39.988272 ] } },
{ "type": "Feature", "properties": { "Name": "中国石化安顺成加油站", "Lon_Lat": "116.348464,39.875196", "Longitude": 116.348464, "Latitude": 39.875196, "Gdtype": "汽车服务;加油站;中国石化", "Prov": "北京市", "City": "北京市", "Address": "宣武区广外南滨河路71号(在中石油对面)", "Operator": "中国石化" }, "geometry": { "type": "Point", "coordinates": [ 116.348464, 39.875196 ] } },
{ "type": "Feature", "properties": { "Name": "中国石化国平加油站", "Lon_Lat": "116.86443,40.153893", "Longitude": 116.86443, "Latitude": 40.153893, "Gdtype": "汽车服务;加油站;中国石化", "Prov": "北京市", "City": "北京市", "Address": "杨镇地区沙岭村西侧", "Operator": "中国石化" }, "geometry": { "type": "Point", "coordinates": [ 116.86443, 40.153893 ] } },
{ "type": "Feature", "properties": { "Name": "中国石化秋瑞加油站", "Lon_Lat": "116.820041,39.675466", "Longitude": 116.820041, "Latitude": 39.675466, "Gdtype": "汽车服务;加油站;中国石化", "Prov": "北京市", "City": "北京市", "Address": "小务村", "Operator": "中国石化" }, "geometry": { "type": "Point", "coordinates": [ 116.820041, 39.675466 ] } },
{ "type": "Feature", "properties": { "Name": "中国石化旭升加油站", "Lon_Lat": "116.782164,40.349440", "Longitude": 116.782164, "Latitude": 40.34944, "Gdtype": "汽车服务;加油站;中国石化", "Prov": "北京市", "City": "北京市", "Address": "京密路十里堡镇中心小学北侧约140米", "Operator": "中国石化" }, "geometry": { "type": "Point", "coordinates": [ 116.782164, 40.34944 ] } },
{ "type": "Feature", "properties": { "Name": "中国石化农大石加油站", "Lon_Lat": "117.148356,40.41269", "Longitude": 117.148356, "Latitude": 40.41269, "Gdtype": "汽车服务;加油站;中国石化", "Prov": "北京市", "City": "北京市", "Address": "程各庄村", "Operator": "中国石化" }, "geometry": { "type": "Point", "coordinates": [ 117.148356, 40.41269 ] } },
{ "type": "Feature", "properties": { "Name": "中国石化爱地加油站", "Lon_Lat": "116.554438,40.072271", "Longitude": 116.554438, "Latitude": 40.072271, "Gdtype": "汽车服务;加油站;中国石化", "Prov": "北京市", "City": "北京市", "Address": "天竺地区花梨坎车站南300米", "Operator": "中国石化" }, "geometry": { "type": "Point", "coordinates": [ 116.554438, 40.072271 ] } },
{ "type": "Feature", "properties": { "Name": "中国石化加油站", "Lon_Lat": "116.336574,40.017604", "Longitude": 116.336574, "Latitude": 40.017604, "Gdtype": "汽车服务;加油站;中国石化", "Prov": "北京市", "City": "北京市", "Address": "后八家榆庄子1号", "Operator": "中国石化" }, "geometry": { "type": "Point", "coordinates": [ 116.336574, 40.017604 ] } },
{ "type": "Feature", "properties": { "Name": "中国石化燕谷加油站", "Lon_Lat": "117.133791,40.151513", "Longitude": 117.133791, "Latitude": 40.151513, "Gdtype": "汽车服务;加油站;中国石化", "Prov": "北京市", "City": "北京市", "Address": "兴谷开发区内", "Operator": "中国石化" }, "geometry": { "type": "Point", "coordinates": [ 117.133791, 40.151513 ] } },
{ "type": "Feature", "properties": { "Name": "中国石化西便门加油站", "Lon_Lat": "116.347925,39.899217", "Longitude": 116.347925, "Latitude": 39.899217, "Gdtype": "汽车服务;加油站;中国石化", "Prov": "北京市", "City": "北京市", "Address": "北京市西城区西便门外甘雨桥", "Operator": "中国石化" }, "geometry": { "type": "Point", "coordinates": [ 116.347925, 39.899217 ] } },
{ "type": "Feature", "properties": { "Name": "中国石化马驹桥服务区加油站", "Lon_Lat": "116.562145,39.759910", "Longitude": 116.562145, "Latitude": 39.75991, "Gdtype": "汽车服务;加油站;中国石化", "Prov": "北京市", "City": "北京市", "Address": "G2京沪高速东100米", "Operator": "中国石化" }, "geometry": { "type": "Point", "coordinates": [ 116.562145, 39.75991 ] } },
{ "type": "Feature", "properties": { "Name": "中国石化胜利桥加油站", "Lon_Lat": "115.923699,39.73174", "Longitude": 115.923699, "Latitude": 39.73174, "Gdtype": "汽车服务;加油站;中国石化", "Prov": "北京市", "City": "北京市", "Address": "燕山栗周路胜利桥东侧", "Operator": "中国石化" }, "geometry": { "type": "Point", "coordinates": [ 115.923699, 39.73174 ] } },
{ "type": "Feature", "properties": { "Name": "中国石化综地加油站", "Lon_Lat": "116.089743,39.941274", "Longitude": 116.089743, "Latitude": 39.941274, "Gdtype": "汽车服务;加油站;中国石化", "Prov": "北京市", "City": "北京市", "Address": "增峪路2号", "Operator": "中国石化" }, "geometry": { "type": "Point", "coordinates": [ 116.089743, 39.941274 ] } },
{ "type": "Feature", "properties": { "Name": "中国石化酒仙桥加油站", "Lon_Lat": "116.484536,39.967833", "Longitude": 116.484536, "Latitude": 39.967833, "Gdtype": "汽车服务;加油站;中国石化", "Prov": "北京市", "City": "北京市", "Address": "酒仙桥老庙街", "Operator": "中国石化" }, "geometry": { "type": "Point", "coordinates": [ 116.484536, 39.967833 ] } },
{ "type": "Feature", "properties": { "Name": "中国石化管庄加油站", "Lon_Lat": "116.576245,39.911305", "Longitude": 116.576245, "Latitude": 39.911305, "Gdtype": "汽车服务;加油站;中国石化", "Prov": "北京市", "City": "北京市", "Address": "双桥路口北50米", "Operator": "中国石化" }, "geometry": { "type": "Point", "coordinates": [ 116.576245, 39.911305 ] } },
{ "type": "Feature", "properties": { "Name": "中国石化官道加油站", "Lon_Lat": "116.149033,39.694712", "Longitude": 116.149033, "Latitude": 39.694712, "Gdtype": "汽车服务;加油站;中国石化", "Prov": "北京市", "City": "北京市", "Address": "小营村", "Operator": "中国石化" }, "geometry": { "type": "Point", "coordinates": [ 116.149033, 39.694712 ] } },
{ "type": "Feature", "properties": { "Name": "中国石化加油站", "Lon_Lat": "115.593271,39.63517", "Longitude": 115.593271, "Latitude": 39.63517, "Gdtype": "汽车服务;加油站;中国石化", "Prov": "北京市", "City": "北京市", "Address": "九渡村北", "Operator": "中国石化" }, "geometry": { "type": "Point", "coordinates": [ 115.593271, 39.63517 ] } },
{ "type": "Feature", "properties": { "Name": "中国石化太阳港加油站", "Lon_Lat": "115.707216,39.578362", "Longitude": 115.707216, "Latitude": 39.578362, "Gdtype": "汽车服务;加油站;中国石化", "Prov": "北京市", "City": "北京市", "Address": "张坊村北", "Operator": "中国石化" }, "geometry": { "type": "Point", "coordinates": [ 115.707216, 39.578362 ] } },
{ "type": "Feature", "properties": { "Name": "中国石化康乐加油站(暂停营业)", "Lon_Lat": "115.692152,39.847039", "Longitude": 115.692152, "Latitude": 39.847039, "Gdtype": "汽车服务;加油站;中国石化", "Prov": "北京市", "City": "北京市", "Address": "019县道青林台村路段路南(史家营乡卫生院附近)", "Operator": "中国石化" }, "geometry": { "type": "Point", "coordinates": [ 115.692152, 39.847039 ] } },
{ "type": "Feature", "properties": { "Name": "中国石化科创街加油站", "Lon_Lat": "116.559524,39.800812", "Longitude": 116.559524, "Latitude": 39.800812, "Gdtype": "汽车服务;加油站;中国石化", "Prov": "北京市", "City": "北京市", "Address": "科创路", "Operator": "中国石化" }, "geometry": { "type": "Point", "coordinates": [ 116.559524, 39.800812 ] } },
{ "type": "Feature", "properties": { "Name": "中国石化三元巨海加油站", "Lon_Lat": "116.222018,39.95455", "Longitude": 116.222018, "Latitude": 39.95455, "Gdtype": "汽车服务;加油站;加油站", "Prov": "北京市", "City": "北京市", "Address": "杏石口路102号,靠近西五环", "Operator": "中国石化" }, "geometry": { "type": "Point", "coordinates": [ 116.222018, 39.95455 ] } },
{ "type": "Feature", "properties": { "Name": "中国石化西马坡加油站", "Lon_Lat": "116.640216,40.163097", "Longitude": 116.640216, "Latitude": 40.163097, "Gdtype": "汽车服务;加油站;中国石化", "Prov": "北京市", "City": "北京市", "Address": "顺白路与良白路交汇处向南路西", "Operator": "中国石化" }, "geometry": { "type": "Point", "coordinates": [ 116.640216, 40.163097 ] } },
{ "type": "Feature", "properties": { "Name": "中国石化加油站", "Lon_Lat": "116.122918,40.181488", "Longitude": 116.122918, "Latitude": 40.181488, "Gdtype": "汽车服务;加油站;中国石化", "Prov": "北京市", "City": "北京市", "Address": "县道017与省道218交叉口西北处", "Operator": "中国石化" }, "geometry": { "type": "Point", "coordinates": [ 116.122918, 40.181488 ] } },
{ "type": "Feature", "properties": { "Name": "中国石化永昌加油站", "Lon_Lat": "116.652739,40.117753", "Longitude": 116.652739, "Latitude": 40.117753, "Gdtype": "汽车服务;加油站;中国石化", "Prov": "北京市", "City": "北京市", "Address": "仁和地区顺平路北", "Operator": "中国石化" }, "geometry": { "type": "Point", "coordinates": [ 116.652739, 40.117753 ] } },
{ "type": "Feature", "properties": { "Name": "中国石化东储加油站", "Lon_Lat": "116.424653,39.996841", "Longitude": 116.424653, "Latitude": 39.996841, "Gdtype": "汽车服务;加油站;中国石化", "Prov": "北京市", "City": "北京市", "Address": "大屯小营路6号", "Operator": "中国石化" }, "geometry": { "type": "Point", "coordinates": [ 116.424653, 39.996841 ] } },
{ "type": "Feature", "properties": { "Name": "中国石化三元上地加油站", "Lon_Lat": "116.303989,40.035132", "Longitude": 116.303989, "Latitude": 40.035132, "Gdtype": "汽车服务;加油站;中国石化", "Prov": "北京市", "City": "北京市", "Address": "上地西路与马连洼北路交汇处西230米路北", "Operator": "中国石化" }, "geometry": { "type": "Point", "coordinates": [ 116.303989, 40.035132 ] } },
{ "type": "Feature", "properties": { "Name": "中国石化李桥西加油站", "Lon_Lat": "116.653167,40.054565", "Longitude": 116.653167, "Latitude": 40.054565, "Gdtype": "汽车服务;加油站;中国石化", "Prov": "北京市", "City": "北京市", "Address": "六环主路21-22公里处西", "Operator": "中国石化" }, "geometry": { "type": "Point", "coordinates": [ 116.653167, 40.054565 ] } },
{ "type": "Feature", "properties": { "Name": "中国石化徐庄加油站", "Lon_Lat": "116.645458,39.793687", "Longitude": 116.645458, "Latitude": 39.793687, "Gdtype": "汽车服务;加油站;加油站", "Prov": "北京市", "City": "北京市", "Address": "徐庄村", "Operator": "中国石化" }, "geometry": { "type": "Point", "coordinates": [ 116.645458, 39.793687 ] } },
{ "type": "Feature", "properties": { "Name": "中国石化加油站", "Lon_Lat": "116.03412,39.777741", "Longitude": 116.03412, "Latitude": 39.777741, "Gdtype": "汽车服务;加油站;中国石化", "Prov": "北京市", "City": "北京市", "Address": "坨里村", "Operator": "中国石化" }, "geometry": { "type": "Point", "coordinates": [ 116.03412, 39.777741 ] } },
{ "type": "Feature", "properties": { "Name": "中国石化燕山路加油站", "Lon_Lat": "116.027976,39.721544", "Longitude": 116.027976, "Latitude": 39.721544, "Gdtype": "汽车服务;加油站;中国石化", "Prov": "北京市", "City": "北京市", "Address": "大石河西侧", "Operator": "中国石化" }, "geometry": { "type": "Point", "coordinates": [ 116.027976, 39.721544 ] } },
{ "type": "Feature", "properties": { "Name": "中国石化太师屯服务区加油站", "Lon_Lat": "117.156471,40.559466", "Longitude": 117.156471, "Latitude": 40.559466, "Gdtype": "汽车服务;加油站;中国石化", "Prov": "北京市", "City": "北京市", "Address": "太师屯服务区大广高速南侧", "Operator": "中国石化" }, "geometry": { "type": "Point", "coordinates": [ 117.156471, 40.559466 ] } },
{ "type": "Feature", "properties": { "Name": "中国石化加油站(东渠路)", "Lon_Lat": "116.535172,39.824352", "Longitude": 116.535172, "Latitude": 39.824352, "Gdtype": "汽车服务;加油站;中国石化", "Prov": "北京市", "City": "北京市", "Address": [ ], "Operator": "中国石化" }, "geometry": { "type": "Point", "coordinates": [ 116.535172, 39.824352 ] } },
{ "type": "Feature", "properties": { "Name": "中国石化加油站(大十三里路)", "Lon_Lat": "116.106432,39.687049", "Longitude": 116.106432, "Latitude": 39.687049, "Gdtype": "汽车服务;加油站;中国石化", "Prov": "北京市", "City": "北京市", "Address": [ ], "Operator": "中国石化" }, "geometry": { "type": "Point", "coordinates": [ 116.106432, 39.687049 ] } },
{ "type": "Feature", "properties": { "Name": "中国石化青云店加油站", "Lon_Lat": "116.505817,39.679152", "Longitude": 116.505817, "Latitude": 39.679152, "Gdtype": "汽车服务;加油站;中国石化", "Prov": "北京市", "City": "北京市", "Address": "青云店镇医院西侧100米", "Operator": "中国石化" }, "geometry": { "type": "Point", "coordinates": [ 116.505817, 39.679152 ] } },
{ "type": "Feature", "properties": { "Name": "中国石化惠金利达加油站", "Lon_Lat": "116.200837,39.610597", "Longitude": 116.200837, "Latitude": 39.610597, "Gdtype": "汽车服务;加油站;中国石化", "Prov": "北京市", "City": "北京市", "Address": "琉璃河镇窑上村一区61号", "Operator": "中国石化" }, "geometry": { "type": "Point", "coordinates": [ 116.200837, 39.610597 ] } },
{ "type": "Feature", "properties": { "Name": "中国石化服务区加油站", "Lon_Lat": "116.338028,39.831017", "Longitude": 116.338028, "Latitude": 39.831017, "Gdtype": "汽车服务;加油站;中国石化", "Prov": "北京市", "City": "北京市", "Address": "南四环西路21号", "Operator": "中国石化" }, "geometry": { "type": "Point", "coordinates": [ 116.338028, 39.831017 ] } },
{ "type": "Feature", "properties": { "Name": "中国石化日日兴加油站", "Lon_Lat": "116.660808,40.074903", "Longitude": 116.660808, "Latitude": 40.074903, "Gdtype": "汽车服务;加油站;加油站", "Prov": "北京市", "City": "北京市", "Address": "后桥村北", "Operator": "中国石化" }, "geometry": { "type": "Point", "coordinates": [ 116.660808, 40.074903 ] } },
{ "type": "Feature", "properties": { "Name": "中国石化三元西三旗加油站", "Lon_Lat": "116.323486,40.060761", "Longitude": 116.323486, "Latitude": 40.060761, "Gdtype": "汽车服务;加油站;中国石化", "Prov": "北京市", "City": "北京市", "Address": "回龙观街道西二旗北路与西二旗东一路交叉口南", "Operator": "中国石化" }, "geometry": { "type": "Point", "coordinates": [ 116.323486, 40.060761 ] } },
{ "type": "Feature", "properties": { "Name": "中国石化陈留加油站", "Lon_Lat": "116.336172,39.802468", "Longitude": 116.336172, "Latitude": 39.802468, "Gdtype": "汽车服务;加油站;中国石化", "Prov": "北京市", "City": "北京市", "Address": "新发地村", "Operator": "中国石化" }, "geometry": { "type": "Point", "coordinates": [ 116.336172, 39.802468 ] } },
{ "type": "Feature", "properties": { "Name": "中国石化三元果北加油站", "Lon_Lat": "116.607991,39.90928", "Longitude": 116.607991, "Latitude": 39.90928, "Gdtype": "汽车服务;加油站;中国石化", "Prov": "北京市", "City": "北京市", "Address": "管庄果家店村", "Operator": "中国石化" }, "geometry": { "type": "Point", "coordinates": [ 116.607991, 39.90928 ] } },
{ "type": "Feature", "properties": { "Name": "中国石化八里店加油站", "Lon_Lat": "116.032827,40.479317", "Longitude": 116.032827, "Latitude": 40.479317, "Gdtype": "汽车服务;加油站;中国石化", "Prov": "北京市", "City": "北京市", "Address": "八里店村东", "Operator": "中国石化" }, "geometry": { "type": "Point", "coordinates": [ 116.032827, 40.479317 ] } },
{ "type": "Feature", "properties": { "Name": "中国石化阎村加油站", "Lon_Lat": "116.094934,39.721465", "Longitude": 116.094934, "Latitude": 39.721465, "Gdtype": "汽车服务;加油站;中国石化", "Prov": "北京市", "City": "北京市", "Address": "阎村镇阎吕路(西六环桥下)", "Operator": "中国石化" }, "geometry": { "type": "Point", "coordinates": [ 116.094934, 39.721465 ] } },
{ "type": "Feature", "properties": { "Name": "中国石化十里河加油站", "Lon_Lat": "116.461465,39.868367", "Longitude": 116.461465, "Latitude": 39.868367, "Gdtype": "汽车服务;加油站;中国石化", "Prov": "北京市", "City": "北京市", "Address": "东三环南路十里河临88号", "Operator": "中国石化" }, "geometry": { "type": "Point", "coordinates": [ 116.461465, 39.868367 ] } },
{ "type": "Feature", "properties": { "Name": "中国石化大峪子加油站", "Lon_Lat": "117.051526,40.273762", "Longitude": 117.051526, "Latitude": 40.273762, "Gdtype": "汽车服务;加油站;中国石化", "Prov": "北京市", "City": "北京市", "Address": "大峪子村东", "Operator": "中国石化" }, "geometry": { "type": "Point", "coordinates": [ 117.051526, 40.273762 ] } },
{ "type": "Feature", "properties": { "Name": "中国石化万泉庄加油站", "Lon_Lat": "116.312604,39.963424", "Longitude": 116.312604, "Latitude": 39.963424, "Gdtype": "汽车服务;加油站;中国石化", "Prov": "北京市", "City": "北京市", "Address": "北三环西路62号(苏州桥地铁站B口步行460米)", "Operator": "中国石化" }, "geometry": { "type": "Point", "coordinates": [ 116.312604, 39.963424 ] } },
{ "type": "Feature", "properties": { "Name": "中国石化宝合祥加油站", "Lon_Lat": "116.068423,39.659089", "Longitude": 116.068423, "Latitude": 39.659089, "Gdtype": "汽车服务;加油站;中国石化", "Prov": "北京市", "City": "北京市", "Address": "田家园村", "Operator": "中国石化" }, "geometry": { "type": "Point", "coordinates": [ 116.068423, 39.659089 ] } },
{ "type": "Feature", "properties": { "Name": "中国石化聚顺通加油站", "Lon_Lat": "116.663432,40.058926", "Longitude": 116.663432, "Latitude": 40.058926, "Gdtype": "汽车服务;加油站;中国石化", "Prov": "北京市", "City": "北京市", "Address": "李桥镇政府北侧", "Operator": "中国石化" }, "geometry": { "type": "Point", "coordinates": [ 116.663432, 40.058926 ] } },
{ "type": "Feature", "properties": { "Name": "中国石化中关村加油站", "Lon_Lat": "116.317146,39.982234", "Longitude": 116.317146, "Latitude": 39.982234, "Gdtype": "汽车服务;加油站;中国石化", "Prov": "北京市", "City": "北京市", "Address": "中关村大街20号(中关村地铁站C3东南口步行80米)", "Operator": "中国石化" }, "geometry": { "type": "Point", "coordinates": [ 116.317146, 39.982234 ] } },
{ "type": "Feature", "properties": { "Name": "中国石化北园加油站", "Lon_Lat": "116.722072,40.176644", "Longitude": 116.722072, "Latitude": 40.176644, "Gdtype": "汽车服务;加油站;中国石化", "Prov": "北京市", "City": "北京市", "Address": "北小营镇前鲁各庄村东", "Operator": "中国石化" }, "geometry": { "type": "Point", "coordinates": [ 116.722072, 40.176644 ] } },
{ "type": "Feature", "properties": { "Name": "中国石化甘露加油站", "Lon_Lat": "116.509892,39.916513", "Longitude": 116.509892, "Latitude": 39.916513, "Gdtype": "汽车服务;加油站;中国石化", "Prov": "北京市", "City": "北京市", "Address": "十里堡甘路园西里8号", "Operator": "中国石化" }, "geometry": { "type": "Point", "coordinates": [ 116.509892, 39.916513 ] } },
{ "type": "Feature", "properties": { "Name": "中国石化镇岗加油站", "Lon_Lat": "116.169878,39.819904", "Longitude": 116.169878, "Latitude": 39.819904, "Gdtype": "汽车服务;加油站;加油站", "Prov": "北京市", "City": "北京市", "Address": "长辛店董家坟50号", "Operator": "中国石化" }, "geometry": { "type": "Point", "coordinates": [ 116.169878, 39.819904 ] } },
{ "type": "Feature", "properties": { "Name": "中国石化景山加油站", "Lon_Lat": "116.397447,39.928617", "Longitude": 116.397447, "Latitude": 39.928617, "Gdtype": "汽车服务;加油站;中国石化", "Prov": "北京市", "City": "北京市", "Address": "景山后街7号", "Operator": "中国石化" }, "geometry": { "type": "Point", "coordinates": [ 116.397447, 39.928617 ] } },
{ "type": "Feature", "properties": { "Name": "中国石化北苑加油站", "Lon_Lat": "116.637633,39.906297", "Longitude": 116.637633, "Latitude": 39.906297, "Gdtype": "汽车服务;加油站;中国石化", "Prov": "北京市", "City": "北京市", "Address": "通州镇新华西街137号(通州北苑地铁站A口步行340米)", "Operator": "中国石化" }, "geometry": { "type": "Point", "coordinates": [ 116.637633, 39.906297 ] } },
{ "type": "Feature", "properties": { "Name": "中国石化中南星加油站", "Lon_Lat": "116.419147,39.787285", "Longitude": 116.419147, "Latitude": 39.787285, "Gdtype": "汽车服务;加油站;中国石化", "Prov": "北京市", "City": "北京市", "Address": "旧宫镇南小街西口3号(五福堂地铁站A西北口步行410米)", "Operator": "中国石化" }, "geometry": { "type": "Point", "coordinates": [ 116.419147, 39.787285 ] } },
{ "type": "Feature", "properties": { "Name": "中国石化首发能源百葛服务区加油站", "Lon_Lat": "116.239262,40.181206", "Longitude": 116.239262, "Latitude": 40.181206, "Gdtype": "汽车服务;加油站;中国石化", "Prov": "北京市", "City": "北京市", "Address": "京藏高速百葛服务区东侧", "Operator": "中国石化" }, "geometry": { "type": "Point", "coordinates": [ 116.239262, 40.181206 ] } },
{ "type": "Feature", "properties": { "Name": "中国石化广泽桥加油站", "Lon_Lat": "116.478727,40.013808", "Longitude": 116.478727, "Latitude": 40.013808, "Gdtype": "汽车服务;加油站;中国石化", "Prov": "北京市", "City": "北京市", "Address": "北京市朝阳区望京利泽东园307号", "Operator": "中国石化" }, "geometry": { "type": "Point", "coordinates": [ 116.478727, 40.013808 ] } },
{ "type": "Feature", "properties": { "Name": "中国石化加油站", "Lon_Lat": "116.641078,40.287418", "Longitude": 116.641078, "Latitude": 40.287418, "Gdtype": "汽车服务;加油站;中国石化", "Prov": "北京市", "City": "北京市", "Address": "庙城桥南,京密路与怀长路交叉口向南路西", "Operator": "中国石化" }, "geometry": { "type": "Point", "coordinates": [ 116.641078, 40.287418 ] } },
{ "type": "Feature", "properties": { "Name": "中国石化加油站", "Lon_Lat": "116.424852,39.865334", "Longitude": 116.424852, "Latitude": 39.865334, "Gdtype": "汽车服务;加油站;加油站", "Prov": "北京市", "City": "北京市", "Address": "芳群园一区", "Operator": "中国石化" }, "geometry": { "type": "Point", "coordinates": [ 116.424852, 39.865334 ] } },
{ "type": "Feature", "properties": { "Name": "中国石化金融街加油站", "Lon_Lat": "116.36276,39.912301", "Longitude": 116.36276, "Latitude": 39.912301, "Gdtype": "汽车服务;加油站;中国石化", "Prov": "北京市", "City": "北京市", "Address": "太平桥大街113号", "Operator": "中国石化" }, "geometry": { "type": "Point", "coordinates": [ 116.36276, 39.912301 ] } },
{ "type": "Feature", "properties": { "Name": "中国石化三元西北旺加油站", "Lon_Lat": "116.249952,40.044381", "Longitude": 116.249952, "Latitude": 40.044381, "Gdtype": "汽车服务;加油站;中国石化", "Prov": "北京市", "City": "北京市", "Address": "黑龙潭路58号", "Operator": "中国石化" }, "geometry": { "type": "Point", "coordinates": [ 116.249952, 40.044381 ] } },
{ "type": "Feature", "properties": { "Name": "中国石化草桥加油站", "Lon_Lat": "116.350554,39.85166", "Longitude": 116.350554, "Latitude": 39.85166, "Gdtype": "汽车服务;加油站;加油站", "Prov": "北京市", "City": "北京市", "Address": "玉泉营环岛东北侧(花卉市场旁边)", "Operator": "中国石化" }, "geometry": { "type": "Point", "coordinates": [ 116.350554, 39.85166 ] } },
{ "type": "Feature", "properties": { "Name": "中国石化大兴工业区加油站", "Lon_Lat": "116.346979,39.759503", "Longitude": 116.346979, "Latitude": 39.759503, "Gdtype": "汽车服务;加油站;中国石化", "Prov": "北京市", "City": "北京市", "Address": "工业开发区内金苑路5号", "Operator": "中国石化" }, "geometry": { "type": "Point", "coordinates": [ 116.346979, 39.759503 ] } },
{ "type": "Feature", "properties": { "Name": "中国石化沙子口加油站", "Lon_Lat": "116.400802,39.863532", "Longitude": 116.400802, "Latitude": 39.863532, "Gdtype": "汽车服务;加油站;中国石化", "Prov": "北京市", "City": "北京市", "Address": "永定门外大街146号", "Operator": "中国石化" }, "geometry": { "type": "Point", "coordinates": [ 116.400802, 39.863532 ] } },
{ "type": "Feature", "properties": { "Name": "中国石化洪远妫川加油站", "Lon_Lat": "116.084002,40.386485", "Longitude": 116.084002, "Latitude": 40.386485, "Gdtype": "汽车服务;加油站;中国石化", "Prov": "北京市", "City": "北京市", "Address": "京银路莲花滩收费站北侧", "Operator": "中国石化" }, "geometry": { "type": "Point", "coordinates": [ 116.084002, 40.386485 ] } },
{ "type": "Feature", "properties": { "Name": "中国石化牛街加油站", "Lon_Lat": "116.36402,39.882715", "Longitude": 116.36402, "Latitude": 39.882715, "Gdtype": "汽车服务;加油站;中国石化", "Prov": "北京市", "City": "北京市", "Address": "右安门内大街2号(回民医院对面)", "Operator": "中国石化" }, "geometry": { "type": "Point", "coordinates": [ 116.36402, 39.882715 ] } },
{ "type": "Feature", "properties": { "Name": "中国石化巨各庄加油站", "Lon_Lat": "116.987068,40.364022", "Longitude": 116.987068, "Latitude": 40.364022, "Gdtype": "汽车服务;加油站;中国石化", "Prov": "北京市", "City": "北京市", "Address": "巨各庄镇", "Operator": "中国石化" }, "geometry": { "type": "Point", "coordinates": [ 116.987068, 40.364022 ] } },
{ "type": "Feature", "properties": { "Name": "中国石化宏通加油站", "Lon_Lat": "116.905485,39.805174", "Longitude": 116.905485, "Latitude": 39.805174, "Gdtype": "汽车服务;加油站;加油站", "Prov": "北京市", "City": "北京市", "Address": "大灰店村", "Operator": "中国石化" }, "geometry": { "type": "Point", "coordinates": [ 116.905485, 39.805174 ] } },
{ "type": "Feature", "properties": { "Name": "中国石化燕宏通加油站", "Lon_Lat": "116.044856,39.622009", "Longitude": 116.044856, "Latitude": 39.622009, "Gdtype": "汽车服务;加油站;中国石化", "Prov": "北京市", "City": "北京市", "Address": "白草洼村南", "Operator": "中国石化" }, "geometry": { "type": "Point", "coordinates": [ 116.044856, 39.622009 ] } },
{ "type": "Feature", "properties": { "Name": "中国石化信富加油站", "Lon_Lat": "116.651001,40.352099", "Longitude": 116.651001, "Latitude": 40.352099, "Gdtype": "汽车服务;加油站;中国石化", "Prov": "北京市", "City": "北京市", "Address": "怀柔镇大中富乐村", "Operator": "中国石化" }, "geometry": { "type": "Point", "coordinates": [ 116.651001, 40.352099 ] } },
{ "type": "Feature", "properties": { "Name": "中国石化琉璃河加油站", "Lon_Lat": "116.018404,39.594061", "Longitude": 116.018404, "Latitude": 39.594061, "Gdtype": "汽车服务;加油站;加油站", "Prov": "北京市", "City": "北京市", "Address": "琉璃河检测场北", "Operator": "中国石化" }, "geometry": { "type": "Point", "coordinates": [ 116.018404, 39.594061 ] } },
{ "type": "Feature", "properties": { "Name": "中国石化京南加油站", "Lon_Lat": "116.410896,39.674788", "Longitude": 116.410896, "Latitude": 39.674788, "Gdtype": "汽车服务;加油站;中国石化", "Prov": "北京市", "City": "北京市", "Address": "魏善庄西芦垡村南", "Operator": "中国石化" }, "geometry": { "type": "Point", "coordinates": [ 116.410896, 39.674788 ] } },
{ "type": "Feature", "properties": { "Name": "中国石化永定加油站", "Lon_Lat": "116.317123,39.478326", "Longitude": 116.317123, "Latitude": 39.478326, "Gdtype": "汽车服务;加油站;中国石化", "Prov": "北京市", "City": "北京市", "Address": "榆垡镇十里铺大桥北", "Operator": "中国石化" }, "geometry": { "type": "Point", "coordinates": [ 116.317123, 39.478326 ] } },
{ "type": "Feature", "properties": { "Name": "中国石化永定路加油站", "Lon_Lat": "116.26225,39.906837", "Longitude": 116.26225, "Latitude": 39.906837, "Gdtype": "汽车服务;加油站;中国石化", "Prov": "北京市", "City": "北京市", "Address": "复兴路丁36号", "Operator": "中国石化" }, "geometry": { "type": "Point", "coordinates": [ 116.26225, 39.906837 ] } },
{ "type": "Feature", "properties": { "Name": "中国石化北顺利加油站", "Lon_Lat": "116.658077,40.096802", "Longitude": 116.658077, "Latitude": 40.096802, "Gdtype": "汽车服务;加油站;中国石化", "Prov": "北京市", "City": "北京市", "Address": "平各庄村", "Operator": "中国石化" }, "geometry": { "type": "Point", "coordinates": [ 116.658077, 40.096802 ] } },
{ "type": "Feature", "properties": { "Name": "中国石化双益加油站", "Lon_Lat": "116.268168,39.769083", "Longitude": 116.268168, "Latitude": 39.769083, "Gdtype": "汽车服务;加油站;中国石化", "Prov": "北京市", "City": "北京市", "Address": "狼垡一村西1000米", "Operator": "中国石化" }, "geometry": { "type": "Point", "coordinates": [ 116.268168, 39.769083 ] } },
{ "type": "Feature", "properties": { "Name": "中国石化房窑加油站", "Lon_Lat": "116.202238,39.641907", "Longitude": 116.202238, "Latitude": 39.641907, "Gdtype": "汽车服务;加油站;中国石化", "Prov": "北京市", "City": "北京市", "Address": "北京市房山区琉璃河镇任营村", "Operator": "中国石化" }, "geometry": { "type": "Point", "coordinates": [ 116.202238, 39.641907 ] } },
{ "type": "Feature", "properties": { "Name": "中国石化下屯加油站", "Lon_Lat": "116.804637,40.303599", "Longitude": 116.804637, "Latitude": 40.303599, "Gdtype": "汽车服务;加油站;中国石化", "Prov": "北京市", "City": "北京市", "Address": "河南寨镇下屯村", "Operator": "中国石化" }, "geometry": { "type": "Point", "coordinates": [ 116.804637, 40.303599 ] } },
{ "type": "Feature", "properties": { "Name": "中国石化瀛海加油站", "Lon_Lat": "116.446141,39.770138", "Longitude": 116.446141, "Latitude": 39.770138, "Gdtype": "汽车服务;加油站;中国石化", "Prov": "北京市", "City": "北京市", "Address": "东一村51号", "Operator": "中国石化" }, "geometry": { "type": "Point", "coordinates": [ 116.446141, 39.770138 ] } },
{ "type": "Feature", "properties": { "Name": "中国石化恩祥加油站", "Lon_Lat": "116.240422,40.208456", "Longitude": 116.240422, "Latitude": 40.208456, "Gdtype": "汽车服务;加油站;中国石化", "Prov": "北京市", "City": "北京市", "Address": "科技园区创新路", "Operator": "中国石化" }, "geometry": { "type": "Point", "coordinates": [ 116.240422, 40.208456 ] } },
{ "type": "Feature", "properties": { "Name": "中国石化加油站", "Lon_Lat": "116.423315,39.721788", "Longitude": 116.423315, "Latitude": 39.721788, "Gdtype": "汽车服务;加油站;中国石化", "Prov": "北京市", "City": "北京市", "Address": "黄村镇三间房西侧", "Operator": "中国石化" }, "geometry": { "type": "Point", "coordinates": [ 116.423315, 39.721788 ] } },
{ "type": "Feature", "properties": { "Name": "中国石化加油站", "Lon_Lat": "116.032022,39.60935", "Longitude": 116.032022, "Latitude": 39.60935, "Gdtype": "汽车服务;加油站;中国石化", "Prov": "北京市", "City": "北京市", "Address": "琉璃河地区办事处南侧路东", "Operator": "中国石化" }, "geometry": { "type": "Point", "coordinates": [ 116.032022, 39.60935 ] } },
{ "type": "Feature", "properties": { "Name": "中国石化回龙观加油站", "Lon_Lat": "116.313406,40.077395", "Longitude": 116.313406, "Latitude": 40.077395, "Gdtype": "汽车服务;加油站;中国石化", "Prov": "北京市", "City": "北京市", "Address": "回龙观镇二拨子路东", "Operator": "中国石化" }, "geometry": { "type": "Point", "coordinates": [ 116.313406, 40.077395 ] } },
{ "type": "Feature", "properties": { "Name": "中国石化加油站(北京丰台口岸北)", "Lon_Lat": "116.253771,39.859084", "Longitude": 116.253771, "Latitude": 39.859084, "Gdtype": "汽车服务;加油站;中国石化", "Prov": "北京市", "City": "北京市", "Address": [ ], "Operator": "中国石化" }, "geometry": { "type": "Point", "coordinates": [ 116.253771, 39.859084 ] } },
{ "type": "Feature", "properties": { "Name": "中国石化前渠河加油站", "Lon_Lat": "116.530617,40.149067", "Longitude": 116.530617, "Latitude": 40.149067, "Gdtype": "汽车服务;加油站;中国石化", "Prov": "北京市", "City": "北京市", "Address": "前渠河村", "Operator": "中国石化" }, "geometry": { "type": "Point", "coordinates": [ 116.530617, 40.149067 ] } },
{ "type": "Feature", "properties": { "Name": "中国石化凯利加油站", "Lon_Lat": "116.454641,39.746009", "Longitude": 116.454641, "Latitude": 39.746009, "Gdtype": "汽车服务;加油站;中国石化", "Prov": "北京市", "City": "北京市", "Address": "瀛海镇杜庆村", "Operator": "中国石化" }, "geometry": { "type": "Point", "coordinates": [ 116.454641, 39.746009 ] } },
{ "type": "Feature", "properties": { "Name": "中国石化燕体加油站", "Lon_Lat": "116.639919,40.178431", "Longitude": 116.639919, "Latitude": 40.178431, "Gdtype": "汽车服务;加油站;中国石化", "Prov": "北京市", "City": "北京市", "Address": "马坡地区荆卷村北", "Operator": "中国石化" }, "geometry": { "type": "Point", "coordinates": [ 116.639919, 40.178431 ] } },
{ "type": "Feature", "properties": { "Name": "中国石化桑园加油站", "Lon_Lat": "117.156671,40.576475", "Longitude": 117.156671, "Latitude": 40.576475, "Gdtype": "汽车服务;加油站;加油站", "Prov": "北京市", "City": "北京市", "Address": "太师屯镇桑园村南", "Operator": "中国石化" }, "geometry": { "type": "Point", "coordinates": [ 117.156671, 40.576475 ] } },
{ "type": "Feature", "properties": { "Name": "中国石化德通加油站", "Lon_Lat": "116.2856,40.110431", "Longitude": 116.2856, "Latitude": 40.110431, "Gdtype": "汽车服务;加油站;中国石化", "Prov": "北京市", "City": "北京市", "Address": "回龙观镇定福皇庄路东78号", "Operator": "中国石化" }, "geometry": { "type": "Point", "coordinates": [ 116.2856, 40.110431 ] } },
{ "type": "Feature", "properties": { "Name": "中国石化顺路行加油站", "Lon_Lat": "117.064911,40.500037", "Longitude": 117.064911, "Latitude": 40.500037, "Gdtype": "汽车服务;加油站;中国石化", "Prov": "北京市", "City": "北京市", "Address": "龙潭沟村东", "Operator": "中国石化" }, "geometry": { "type": "Point", "coordinates": [ 117.064911, 40.500037 ] } },
{ "type": "Feature", "properties": { "Name": "中国石化黄管屯加油站", "Lon_Lat": "116.178773,39.78036", "Longitude": 116.178773, "Latitude": 39.78036, "Gdtype": "汽车服务;加油站;中国石化", "Prov": "北京市", "City": "北京市", "Address": "京周路路东", "Operator": "中国石化" }, "geometry": { "type": "Point", "coordinates": [ 116.178773, 39.78036 ] } },
{ "type": "Feature", "properties": { "Name": "中国石化同义昌加油站", "Lon_Lat": "116.82184,40.366347", "Longitude": 116.82184, "Latitude": 40.366347, "Gdtype": "汽车服务;加油站;中国石化", "Prov": "北京市", "City": "北京市", "Address": "西大桥村(101国道南侧)", "Operator": "中国石化" }, "geometry": { "type": "Point", "coordinates": [ 116.82184, 40.366347 ] } },
{ "type": "Feature", "properties": { "Name": "中国石化销售股份有限公司北京房山双山加油站", "Lon_Lat": "115.967632,39.678007", "Longitude": 115.967632, "Latitude": 39.678007, "Gdtype": "汽车服务;加油站;加油站", "Prov": "北京市", "City": "北京市", "Address": "房山街道顾册村西", "Operator": "中国石化" }, "geometry": { "type": "Point", "coordinates": [ 115.967632, 39.678007 ] } },
{ "type": "Feature", "properties": { "Name": "中国石化华昌加油站", "Lon_Lat": "116.227531,40.199818", "Longitude": 116.227531, "Latitude": 40.199818, "Gdtype": "汽车服务;加油站;中国石化", "Prov": "北京市", "City": "北京市", "Address": "水屯村南", "Operator": "中国石化" }, "geometry": { "type": "Point", "coordinates": [ 116.227531, 40.199818 ] } },
{ "type": "Feature", "properties": { "Name": "中国石化百葛服务区加油站", "Lon_Lat": "116.237338,40.182297", "Longitude": 116.237338, "Latitude": 40.182297, "Gdtype": "汽车服务;加油站;中国石化", "Prov": "北京市", "City": "北京市", "Address": "京藏高速百葛服务区进京方向", "Operator": "中国石化" }, "geometry": { "type": "Point", "coordinates": [ 116.237338, 40.182297 ] } },
{ "type": "Feature", "properties": { "Name": "中国石化天顺加油站", "Lon_Lat": "116.939973,40.152707", "Longitude": 116.939973, "Latitude": 40.152707, "Gdtype": "汽车服务;加油站;中国石化", "Prov": "北京市", "City": "北京市", "Address": "张镇政府南侧", "Operator": "中国石化" }, "geometry": { "type": "Point", "coordinates": [ 116.939973, 40.152707 ] } },
{ "type": "Feature", "properties": { "Name": "中国石化燕龙加油站", "Lon_Lat": "116.194998,40.225803", "Longitude": 116.194998, "Latitude": 40.225803, "Gdtype": "汽车服务;加油站;中国石化", "Prov": "北京市", "City": "北京市", "Address": "昌平镇邓庄", "Operator": "中国石化" }, "geometry": { "type": "Point", "coordinates": [ 116.194998, 40.225803 ] } },
{ "type": "Feature", "properties": { "Name": "中国石化青山加油站", "Lon_Lat": "116.921995,40.100065", "Longitude": 116.921995, "Latitude": 40.100065, "Gdtype": "汽车服务;加油站;中国石化", "Prov": "北京市", "City": "北京市", "Address": "大孙各庄镇政府北侧", "Operator": "中国石化" }, "geometry": { "type": "Point", "coordinates": [ 116.921995, 40.100065 ] } },
{ "type": "Feature", "properties": { "Name": "中国石化亚源加油站", "Lon_Lat": "116.658868,40.161463", "Longitude": 116.658868, "Latitude": 40.161463, "Gdtype": "汽车服务;加油站;中国石化", "Prov": "北京市", "City": "北京市", "Address": "大营村东", "Operator": "中国石化" }, "geometry": { "type": "Point", "coordinates": [ 116.658868, 40.161463 ] } },
{ "type": "Feature", "properties": { "Name": "中国石化顺金运加油站", "Lon_Lat": "116.570756,40.119172", "Longitude": 116.570756, "Latitude": 40.119172, "Gdtype": "汽车服务;加油站;中国石化", "Prov": "北京市", "City": "北京市", "Address": "后沙峪地区枯柳树村北", "Operator": "中国石化" }, "geometry": { "type": "Point", "coordinates": [ 116.570756, 40.119172 ] } }
]
}
