{
"type": "FeatureCollection",
"name": "其他",
"crs": { "type": "name", "properties": { "name": "urn:ogc:def:crs:OGC:1.3:CRS84" } },
"features": [
{ "type": "Feature", "properties": { "Name": "天金石油加油站", "Lon_Lat": "116.434485,39.729484", "Longitude": 116.434485, "Latitude": 39.729484, "Gdtype": "汽车服务;加油站;加油站", "Prov": "北京市", "City": "北京市", "Address": "西红门金业大街10号附近", "Operator": "其他" }, "geometry": { "type": "Point", "coordinates": [ 116.434485, 39.729484 ] } },
{ "type": "Feature", "properties": { "Name": "西集停车区加油站(暂停营业)", "Lon_Lat": "116.893640,39.779847", "Longitude": 116.89364, "Latitude": 39.779847, "Gdtype": "汽车服务;加油站;加油站", "Prov": "北京市", "City": "北京市", "Address": null, "Operator": "其他" }, "geometry": { "type": "Point", "coordinates": [ 116.89364, 39.779847 ] } },
{ "type": "Feature", "properties": { "Name": "润福通石化加油站", "Lon_Lat": "115.995286,39.681919", "Longitude": 115.995286, "Latitude": 39.681919, "Gdtype": "汽车服务;加油站;加油站", "Prov": "北京市", "City": "北京市", "Address": "企业街11号", "Operator": "其他" }, "geometry": { "type": "Point", "coordinates": [ 115.995286, 39.681919 ] } },
{ "type": "Feature", "properties": { "Name": "加油站(暂停营业)", "Lon_Lat": "115.936827,39.703223", "Longitude": 115.936827, "Latitude": 39.703223, "Gdtype": "汽车服务;加油站;加油站", "Prov": "北京市", "City": "北京市", "Address": "周口店镇山口村,周胜路东侧,龙海山庄西侧", "Operator": "其他" }, "geometry": { "type": "Point", "coordinates": [ 115.936827, 39.703223 ] } },
{ "type": "Feature", "properties": { "Name": "北京京西三兴加油站", "Lon_Lat": "116.274664,39.881574", "Longitude": 116.274664, "Latitude": 39.881574, "Gdtype": "汽车服务;加油站;加油站", "Prov": "北京市", "City": "北京市", "Address": "西四环外侧辅路红星美凯龙南侧50米", "Operator": "其他" }, "geometry": { "type": "Point", "coordinates": [ 116.274664, 39.881574 ] } },
{ "type": "Feature", "properties": { "Name": "中福石油加油站", "Lon_Lat": "116.08278,39.767936", "Longitude": 116.08278, "Latitude": 39.767936, "Gdtype": "汽车服务;加油站;加油站", "Prov": "北京市", "City": "北京市", "Address": "良坨路附近", "Operator": "其他" }, "geometry": { "type": "Point", "coordinates": [ 116.08278, 39.767936 ] } },
{ "type": "Feature", "properties": { "Name": "中化石油吉利朝阳加油站", "Lon_Lat": "116.456225,39.872096", "Longitude": 116.456225, "Latitude": 39.872096, "Gdtype": "汽车服务;加油站;加油站", "Prov": "北京市", "City": "北京市", "Address": "华威南路与华威路交叉口东北", "Operator": "其他" }, "geometry": { "type": "Point", "coordinates": [ 116.456225, 39.872096 ] } },
{ "type": "Feature", "properties": { "Name": "北京珊瑚路加油站(暂停营业)", "Lon_Lat": "116.453155,39.822045", "Longitude": 116.453155, "Latitude": 39.822045, "Gdtype": "汽车服务;加油站;加油站", "Prov": "北京市", "City": "北京市", "Address": "小红门珊瑚路", "Operator": "其他" }, "geometry": { "type": "Point", "coordinates": [ 116.453155, 39.822045 ] } },
{ "type": "Feature", "properties": { "Name": "燕山盛祥加油站", "Lon_Lat": "117.113371,40.117268", "Longitude": 117.113371, "Latitude": 40.117268, "Gdtype": "汽车服务;加油站;加油站", "Prov": "北京市", "City": "北京市", "Address": "东高村镇南埝头西路76号西北方向100米", "Operator": "其他" }, "geometry": { "type": "Point", "coordinates": [ 117.113371, 40.117268 ] } },
{ "type": "Feature", "properties": { "Name": "中化石油加油站", "Lon_Lat": "116.769191,40.238615", "Longitude": 116.769191, "Latitude": 40.238615, "Gdtype": "汽车服务;加油站;加油站", "Prov": "北京市", "City": "北京市", "Address": null, "Operator": "其他" }, "geometry": { "type": "Point", "coordinates": [ 116.769191, 40.238615 ] } },
{ "type": "Feature", "properties": { "Name": "方润石油加油站(腾远站)", "Lon_Lat": "116.49759,39.960678", "Longitude": 116.49759, "Latitude": 39.960678, "Gdtype": "汽车服务;加油站;加油站", "Prov": "北京市", "City": "北京市", "Address": "酒仙桥路52号", "Operator": "其他" }, "geometry": { "type": "Point", "coordinates": [ 116.49759, 39.960678 ] } },
{ "type": "Feature", "properties": { "Name": "中国航油加油站(一纬路)", "Lon_Lat": "116.621162,40.049623", "Longitude": 116.621162, "Latitude": 40.049623, "Gdtype": "汽车服务;加油站;加油站", "Prov": "北京市", "City": "北京市", "Address": "四经路附近", "Operator": "其他" }, "geometry": { "type": "Point", "coordinates": [ 116.621162, 40.049623 ] } },
{ "type": "Feature", "properties": { "Name": "众诚连锁加油站(暂停营业)", "Lon_Lat": "116.310554,39.869775", "Longitude": 116.310554, "Latitude": 39.869775, "Gdtype": "汽车服务;加油站;加油站", "Prov": "北京市", "City": "北京市", "Address": "西局南街", "Operator": "其他" }, "geometry": { "type": "Point", "coordinates": [ 116.310554, 39.869775 ] } },
{ "type": "Feature", "properties": { "Name": "加油站", "Lon_Lat": "116.264581,40.032902", "Longitude": 116.264581, "Latitude": 40.032902, "Gdtype": "汽车服务;加油站;加油站", "Prov": "北京市", "City": "北京市", "Address": "黑山扈路19号", "Operator": "其他" }, "geometry": { "type": "Point", "coordinates": [ 116.264581, 40.032902 ] } },
{ "type": "Feature", "properties": { "Name": "中福石油加油站(长虹西路)", "Lon_Lat": "116.116011,39.723914", "Longitude": 116.116011, "Latitude": 39.723914, "Gdtype": "汽车服务;加油站;加油站", "Prov": "北京市", "City": "北京市", "Address": "长虹西路31附近", "Operator": "其他" }, "geometry": { "type": "Point", "coordinates": [ 116.116011, 39.723914 ] } },
{ "type": "Feature", "properties": { "Name": "中化石油加油站", "Lon_Lat": "116.644849,40.219739", "Longitude": 116.644849, "Latitude": 40.219739, "Gdtype": "汽车服务;加油站;加油站", "Prov": "北京市", "City": "北京市", "Address": "牛栏山镇京密路牛山段4号", "Operator": "其他" }, "geometry": { "type": "Point", "coordinates": [ 116.644849, 40.219739 ] } },
{ "type": "Feature", "properties": { "Name": "加油站(暂停营业)", "Lon_Lat": "116.995963,40.565763", "Longitude": 116.995963, "Latitude": 40.565763, "Gdtype": "汽车服务;加油站;加油站", "Prov": "北京市", "City": "北京市", "Address": "琉辛路与后半路交叉口西北约60米", "Operator": "其他" }, "geometry": { "type": "Point", "coordinates": [ 116.995963, 40.565763 ] } },
{ "type": "Feature", "properties": { "Name": "旺平东加油站", "Lon_Lat": "116.5465,39.949974", "Longitude": 116.5465, "Latitude": 39.949974, "Gdtype": "汽车服务;加油站;加油站", "Prov": "北京市", "City": "北京市", "Address": "东坝中路114号", "Operator": "其他" }, "geometry": { "type": "Point", "coordinates": [ 116.5465, 39.949974 ] } },
{ "type": "Feature", "properties": { "Name": "天金石油加油站", "Lon_Lat": "116.435598,39.729688", "Longitude": 116.435598, "Latitude": 39.729688, "Gdtype": "汽车服务;加油站;加油站", "Prov": "北京市", "City": "北京市", "Address": [ ], "Operator": "其他" }, "geometry": { "type": "Point", "coordinates": [ 116.435598, 39.729688 ] } },
{ "type": "Feature", "properties": { "Name": "佰强石化(兴海加油站)", "Lon_Lat": "116.348470,39.722381", "Longitude": 116.34847, "Latitude": 39.722381, "Gdtype": "汽车服务;加油站;加油站", "Prov": "北京市", "City": "北京市", "Address": "海北路与海子角北街交汇处东100米路北", "Operator": "其他" }, "geometry": { "type": "Point", "coordinates": [ 116.34847, 39.722381 ] } },
{ "type": "Feature", "properties": { "Name": "小海豚加油站", "Lon_Lat": "116.657170,39.949583", "Longitude": 116.65717, "Latitude": 39.949583, "Gdtype": "汽车服务;加油站;加油站", "Prov": "北京市", "City": "北京市", "Address": "永顺地区北马庄村(通顺路路东,翠福园小区路东向)", "Operator": "其他" }, "geometry": { "type": "Point", "coordinates": [ 116.65717, 39.949583 ] } },
{ "type": "Feature", "properties": { "Name": "燕山盛祥石油飞速达加油站", "Lon_Lat": "117.207485,40.168995", "Longitude": 117.207485, "Latitude": 40.168995, "Gdtype": "汽车服务;加油站;加油站", "Prov": "北京市", "City": "北京市", "Address": "乐河镇平蓟路南独乐河集贸市场旁边", "Operator": "其他" }, "geometry": { "type": "Point", "coordinates": [ 117.207485, 40.168995 ] } },
{ "type": "Feature", "properties": { "Name": "中化石油加油站", "Lon_Lat": "116.76093,39.847519", "Longitude": 116.76093, "Latitude": 39.847519, "Gdtype": "汽车服务;加油站;加油站", "Prov": "北京市", "City": "北京市", "Address": "103国道", "Operator": "其他" }, "geometry": { "type": "Point", "coordinates": [ 116.76093, 39.847519 ] } },
{ "type": "Feature", "properties": { "Name": "中图能源加油站(白龙马站)", "Lon_Lat": "116.62086,39.62224", "Longitude": 116.62086, "Latitude": 39.62224, "Gdtype": "汽车服务;加油站;加油站", "Prov": "北京市", "City": "北京市", "Address": "首都环线高速北京白龙马石油加油站", "Operator": "其他" }, "geometry": { "type": "Point", "coordinates": [ 116.62086, 39.62224 ] } },
{ "type": "Feature", "properties": { "Name": "中国国际能源加油站", "Lon_Lat": "116.726432,40.13461", "Longitude": 116.726432, "Latitude": 40.13461, "Gdtype": "汽车服务;加油站;加油站", "Prov": "北京市", "City": "北京市", "Address": "天河小区北侧", "Operator": "其他" }, "geometry": { "type": "Point", "coordinates": [ 116.726432, 40.13461 ] } },
{ "type": "Feature", "properties": { "Name": "中化石油加油站", "Lon_Lat": "116.070670,40.177417", "Longitude": 116.07067, "Latitude": 40.177417, "Gdtype": "汽车服务;加油站;加油站", "Prov": "北京市", "City": "北京市", "Address": "创新路与南雁路交叉口北100米", "Operator": "其他" }, "geometry": { "type": "Point", "coordinates": [ 116.07067, 40.177417 ] } },
{ "type": "Feature", "properties": { "Name": "加油站洗车房", "Lon_Lat": "116.328351,39.848651", "Longitude": 116.328351, "Latitude": 39.848651, "Gdtype": "汽车服务;洗车场;洗车场|汽车服务;加油站;加油站", "Prov": "北京市", "City": "北京市", "Address": "夏家胡同117号", "Operator": "其他" }, "geometry": { "type": "Point", "coordinates": [ 116.328351, 39.848651 ] } },
{ "type": "Feature", "properties": { "Name": "中化石油北京石化加油站", "Lon_Lat": "116.527738,40.098424", "Longitude": 116.527738, "Latitude": 40.098424, "Gdtype": "汽车服务;加油站;加油站", "Prov": "北京市", "City": "北京市", "Address": "罗马环岛东侧200米路北", "Operator": "其他" }, "geometry": { "type": "Point", "coordinates": [ 116.527738, 40.098424 ] } },
{ "type": "Feature", "properties": { "Name": "中国国际能源农林路加油站", "Lon_Lat": "115.984093,39.689146", "Longitude": 115.984093, "Latitude": 39.689146, "Gdtype": "汽车服务;加油站;加油站", "Prov": "北京市", "City": "北京市", "Address": "农林路西侧", "Operator": "其他" }, "geometry": { "type": "Point", "coordinates": [ 115.984093, 39.689146 ] } },
{ "type": "Feature", "properties": { "Name": "众诚连锁加油站", "Lon_Lat": "116.569027,39.809798", "Longitude": 116.569027, "Latitude": 39.809798, "Gdtype": "汽车服务;加油站;加油站", "Prov": "北京市", "City": "北京市", "Address": "中关村科技园区通州园光机电一体化产业基地兴光六街1号", "Operator": "其他" }, "geometry": { "type": "Point", "coordinates": [ 116.569027, 39.809798 ] } },
{ "type": "Feature", "properties": { "Name": "中化石油北京石化恒亮加油站", "Lon_Lat": "116.634288,40.139097", "Longitude": 116.634288, "Latitude": 40.139097, "Gdtype": "汽车服务;加油站;加油站", "Prov": "北京市", "City": "北京市", "Address": "仁和地区西外街21号", "Operator": "其他" }, "geometry": { "type": "Point", "coordinates": [ 116.634288, 40.139097 ] } },
{ "type": "Feature", "properties": { "Name": "众生中油北清加油站", "Lon_Lat": "116.252304,40.076486", "Longitude": 116.252304, "Latitude": 40.076486, "Gdtype": "汽车服务;加油站;加油站", "Prov": "北京市", "City": "北京市", "Address": "西北旺北清路77号", "Operator": "其他" }, "geometry": { "type": "Point", "coordinates": [ 116.252304, 40.076486 ] } },
{ "type": "Feature", "properties": { "Name": "加油站(暂停营业)", "Lon_Lat": "116.248028,39.691393", "Longitude": 116.248028, "Latitude": 39.691393, "Gdtype": "汽车服务;加油站;加油站", "Prov": "北京市", "City": "北京市", "Address": "桑马房路与左堤路交叉路口往南约100米", "Operator": "其他" }, "geometry": { "type": "Point", "coordinates": [ 116.248028, 39.691393 ] } },
{ "type": "Feature", "properties": { "Name": "龙瑞森长陵加油站", "Lon_Lat": "116.238221,40.289422", "Longitude": 116.238221, "Latitude": 40.289422, "Gdtype": "汽车服务;加油站;加油站", "Prov": "北京市", "City": "北京市", "Address": "定陵机场路与昭陵路交叉口西100米", "Operator": "其他" }, "geometry": { "type": "Point", "coordinates": [ 116.238221, 40.289422 ] } },
{ "type": "Feature", "properties": { "Name": "中图能源五行加油站", "Lon_Lat": "116.663235,40.32152", "Longitude": 116.663235, "Latitude": 40.32152, "Gdtype": "汽车服务;加油站;加油站", "Prov": "北京市", "City": "北京市", "Address": "怀柔镇王化村京密路", "Operator": "其他" }, "geometry": { "type": "Point", "coordinates": [ 116.663235, 40.32152 ] } },
{ "type": "Feature", "properties": { "Name": "天龙加油站(陡子峪乡派出所南)", "Lon_Lat": "117.318446,40.285019", "Longitude": 117.318446, "Latitude": 40.285019, "Gdtype": "汽车服务;加油站;加油站", "Prov": "北京市", "City": "北京市", "Address": "沥水沟村怀勤百货商店南侧兴隆县公安局陡子峪乡派出所附近", "Operator": "其他" }, "geometry": { "type": "Point", "coordinates": [ 117.318446, 40.285019 ] } },
{ "type": "Feature", "properties": { "Name": "能链大柳树加油站", "Lon_Lat": "116.509739,39.873881", "Longitude": 116.509739, "Latitude": 39.873881, "Gdtype": "汽车服务;加油站;加油站", "Prov": "北京市", "City": "北京市", "Address": "化工路王四营路1号", "Operator": "其他" }, "geometry": { "type": "Point", "coordinates": [ 116.509739, 39.873881 ] } },
{ "type": "Feature", "properties": { "Name": "十三陵加油站", "Lon_Lat": "116.21139,40.234566", "Longitude": 116.21139, "Latitude": 40.234566, "Gdtype": "汽车服务;加油站;加油站", "Prov": "北京市", "City": "北京市", "Address": "北大分校路附近", "Operator": "其他" }, "geometry": { "type": "Point", "coordinates": [ 116.21139, 40.234566 ] } },
{ "type": "Feature", "properties": { "Name": "飞驰加油站", "Lon_Lat": "116.123185,39.706050", "Longitude": 116.123185, "Latitude": 39.70605, "Gdtype": "汽车服务;加油站;加油站", "Prov": "北京市", "City": "北京市", "Address": "阎村镇肖庄村村西", "Operator": "其他" }, "geometry": { "type": "Point", "coordinates": [ 116.123185, 39.70605 ] } },
{ "type": "Feature", "properties": { "Name": "燕林加油站(暂停营业)", "Lon_Lat": "116.264663,40.032856", "Longitude": 116.264663, "Latitude": 40.032856, "Gdtype": "汽车服务;加油站;加油站", "Prov": "北京市", "City": "北京市", "Address": "黑山扈路19号", "Operator": "其他" }, "geometry": { "type": "Point", "coordinates": [ 116.264663, 40.032856 ] } },
{ "type": "Feature", "properties": { "Name": "北京畅通途加油站", "Lon_Lat": "116.009101,40.451875", "Longitude": 116.009101, "Latitude": 40.451875, "Gdtype": "汽车服务;加油站;加油站", "Prov": "北京市", "City": "北京市", "Address": "延庆镇莲花池村东南", "Operator": "其他" }, "geometry": { "type": "Point", "coordinates": [ 116.009101, 40.451875 ] } },
{ "type": "Feature", "properties": { "Name": "江华燕山盛祥石油加油站", "Lon_Lat": "117.061738,40.19347", "Longitude": 117.061738, "Latitude": 40.19347, "Gdtype": "汽车服务;加油站;加油站", "Prov": "北京市", "City": "北京市", "Address": "平关路与杨杏路交汇处向南路东乐政务中心幼儿园附近", "Operator": "其他" }, "geometry": { "type": "Point", "coordinates": [ 117.061738, 40.19347 ] } },
{ "type": "Feature", "properties": { "Name": "燕化兴隆加油站(暂停营业)", "Lon_Lat": "116.044674,40.432374", "Longitude": 116.044674, "Latitude": 40.432374, "Gdtype": "汽车服务;加油站;加油站", "Prov": "北京市", "City": "北京市", "Address": "京银路国道110,高庙屯村村委会段", "Operator": "其他" }, "geometry": { "type": "Point", "coordinates": [ 116.044674, 40.432374 ] } },
{ "type": "Feature", "properties": { "Name": "燕山盛祥石油加油站", "Lon_Lat": "117.273298,40.180286", "Longitude": 117.273298, "Latitude": 40.180286, "Gdtype": "汽车服务;加油站;加油站", "Prov": "北京市", "City": "北京市", "Address": "金海湖韩庄南街105号", "Operator": "其他" }, "geometry": { "type": "Point", "coordinates": [ 117.273298, 40.180286 ] } },
{ "type": "Feature", "properties": { "Name": "燕山盛祥加油站", "Lon_Lat": "117.147,40.161549", "Longitude": 117.147, "Latitude": 40.161549, "Gdtype": "汽车服务;加油站;加油站", "Prov": "北京市", "City": "北京市", "Address": "张各庄北路与贤王庄北路交叉口东北100米", "Operator": "其他" }, "geometry": { "type": "Point", "coordinates": [ 117.147, 40.161549 ] } },
{ "type": "Feature", "properties": { "Name": "四联加油站(暂停营业)", "Lon_Lat": "115.862472,39.809555", "Longitude": 115.862472, "Latitude": 39.809555, "Gdtype": "汽车服务;加油站;加油站", "Prov": "北京市", "City": "北京市", "Address": "108国道复线西50米", "Operator": "其他" }, "geometry": { "type": "Point", "coordinates": [ 115.862472, 39.809555 ] } },
{ "type": "Feature", "properties": { "Name": "佰强石化加油站(顺丰鑫成站)", "Lon_Lat": "116.428668,39.565067", "Longitude": 116.428668, "Latitude": 39.565067, "Gdtype": "汽车服务;加油站;加油站", "Prov": "北京市", "City": "北京市", "Address": "小马房村北", "Operator": "其他" }, "geometry": { "type": "Point", "coordinates": [ 116.428668, 39.565067 ] } },
{ "type": "Feature", "properties": { "Name": "加油站", "Lon_Lat": "115.66883,39.856804", "Longitude": 115.66883, "Latitude": 39.856804, "Gdtype": "汽车服务;加油站;加油站", "Prov": "北京市", "City": "北京市", "Address": "贾史公路西50米", "Operator": "其他" }, "geometry": { "type": "Point", "coordinates": [ 115.66883, 39.856804 ] } },
{ "type": "Feature", "properties": { "Name": "石五联加油站", "Lon_Lat": "116.47689,39.898824", "Longitude": 116.47689, "Latitude": 39.898824, "Gdtype": "汽车服务;加油站;加油站", "Prov": "北京市", "City": "北京市", "Address": "西大望路20号", "Operator": "其他" }, "geometry": { "type": "Point", "coordinates": [ 116.47689, 39.898824 ] } },
{ "type": "Feature", "properties": { "Name": "中国国燃远东加油站", "Lon_Lat": "116.798899,39.818822", "Longitude": 116.798899, "Latitude": 39.818822, "Gdtype": "汽车服务;加油站;加油站", "Prov": "北京市", "City": "北京市", "Address": "西集镇沙古堆村", "Operator": "其他" }, "geometry": { "type": "Point", "coordinates": [ 116.798899, 39.818822 ] } },
{ "type": "Feature", "properties": { "Name": "北京鸿润达源加油站", "Lon_Lat": "115.546044,39.711087", "Longitude": 115.546044, "Latitude": 39.711087, "Gdtype": "汽车服务;加油站;加油站", "Prov": "北京市", "City": "北京市", "Address": "蒲洼乡议合涞宝路鸿润达源加油站", "Operator": "其他" }, "geometry": { "type": "Point", "coordinates": [ 115.546044, 39.711087 ] } },
{ "type": "Feature", "properties": { "Name": "中图能源穗联加油站", "Lon_Lat": "116.238314,40.18579", "Longitude": 116.238314, "Latitude": 40.18579, "Gdtype": "汽车服务;加油站;加油站", "Prov": "北京市", "City": "北京市", "Address": "马池口镇白浮村", "Operator": "其他" }, "geometry": { "type": "Point", "coordinates": [ 116.238314, 40.18579 ] } },
{ "type": "Feature", "properties": { "Name": "石油特许加盟华北石门加油站", "Lon_Lat": "116.12909,39.953581", "Longitude": 116.12909, "Latitude": 39.953581, "Gdtype": "汽车服务;加油站;加油站", "Prov": "北京市", "City": "北京市", "Address": "石门路298号", "Operator": "其他" }, "geometry": { "type": "Point", "coordinates": [ 116.12909, 39.953581 ] } },
{ "type": "Feature", "properties": { "Name": "中化石油加油站", "Lon_Lat": "116.689906,39.916623", "Longitude": 116.689906, "Latitude": 39.916623, "Gdtype": "汽车服务;加油站;加油站", "Prov": "北京市", "City": "北京市", "Address": "芙蓉东路大顺斋食品厂大门北", "Operator": "其他" }, "geometry": { "type": "Point", "coordinates": [ 116.689906, 39.916623 ] } },
{ "type": "Feature", "properties": { "Name": "小红门路民营加油站", "Lon_Lat": "116.454002,39.853427", "Longitude": 116.454002, "Latitude": 39.853427, "Gdtype": "汽车服务;加油站;加油站", "Prov": "北京市", "City": "北京市", "Address": "分钟寺小红门路倪庄8号", "Operator": "其他" }, "geometry": { "type": "Point", "coordinates": [ 116.454002, 39.853427 ] } },
{ "type": "Feature", "properties": { "Name": "加油站(暂停营业)", "Lon_Lat": "116.153120,40.525923", "Longitude": 116.15312, "Latitude": 40.525923, "Gdtype": "汽车服务;加油站;加油站", "Prov": "北京市", "City": "北京市", "Address": "永宁镇西关村西永宁镇税务所旁", "Operator": "其他" }, "geometry": { "type": "Point", "coordinates": [ 116.15312, 40.525923 ] } },
{ "type": "Feature", "properties": { "Name": "大桥石化豆各庄加油站", "Lon_Lat": "116.502471,39.936933", "Longitude": 116.502471, "Latitude": 39.936933, "Gdtype": "汽车服务;加油站;加油站", "Prov": "北京市", "City": "北京市", "Address": "姚家园路与星火西路交叉口东北角", "Operator": "其他" }, "geometry": { "type": "Point", "coordinates": [ 116.502471, 39.936933 ] } },
{ "type": "Feature", "properties": { "Name": "中福石油加油站", "Lon_Lat": "116.400715,40.269728", "Longitude": 116.400715, "Latitude": 40.269728, "Gdtype": "汽车服务;加油站;加油站", "Prov": "北京市", "City": "北京市", "Address": "兴寿镇下庄牛蹄岭,省道213牛蹄岭村段", "Operator": "其他" }, "geometry": { "type": "Point", "coordinates": [ 116.400715, 40.269728 ] } },
{ "type": "Feature", "properties": { "Name": "燕源石油加油站", "Lon_Lat": "115.966317,39.717278", "Longitude": 115.966317, "Latitude": 39.717278, "Gdtype": "汽车服务;加油站;加油站", "Prov": "北京市", "City": "北京市", "Address": "杏花东路", "Operator": "其他" }, "geometry": { "type": "Point", "coordinates": [ 115.966317, 39.717278 ] } },
{ "type": "Feature", "properties": { "Name": "中林石化加油站", "Lon_Lat": "116.033084,39.709244", "Longitude": 116.033084, "Latitude": 39.709244, "Gdtype": "汽车服务;加油站;加油站", "Prov": "北京市", "City": "北京市", "Address": "京周路北京市房山区实验中学西南侧约200米", "Operator": "其他" }, "geometry": { "type": "Point", "coordinates": [ 116.033084, 39.709244 ] } },
{ "type": "Feature", "properties": { "Name": "中国京油加油站", "Lon_Lat": "117.318425,40.284959", "Longitude": 117.318425, "Latitude": 40.284959, "Gdtype": "汽车服务;加油站;加油站", "Prov": "北京市", "City": "北京市", "Address": "天龙加油站(陡子峪乡派出所南)", "Operator": "其他" }, "geometry": { "type": "Point", "coordinates": [ 117.318425, 40.284959 ] } },
{ "type": "Feature", "properties": { "Name": "京化加油站", "Lon_Lat": "116.147736,39.710357", "Longitude": 116.147736, "Latitude": 39.710357, "Gdtype": "汽车服务;加油站;加油站", "Prov": "北京市", "City": "北京市", "Address": "良乡镇经济开发区白杨路甲一号", "Operator": "其他" }, "geometry": { "type": "Point", "coordinates": [ 116.147736, 39.710357 ] } },
{ "type": "Feature", "properties": { "Name": "中国航天科工三院加油站", "Lon_Lat": "116.172223,39.807468", "Longitude": 116.172223, "Latitude": 39.807468, "Gdtype": "汽车服务;加油站;加油站", "Prov": "北京市", "City": "北京市", "Address": "云岗路119号", "Operator": "其他" }, "geometry": { "type": "Point", "coordinates": [ 116.172223, 39.807468 ] } },
{ "type": "Feature", "properties": { "Name": "庆轩加油站(来广营西路)", "Lon_Lat": "116.450612,40.020696", "Longitude": 116.450612, "Latitude": 40.020696, "Gdtype": "汽车服务;加油站;加油站", "Prov": "北京市", "City": "北京市", "Address": "来广营西路南侧", "Operator": "其他" }, "geometry": { "type": "Point", "coordinates": [ 116.450612, 40.020696 ] } },
{ "type": "Feature", "properties": { "Name": "利安顺加油站", "Lon_Lat": "116.12985,39.814807", "Longitude": 116.12985, "Latitude": 39.814807, "Gdtype": "汽车服务;加油站;加油站", "Prov": "北京市", "City": "北京市", "Address": "大灰厂路西王佐村北", "Operator": "其他" }, "geometry": { "type": "Point", "coordinates": [ 116.12985, 39.814807 ] } },
{ "type": "Feature", "properties": { "Name": "京东加油站(不对外加油)", "Lon_Lat": "116.037843,39.708943", "Longitude": 116.037843, "Latitude": 39.708943, "Gdtype": "汽车服务;加油站;加油站", "Prov": "北京市", "City": "北京市", "Address": "京周公路南侧希望饲料大厦附近", "Operator": "其他" }, "geometry": { "type": "Point", "coordinates": [ 116.037843, 39.708943 ] } },
{ "type": "Feature", "properties": { "Name": "兴龙石化加油站", "Lon_Lat": "116.464569,39.722716", "Longitude": 116.464569, "Latitude": 39.722716, "Gdtype": "汽车服务;加油站;加油站", "Prov": "北京市", "City": "北京市", "Address": "京福路", "Operator": "其他" }, "geometry": { "type": "Point", "coordinates": [ 116.464569, 39.722716 ] } },
{ "type": "Feature", "properties": { "Name": "中国能源加油站(顺长山站)", "Lon_Lat": "116.879363,40.153412", "Longitude": 116.879363, "Latitude": 40.153412, "Gdtype": "汽车服务;加油站;加油站", "Prov": "北京市", "City": "北京市", "Address": "沙岭村口(顺平路与Y259乡道路口)", "Operator": "其他" }, "geometry": { "type": "Point", "coordinates": [ 116.879363, 40.153412 ] } },
{ "type": "Feature", "properties": { "Name": "腾龙宏海加油站", "Lon_Lat": "115.991041,39.707443", "Longitude": 115.991041, "Latitude": 39.707443, "Gdtype": "汽车服务;加油站;加油站", "Prov": "北京市", "City": "北京市", "Address": "城关镇房山站路燕房路小区东侧路北", "Operator": "其他" }, "geometry": { "type": "Point", "coordinates": [ 115.991041, 39.707443 ] } },
{ "type": "Feature", "properties": { "Name": "三河市燕顺加油站", "Lon_Lat": "116.790892,40.03186", "Longitude": 116.790892, "Latitude": 40.03186, "Gdtype": "汽车服务;加油站;加油站", "Prov": "北京市", "City": "北京市", "Address": "燕顺路", "Operator": "其他" }, "geometry": { "type": "Point", "coordinates": [ 116.790892, 40.03186 ] } },
{ "type": "Feature", "properties": { "Name": "燕东旺加油站", "Lon_Lat": "117.073009,40.087839", "Longitude": 117.073009, "Latitude": 40.087839, "Gdtype": "汽车服务;加油站;加油站", "Prov": "北京市", "City": "北京市", "Address": "东高村镇崔家庄前街2号", "Operator": "其他" }, "geometry": { "type": "Point", "coordinates": [ 117.073009, 40.087839 ] } },
{ "type": "Feature", "properties": { "Name": "中化石油利兴源加油站(暂停营业)", "Lon_Lat": "116.402192,39.670457", "Longitude": 116.402192, "Latitude": 39.670457, "Gdtype": "汽车服务;加油站;加油站", "Prov": "北京市", "City": "北京市", "Address": "黄徐路与魏石路交叉口处", "Operator": "其他" }, "geometry": { "type": "Point", "coordinates": [ 116.402192, 39.670457 ] } },
{ "type": "Feature", "properties": { "Name": "中图石油加油站", "Lon_Lat": "116.792129,40.245287", "Longitude": 116.792129, "Latitude": 40.245287, "Gdtype": "汽车服务;加油站;加油站", "Prov": "北京市", "City": "北京市", "Address": "木林镇木林村", "Operator": "其他" }, "geometry": { "type": "Point", "coordinates": [ 116.792129, 40.245287 ] } },
{ "type": "Feature", "properties": { "Name": "中图能源加油站(圆明园西路站)", "Lon_Lat": "116.281928,40.022459", "Longitude": 116.281928, "Latitude": 40.022459, "Gdtype": "汽车服务;加油站;加油站", "Prov": "北京市", "City": "北京市", "Address": "圆明园西路2号", "Operator": "其他" }, "geometry": { "type": "Point", "coordinates": [ 116.281928, 40.022459 ] } },
{ "type": "Feature", "properties": { "Name": "北方加油站", "Lon_Lat": "116.230919,39.893769", "Longitude": 116.230919, "Latitude": 39.893769, "Gdtype": "汽车服务;加油站;加油站", "Prov": "北京市", "City": "北京市", "Address": "八宝山南路甲1号", "Operator": "其他" }, "geometry": { "type": "Point", "coordinates": [ 116.230919, 39.893769 ] } },
{ "type": "Feature", "properties": { "Name": "西集停车区加油站(建设中)", "Lon_Lat": "116.895737,39.779404", "Longitude": 116.895737, "Latitude": 39.779404, "Gdtype": "汽车服务;加油站;加油站", "Prov": "北京市", "City": "北京市", "Address": null, "Operator": "其他" }, "geometry": { "type": "Point", "coordinates": [ 116.895737, 39.779404 ] } },
{ "type": "Feature", "properties": { "Name": "强安石油加油站", "Lon_Lat": "116.38079,39.975588", "Longitude": 116.38079, "Latitude": 39.975588, "Gdtype": "汽车服务;加油站;加油站", "Prov": "北京市", "City": "北京市", "Address": "京藏高速祁家豁子甲2号(健德门地铁站D西南口步行100米)", "Operator": "其他" }, "geometry": { "type": "Point", "coordinates": [ 116.38079, 39.975588 ] } },
{ "type": "Feature", "properties": { "Name": "丰辰加油站(杏石口路)", "Lon_Lat": "116.271679,39.947373", "Longitude": 116.271679, "Latitude": 39.947373, "Gdtype": "汽车服务;加油站;加油站", "Prov": "北京市", "City": "北京市", "Address": "杏石口路3号", "Operator": "其他" }, "geometry": { "type": "Point", "coordinates": [ 116.271679, 39.947373 ] } },
{ "type": "Feature", "properties": { "Name": "中图能源加油站", "Lon_Lat": "116.640669,40.121551", "Longitude": 116.640669, "Latitude": 40.121551, "Gdtype": "汽车服务;加油站;加油站", "Prov": "北京市", "City": "北京市", "Address": "顺白路233号", "Operator": "其他" }, "geometry": { "type": "Point", "coordinates": [ 116.640669, 40.121551 ] } },
{ "type": "Feature", "properties": { "Name": "中国航油大兴机场第二加油站", "Lon_Lat": "116.435032,39.510531", "Longitude": 116.435032, "Latitude": 39.510531, "Gdtype": "汽车服务;加油站;加油站", "Prov": "北京市", "City": "北京市", "Address": "国际机场主干四路西侧", "Operator": "其他" }, "geometry": { "type": "Point", "coordinates": [ 116.435032, 39.510531 ] } },
{ "type": "Feature", "properties": { "Name": "加油站(九台路)(暂停营业)", "Lon_Lat": "116.400943,40.079671", "Longitude": 116.400943, "Latitude": 40.079671, "Gdtype": "汽车服务;加油站;加油站", "Prov": "北京市", "City": "北京市", "Address": "九台路南50米", "Operator": "其他" }, "geometry": { "type": "Point", "coordinates": [ 116.400943, 40.079671 ] } },
{ "type": "Feature", "properties": { "Name": "中图能源加油站(彩源站)", "Lon_Lat": "116.734358,40.135097", "Longitude": 116.734358, "Latitude": 40.135097, "Gdtype": "汽车服务;加油站;加油站", "Prov": "北京市", "City": "北京市", "Address": "南彩镇瑞麟湾度假村西侧", "Operator": "其他" }, "geometry": { "type": "Point", "coordinates": [ 116.734358, 40.135097 ] } },
{ "type": "Feature", "properties": { "Name": "中国京油加油站", "Lon_Lat": "116.033572,39.601513", "Longitude": 116.033572, "Latitude": 39.601513, "Gdtype": "汽车服务;加油站;加油站", "Prov": "北京市", "City": "北京市", "Address": "琉璃河东大街三街一区3号", "Operator": "其他" }, "geometry": { "type": "Point", "coordinates": [ 116.033572, 39.601513 ] } },
{ "type": "Feature", "properties": { "Name": "中图能源加油站", "Lon_Lat": "116.793642,40.146563", "Longitude": 116.793642, "Latitude": 40.146563, "Gdtype": "汽车服务;加油站;加油站", "Prov": "北京市", "City": "北京市", "Address": "顺平路与安中街交口东侧", "Operator": "其他" }, "geometry": { "type": "Point", "coordinates": [ 116.793642, 40.146563 ] } },
{ "type": "Feature", "properties": { "Name": "众生中油霄云桥加油站", "Lon_Lat": "116.477634,39.966722", "Longitude": 116.477634, "Latitude": 39.966722, "Gdtype": "汽车服务;加油站;加油站", "Prov": "北京市", "City": "北京市", "Address": "东四环北路2号", "Operator": "其他" }, "geometry": { "type": "Point", "coordinates": [ 116.477634, 39.966722 ] } },
{ "type": "Feature", "properties": { "Name": "中国京油加油站", "Lon_Lat": "116.978265,40.297112", "Longitude": 116.978265, "Latitude": 40.297112, "Gdtype": "汽车服务;加油站;加油站", "Prov": "北京市", "City": "北京市", "Address": "东邵渠镇河东路与密三路交叉口向北路东", "Operator": "其他" }, "geometry": { "type": "Point", "coordinates": [ 116.978265, 40.297112 ] } },
{ "type": "Feature", "properties": { "Name": "金泽源加油站", "Lon_Lat": "116.197087,40.295771", "Longitude": 116.197087, "Latitude": 40.295771, "Gdtype": "汽车服务;加油站;加油站", "Prov": "北京市", "City": "北京市", "Address": "德胜口村", "Operator": "其他" }, "geometry": { "type": "Point", "coordinates": [ 116.197087, 40.295771 ] } },
{ "type": "Feature", "properties": { "Name": "中化石油加油站(北京市房山区燕山医院西)(暂停营业)", "Lon_Lat": "115.969675,39.721208", "Longitude": 115.969675, "Latitude": 39.721208, "Gdtype": "汽车服务;加油站;加油站", "Prov": "北京市", "City": "北京市", "Address": "杏花东路北京师范大学燕化附属中学东边", "Operator": "其他" }, "geometry": { "type": "Point", "coordinates": [ 115.969675, 39.721208 ] } },
{ "type": "Feature", "properties": { "Name": "燕宇加油站", "Lon_Lat": "115.948713,39.680012", "Longitude": 115.948713, "Latitude": 39.680012, "Gdtype": "汽车服务;加油站;加油站", "Prov": "北京市", "City": "北京市", "Address": "周口店镇政府西边", "Operator": "其他" }, "geometry": { "type": "Point", "coordinates": [ 115.948713, 39.680012 ] } },
{ "type": "Feature", "properties": { "Name": "北京草场地加油站", "Lon_Lat": "116.507575,40.008045", "Longitude": 116.507575, "Latitude": 40.008045, "Gdtype": "汽车服务;加油站;加油站", "Prov": "北京市", "City": "北京市", "Address": "东辛店村", "Operator": "其他" }, "geometry": { "type": "Point", "coordinates": [ 116.507575, 40.008045 ] } },
{ "type": "Feature", "properties": { "Name": "南四环西路辅路加油站", "Lon_Lat": "116.322424,39.829892", "Longitude": 116.322424, "Latitude": 39.829892, "Gdtype": "汽车服务;加油站;加油站", "Prov": "北京市", "City": "北京市", "Address": "南四环西路78号花乡桥东600米", "Operator": "其他" }, "geometry": { "type": "Point", "coordinates": [ 116.322424, 39.829892 ] } },
{ "type": "Feature", "properties": { "Name": "中福石油新龙加油站(中宇源丰站)", "Lon_Lat": "116.34176,40.059938", "Longitude": 116.34176, "Latitude": 40.059938, "Gdtype": "汽车服务;加油站;加油站", "Prov": "北京市", "City": "北京市", "Address": "建材城西路与育新南路交叉口西北角", "Operator": "其他" }, "geometry": { "type": "Point", "coordinates": [ 116.34176, 40.059938 ] } },
{ "type": "Feature", "properties": { "Name": "加油站(国家法官学院东)", "Lon_Lat": "116.623522,39.913282", "Longitude": 116.623522, "Latitude": 39.913282, "Gdtype": "汽车服务;加油站;加油站", "Prov": "北京市", "City": "北京市", "Address": "竹木厂村北30号", "Operator": "其他" }, "geometry": { "type": "Point", "coordinates": [ 116.623522, 39.913282 ] } },
{ "type": "Feature", "properties": { "Name": "丰辰加油站(闵庄路)", "Lon_Lat": "116.221411,39.972163", "Longitude": 116.221411, "Latitude": 39.972163, "Gdtype": "汽车服务;加油站;加油站", "Prov": "北京市", "City": "北京市", "Address": "四季青乡闵庄路88号", "Operator": "其他" }, "geometry": { "type": "Point", "coordinates": [ 116.221411, 39.972163 ] } },
{ "type": "Feature", "properties": { "Name": "中图能源美拓加油站", "Lon_Lat": "116.308449,40.079656", "Longitude": 116.308449, "Latitude": 40.079656, "Gdtype": "汽车服务;加油站;加油站", "Prov": "北京市", "City": "北京市", "Address": "京藏高速辅路(一汽大众奥之杰旁边)", "Operator": "其他" }, "geometry": { "type": "Point", "coordinates": [ 116.308449, 40.079656 ] } },
{ "type": "Feature", "properties": { "Name": "中图能源苑津强站加油站", "Lon_Lat": "116.237866,39.856806", "Longitude": 116.237866, "Latitude": 39.856806, "Gdtype": "汽车服务;加油站;加油站", "Prov": "北京市", "City": "北京市", "Address": "卢沟桥京港澳高速辅道西道口甲一号苑", "Operator": "其他" }, "geometry": { "type": "Point", "coordinates": [ 116.237866, 39.856806 ] } },
{ "type": "Feature", "properties": { "Name": "中化石油加油站(暂停营业)", "Lon_Lat": "116.179952,39.803792", "Longitude": 116.179952, "Latitude": 39.803792, "Gdtype": "汽车服务;加油站;加油站", "Prov": "北京市", "City": "北京市", "Address": "云岗路114号", "Operator": "其他" }, "geometry": { "type": "Point", "coordinates": [ 116.179952, 39.803792 ] } },
{ "type": "Feature", "properties": { "Name": "京苑石油加油站", "Lon_Lat": "116.635468,39.868423", "Longitude": 116.635468, "Latitude": 39.868423, "Gdtype": "汽车服务;加油站;加油站", "Prov": "北京市", "City": "北京市", "Address": "通马路与万盛中三街交汇处向北路东北京烟草物流中心附近", "Operator": "其他" }, "geometry": { "type": "Point", "coordinates": [ 116.635468, 39.868423 ] } },
{ "type": "Feature", "properties": { "Name": "方润石油益鸣加油站", "Lon_Lat": "116.519144,39.857587", "Longitude": 116.519144, "Latitude": 39.857587, "Gdtype": "汽车服务;加油站;加油站", "Prov": "北京市", "City": "北京市", "Address": "化工路甲2号", "Operator": "其他" }, "geometry": { "type": "Point", "coordinates": [ 116.519144, 39.857587 ] } },
{ "type": "Feature", "properties": { "Name": "飞驰加油站", "Lon_Lat": "116.123241,39.706126", "Longitude": 116.123241, "Latitude": 39.706126, "Gdtype": "汽车服务;加油站;加油站", "Prov": "北京市", "City": "北京市", "Address": "阎村镇肖庄村村西", "Operator": "其他" }, "geometry": { "type": "Point", "coordinates": [ 116.123241, 39.706126 ] } },
{ "type": "Feature", "properties": { "Name": "伟氏石油城关加油站", "Lon_Lat": "116.639571,39.919589", "Longitude": 116.639571, "Latitude": 39.919589, "Gdtype": "汽车服务;加油站;加油站", "Prov": "北京市", "City": "北京市", "Address": "永顺镇永顺村京通高速西马庄收费站出口", "Operator": "其他" }, "geometry": { "type": "Point", "coordinates": [ 116.639571, 39.919589 ] } },
{ "type": "Feature", "properties": { "Name": "中油华路加油站(暂停营业)", "Lon_Lat": "116.561409,40.108820", "Longitude": 116.561409, "Latitude": 40.10882, "Gdtype": "汽车服务;加油站;加油站", "Prov": "北京市", "City": "北京市", "Address": "火沙辅线(天洋国际大厦东)", "Operator": "其他" }, "geometry": { "type": "Point", "coordinates": [ 116.561409, 40.10882 ] } },
{ "type": "Feature", "properties": { "Name": "加油站(暂停营业)", "Lon_Lat": "116.618094,40.043527", "Longitude": 116.618094, "Latitude": 40.043527, "Gdtype": "汽车服务;加油站;加油站", "Prov": "北京市", "City": "北京市", "Address": "三经路与四纬路交叉路口往西南约110米", "Operator": "其他" }, "geometry": { "type": "Point", "coordinates": [ 116.618094, 40.043527 ] } },
{ "type": "Feature", "properties": { "Name": "大力士加油站", "Lon_Lat": "116.538094,40.054823", "Longitude": 116.538094, "Latitude": 40.054823, "Gdtype": "汽车服务;加油站;加油站", "Prov": "北京市", "City": "北京市", "Address": "顺黄路20号", "Operator": "其他" }, "geometry": { "type": "Point", "coordinates": [ 116.538094, 40.054823 ] } },
{ "type": "Feature", "properties": { "Name": "金顶街加油站", "Lon_Lat": "116.167592,39.924041", "Longitude": 116.167592, "Latitude": 39.924041, "Gdtype": "汽车服务;加油站;加油站", "Prov": "北京市", "City": "北京市", "Address": "金顶街街道金顶南路12号", "Operator": "其他" }, "geometry": { "type": "Point", "coordinates": [ 116.167592, 39.924041 ] } },
{ "type": "Feature", "properties": { "Name": "中图能源密鑫源加油站", "Lon_Lat": "116.757286,40.337543", "Longitude": 116.757286, "Latitude": 40.337543, "Gdtype": "汽车服务;加油站;加油站", "Prov": "北京市", "City": "北京市", "Address": "西统路与京密路交汇处东北角", "Operator": "其他" }, "geometry": { "type": "Point", "coordinates": [ 116.757286, 40.337543 ] } },
{ "type": "Feature", "properties": { "Name": "中福石油泉溢加油站", "Lon_Lat": "116.721494,40.171641", "Longitude": 116.721494, "Latitude": 40.171641, "Gdtype": "汽车服务;加油站;加油站", "Prov": "北京市", "City": "北京市", "Address": "南采镇桥头村白马路北侧", "Operator": "其他" }, "geometry": { "type": "Point", "coordinates": [ 116.721494, 40.171641 ] } },
{ "type": "Feature", "properties": { "Name": "中国海油协和石油加油站(右安门站)", "Lon_Lat": "116.364911,39.864016", "Longitude": 116.364911, "Latitude": 39.864016, "Gdtype": "汽车服务;加油站;加油站", "Prov": "北京市", "City": "北京市", "Address": "右安门外大街88号", "Operator": "其他" }, "geometry": { "type": "Point", "coordinates": [ 116.364911, 39.864016 ] } },
{ "type": "Feature", "properties": { "Name": "中国国际能源七星加油站", "Lon_Lat": "116.074732,39.721438", "Longitude": 116.074732, "Latitude": 39.721438, "Gdtype": "汽车服务;加油站;加油站", "Prov": "北京市", "City": "北京市", "Address": "阎村镇小董村", "Operator": "其他" }, "geometry": { "type": "Point", "coordinates": [ 116.074732, 39.721438 ] } },
{ "type": "Feature", "properties": { "Name": "伟氏石油加油站(穆家峪站)", "Lon_Lat": "116.92277,40.403108", "Longitude": 116.92277, "Latitude": 40.403108, "Gdtype": "汽车服务;加油站;加油站", "Prov": "北京市", "City": "北京市", "Address": "大石岭村", "Operator": "其他" }, "geometry": { "type": "Point", "coordinates": [ 116.92277, 40.403108 ] } },
{ "type": "Feature", "properties": { "Name": "立塔岭石化加油站", "Lon_Lat": "115.966266,39.717679", "Longitude": 115.966266, "Latitude": 39.717679, "Gdtype": "汽车服务;加油站;加油站", "Prov": "北京市", "City": "北京市", "Address": "红寺村北外环路25号", "Operator": "其他" }, "geometry": { "type": "Point", "coordinates": [ 115.966266, 39.717679 ] } },
{ "type": "Feature", "properties": { "Name": "丰辰加油站(鲁谷东街)", "Lon_Lat": "116.236359,39.904992", "Longitude": 116.236359, "Latitude": 39.904992, "Gdtype": "汽车服务;加油站;加油站", "Prov": "北京市", "City": "北京市", "Address": "鲁谷东街6号", "Operator": "其他" }, "geometry": { "type": "Point", "coordinates": [ 116.236359, 39.904992 ] } },
{ "type": "Feature", "properties": { "Name": "加油站", "Lon_Lat": "116.244929,39.907959", "Longitude": 116.244929, "Latitude": 39.907959, "Gdtype": "汽车服务;加油站;加油站", "Prov": "北京市", "City": "北京市", "Address": "玉泉西街甲11-1号", "Operator": "其他" }, "geometry": { "type": "Point", "coordinates": [ 116.244929, 39.907959 ] } },
{ "type": "Feature", "properties": { "Name": "天瑞加油站", "Lon_Lat": "116.585503,40.061236", "Longitude": 116.585503, "Latitude": 40.061236, "Gdtype": "汽车服务;加油站;加油站", "Prov": "北京市", "City": "北京市", "Address": "府前一街甲1号", "Operator": "其他" }, "geometry": { "type": "Point", "coordinates": [ 116.585503, 40.061236 ] } },
{ "type": "Feature", "properties": { "Name": "伟氏石油天通苑加油站(太平庄中街)", "Lon_Lat": "116.413943,40.068449", "Longitude": 116.413943, "Latitude": 40.068449, "Gdtype": "汽车服务;加油站;加油站", "Prov": "北京市", "City": "北京市", "Address": "天通中苑二区47号楼(天通苑南地铁站A南口步行460米)", "Operator": "其他" }, "geometry": { "type": "Point", "coordinates": [ 116.413943, 40.068449 ] } },
{ "type": "Feature", "properties": { "Name": "众生中油永丰加油站", "Lon_Lat": "116.232939,40.069722", "Longitude": 116.232939, "Latitude": 40.069722, "Gdtype": "汽车服务;加油站;加油站", "Prov": "北京市", "City": "北京市", "Address": "北清路88号(永丰地铁站D西南口步行500米)", "Operator": "其他" }, "geometry": { "type": "Point", "coordinates": [ 116.232939, 40.069722 ] } },
{ "type": "Feature", "properties": { "Name": "看丹加油站", "Lon_Lat": "116.267283,39.838266", "Longitude": 116.267283, "Latitude": 39.838266, "Gdtype": "汽车服务;加油站;加油站", "Prov": "北京市", "City": "北京市", "Address": "看丹村西", "Operator": "其他" }, "geometry": { "type": "Point", "coordinates": [ 116.267283, 39.838266 ] } },
{ "type": "Feature", "properties": { "Name": "NEWLINKS中能链隆海加油站", "Lon_Lat": "115.861272,39.564296", "Longitude": 115.861272, "Latitude": 39.564296, "Gdtype": "汽车服务;加油站;加油站", "Prov": "北京市", "City": "北京市", "Address": "长沟镇南正村房易路北北京艾尔酒业集团南边", "Operator": "其他" }, "geometry": { "type": "Point", "coordinates": [ 115.861272, 39.564296 ] } },
{ "type": "Feature", "properties": { "Name": "加油站(暂停营业)", "Lon_Lat": "116.506949,39.814104", "Longitude": 116.506949, "Latitude": 39.814104, "Gdtype": "汽车服务;加油站;加油站", "Prov": "北京市", "City": "北京市", "Address": "东环北路与文化园东路交汇处西北角", "Operator": "其他" }, "geometry": { "type": "Point", "coordinates": [ 116.506949, 39.814104 ] } },
{ "type": "Feature", "properties": { "Name": "马驹桥石化加油站", "Lon_Lat": "116.567811,39.745779", "Longitude": 116.567811, "Latitude": 39.745779, "Gdtype": "汽车服务;加油站;加油站", "Prov": "北京市", "City": "北京市", "Address": "漷马路旧线", "Operator": "其他" }, "geometry": { "type": "Point", "coordinates": [ 116.567811, 39.745779 ] } },
{ "type": "Feature", "properties": { "Name": "京都诚信加油站", "Lon_Lat": "116.853309,39.745239", "Longitude": 116.853309, "Latitude": 39.745239, "Gdtype": "汽车服务;加油站;加油站", "Prov": "北京市", "City": "北京市", "Address": "觅子店", "Operator": "其他" }, "geometry": { "type": "Point", "coordinates": [ 116.853309, 39.745239 ] } },
{ "type": "Feature", "properties": { "Name": "潞通石化加油站", "Lon_Lat": "116.702444,39.936017", "Longitude": 116.702444, "Latitude": 39.936017, "Gdtype": "汽车服务;加油站;加油站", "Prov": "北京市", "City": "北京市", "Address": "潞苑南大街1号", "Operator": "其他" }, "geometry": { "type": "Point", "coordinates": [ 116.702444, 39.936017 ] } },
{ "type": "Feature", "properties": { "Name": "华禽加油站", "Lon_Lat": "116.409495,40.1344", "Longitude": 116.409495, "Latitude": 40.1344, "Gdtype": "汽车服务;加油站;加油站", "Prov": "北京市", "City": "北京市", "Address": "东沙各庄路口北600米", "Operator": "其他" }, "geometry": { "type": "Point", "coordinates": [ 116.409495, 40.1344 ] } },
{ "type": "Feature", "properties": { "Name": "中化石油服务区加油站", "Lon_Lat": "116.769329,39.936296", "Longitude": 116.769329, "Latitude": 39.936296, "Gdtype": "汽车服务;加油站;加油站", "Prov": "北京市", "City": "北京市", "Address": null, "Operator": "其他" }, "geometry": { "type": "Point", "coordinates": [ 116.769329, 39.936296 ] } },
{ "type": "Feature", "properties": { "Name": "丰盾加油站", "Lon_Lat": "116.271424,39.846979", "Longitude": 116.271424, "Latitude": 39.846979, "Gdtype": "汽车服务;加油站;加油站", "Prov": "北京市", "City": "北京市", "Address": "丰台西路15-17号", "Operator": "其他" }, "geometry": { "type": "Point", "coordinates": [ 116.271424, 39.846979 ] } },
{ "type": "Feature", "properties": { "Name": "中国海油魏公村加油站(装修中)", "Lon_Lat": "116.322114,39.958322", "Longitude": 116.322114, "Latitude": 39.958322, "Gdtype": "汽车服务;加油站;加油站", "Prov": "北京市", "City": "北京市", "Address": null, "Operator": "其他" }, "geometry": { "type": "Point", "coordinates": [ 116.322114, 39.958322 ] } },
{ "type": "Feature", "properties": { "Name": "永春加油站(番字石刻东南)", "Lon_Lat": "116.892656,40.739107", "Longitude": 116.892656, "Latitude": 40.739107, "Gdtype": "汽车服务;加油站;加油站", "Prov": "北京市", "City": "北京市", "Address": "西火路番字牌村路段路南侧", "Operator": "其他" }, "geometry": { "type": "Point", "coordinates": [ 116.892656, 40.739107 ] } },
{ "type": "Feature", "properties": { "Name": "酷车能量加油站", "Lon_Lat": "115.829231,39.553659", "Longitude": 115.829231, "Latitude": 39.553659, "Gdtype": "汽车服务;加油站;加油站", "Prov": "北京市", "City": "北京市", "Address": "G234(房易路)", "Operator": "其他" }, "geometry": { "type": "Point", "coordinates": [ 115.829231, 39.553659 ] } },
{ "type": "Feature", "properties": { "Name": "龙润石油加油站", "Lon_Lat": "116.322252,40.066977", "Longitude": 116.322252, "Latitude": 40.066977, "Gdtype": "汽车服务;加油站;加油站", "Prov": "北京市", "City": "北京市", "Address": "出京方向八达岭高速回龙观南出口东侧、新龙城小区对面或少林武校前行50米右转即到", "Operator": "其他" }, "geometry": { "type": "Point", "coordinates": [ 116.322252, 40.066977 ] } },
{ "type": "Feature", "properties": { "Name": "中化吉利北苑加油站", "Lon_Lat": "116.417155,40.024105", "Longitude": 116.417155, "Latitude": 40.024105, "Gdtype": "汽车服务;加油站;加油站", "Prov": "北京市", "City": "北京市", "Address": "北苑路17号", "Operator": "其他" }, "geometry": { "type": "Point", "coordinates": [ 116.417155, 40.024105 ] } },
{ "type": "Feature", "properties": { "Name": "北京捷快达加油站", "Lon_Lat": "116.328742,39.848459", "Longitude": 116.328742, "Latitude": 39.848459, "Gdtype": "汽车服务;加油站;加油站", "Prov": "北京市", "City": "北京市", "Address": "夏家胡同117号", "Operator": "其他" }, "geometry": { "type": "Point", "coordinates": [ 116.328742, 39.848459 ] } },
{ "type": "Feature", "properties": { "Name": "中化石油加油站", "Lon_Lat": "116.63975,40.192165", "Longitude": 116.63975, "Latitude": 40.192165, "Gdtype": "汽车服务;加油站;加油站", "Prov": "北京市", "City": "北京市", "Address": "牛栏山镇114乡道与京沈路交叉口北京泽顺堂大药店附近", "Operator": "其他" }, "geometry": { "type": "Point", "coordinates": [ 116.63975, 40.192165 ] } },
{ "type": "Feature", "properties": { "Name": "中福石油集团加油站", "Lon_Lat": "116.721922,40.171273", "Longitude": 116.721922, "Latitude": 40.171273, "Gdtype": "汽车服务;加油站;加油站", "Prov": "北京市", "City": "北京市", "Address": [ ], "Operator": "其他" }, "geometry": { "type": "Point", "coordinates": [ 116.721922, 40.171273 ] } },
{ "type": "Feature", "properties": { "Name": "中化道达尔北京京西北加油站", "Lon_Lat": "115.998569,40.464242", "Longitude": 115.998569, "Latitude": 40.464242, "Gdtype": "汽车服务;加油站;加油站", "Prov": "北京市", "City": "北京市", "Address": "延庆镇京张路口", "Operator": "其他" }, "geometry": { "type": "Point", "coordinates": [ 115.998569, 40.464242 ] } },
{ "type": "Feature", "properties": { "Name": "BJ-JYZ联勤加油站", "Lon_Lat": "116.247078,40.002492", "Longitude": 116.247078, "Latitude": 40.002492, "Gdtype": "汽车服务;加油站;加油站", "Prov": "北京市", "City": "北京市", "Address": "香山路280号附近", "Operator": "其他" }, "geometry": { "type": "Point", "coordinates": [ 116.247078, 40.002492 ] } },
{ "type": "Feature", "properties": { "Name": "加油站(暂停营业)", "Lon_Lat": "116.932343,40.378007", "Longitude": 116.932343, "Latitude": 40.378007, "Gdtype": "汽车服务;加油站;加油站", "Prov": "北京市", "City": "北京市", "Address": "巨各庄", "Operator": "其他" }, "geometry": { "type": "Point", "coordinates": [ 116.932343, 40.378007 ] } },
{ "type": "Feature", "properties": { "Name": "加油站(出口)", "Lon_Lat": "116.453900,39.853392", "Longitude": 116.4539, "Latitude": 39.853392, "Gdtype": "汽车服务;加油站;加油站", "Prov": "北京市", "City": "北京市", "Address": null, "Operator": "其他" }, "geometry": { "type": "Point", "coordinates": [ 116.4539, 39.853392 ] } },
{ "type": "Feature", "properties": { "Name": "榆林庄加油站", "Lon_Lat": "116.784569,39.793577", "Longitude": 116.784569, "Latitude": 39.793577, "Gdtype": "汽车服务;加油站;加油站", "Prov": "北京市", "City": "北京市", "Address": "京塘路", "Operator": "其他" }, "geometry": { "type": "Point", "coordinates": [ 116.784569, 39.793577 ] } },
{ "type": "Feature", "properties": { "Name": "隆瑞三优加油站", "Lon_Lat": "116.747985,40.135265", "Longitude": 116.747985, "Latitude": 40.135265, "Gdtype": "汽车服务;加油站;加油站", "Prov": "北京市", "City": "北京市", "Address": "顺平辅线与南坞路交叉口西南约80米", "Operator": "其他" }, "geometry": { "type": "Point", "coordinates": [ 116.747985, 40.135265 ] } },
{ "type": "Feature", "properties": { "Name": "丰管路加油站", "Lon_Lat": "116.314345,39.857739", "Longitude": 116.314345, "Latitude": 39.857739, "Gdtype": "汽车服务;加油站;加油站", "Prov": "北京市", "City": "北京市", "Address": "丰管路22号附近", "Operator": "其他" }, "geometry": { "type": "Point", "coordinates": [ 116.314345, 39.857739 ] } },
{ "type": "Feature", "properties": { "Name": "北京石化加油站", "Lon_Lat": "116.892457,39.812832", "Longitude": 116.892457, "Latitude": 39.812832, "Gdtype": "汽车服务;加油站;加油站", "Prov": "北京市", "City": "北京市", "Address": "通香路西集工商所东,王上路口向东", "Operator": "其他" }, "geometry": { "type": "Point", "coordinates": [ 116.892457, 39.812832 ] } },
{ "type": "Feature", "properties": { "Name": "中名加油站", "Lon_Lat": "116.380563,39.978076", "Longitude": 116.380563, "Latitude": 39.978076, "Gdtype": "汽车服务;加油站;加油站", "Prov": "北京市", "City": "北京市", "Address": "花园路小关街120号(健德门地铁站A西北口步行170米)", "Operator": "其他" }, "geometry": { "type": "Point", "coordinates": [ 116.380563, 39.978076 ] } },
{ "type": "Feature", "properties": { "Name": "中国航油大兴机场加油站", "Lon_Lat": "116.417235,39.530373", "Longitude": 116.417235, "Latitude": 39.530373, "Gdtype": "汽车服务;加油站;加油站", "Prov": "北京市", "City": "北京市", "Address": "国际机场次干二路与主干三路交叉口西北角", "Operator": "其他" }, "geometry": { "type": "Point", "coordinates": [ 116.417235, 39.530373 ] } },
{ "type": "Feature", "properties": { "Name": "隆瑞三优加油站", "Lon_Lat": "116.410746,39.949746", "Longitude": 116.410746, "Latitude": 39.949746, "Gdtype": "汽车服务;加油站;加油站", "Prov": "北京市", "City": "北京市", "Address": [ ], "Operator": "其他" }, "geometry": { "type": "Point", "coordinates": [ 116.410746, 39.949746 ] } },
{ "type": "Feature", "properties": { "Name": "龙瑞森加油站(十八里店站)", "Lon_Lat": "116.485766,39.848086", "Longitude": 116.485766, "Latitude": 39.848086, "Gdtype": "汽车服务;加油站;加油站", "Prov": "北京市", "City": "北京市", "Address": "东四环南路与大羊坊路交叉口东150米", "Operator": "其他" }, "geometry": { "type": "Point", "coordinates": [ 116.485766, 39.848086 ] } },
{ "type": "Feature", "properties": { "Name": "宏达加油站", "Lon_Lat": "116.198963,39.607056", "Longitude": 116.198963, "Latitude": 39.607056, "Gdtype": "汽车服务;加油站;加油站", "Prov": "北京市", "City": "北京市", "Address": "公韩路附近", "Operator": "其他" }, "geometry": { "type": "Point", "coordinates": [ 116.198963, 39.607056 ] } },
{ "type": "Feature", "properties": { "Name": "中图能源加油站", "Lon_Lat": "116.237416,39.997612", "Longitude": 116.237416, "Latitude": 39.997612, "Gdtype": "汽车服务;加油站;加油站", "Prov": "北京市", "City": "北京市", "Address": "香山红门村向北50米", "Operator": "其他" }, "geometry": { "type": "Point", "coordinates": [ 116.237416, 39.997612 ] } },
{ "type": "Feature", "properties": { "Name": "中图能源长凌营加油站", "Lon_Lat": "116.793147,39.78222", "Longitude": 116.793147, "Latitude": 39.78222, "Gdtype": "汽车服务;加油站;加油站", "Prov": "北京市", "City": "北京市", "Address": "漷县镇京塘路榆林庄村路段路西", "Operator": "其他" }, "geometry": { "type": "Point", "coordinates": [ 116.793147, 39.78222 ] } },
{ "type": "Feature", "properties": { "Name": "姜家台服务区加油站(暂停营业)", "Lon_Lat": "116.018121,40.450292", "Longitude": 116.018121, "Latitude": 40.450292, "Gdtype": "汽车服务;加油站;加油站", "Prov": "北京市", "City": "北京市", "Address": "京银路与滨河南路交叉口、向南、路东、聚仙山庄附近", "Operator": "其他" }, "geometry": { "type": "Point", "coordinates": [ 116.018121, 40.450292 ] } },
{ "type": "Feature", "properties": { "Name": "北京尤博利国权加油站", "Lon_Lat": "115.579579,39.790883", "Longitude": 115.579579, "Latitude": 39.790883, "Gdtype": "汽车服务;加油站;加油站", "Prov": "北京市", "City": "北京市", "Address": "108国道上堂村路段路南", "Operator": "其他" }, "geometry": { "type": "Point", "coordinates": [ 115.579579, 39.790883 ] } },
{ "type": "Feature", "properties": { "Name": "众生中油加油站", "Lon_Lat": "116.312688,39.825849", "Longitude": 116.312688, "Latitude": 39.825849, "Gdtype": "汽车服务;加油站;加油站", "Prov": "北京市", "City": "北京市", "Address": "四合庄460号(育仁里小区东南)", "Operator": "其他" }, "geometry": { "type": "Point", "coordinates": [ 116.312688, 39.825849 ] } },
{ "type": "Feature", "properties": { "Name": "中国航油大兴机场第五加油站", "Lon_Lat": "116.431312,39.528333", "Longitude": 116.431312, "Latitude": 39.528333, "Gdtype": "汽车服务;加油站;加油站", "Prov": "北京市", "City": "北京市", "Address": "国际机场主干四路东侧", "Operator": "其他" }, "geometry": { "type": "Point", "coordinates": [ 116.431312, 39.528333 ] } },
{ "type": "Feature", "properties": { "Name": "GYIf加油站", "Lon_Lat": "115.963867,39.612251", "Longitude": 115.963867, "Latitude": 39.612251, "Gdtype": "汽车服务;加油站;加油站", "Prov": "北京市", "City": "北京市", "Address": "韩村河镇顾郑路西侧韩村河敬老院西南赵各庄村南", "Operator": "其他" }, "geometry": { "type": "Point", "coordinates": [ 115.963867, 39.612251 ] } },
{ "type": "Feature", "properties": { "Name": "能链加油站", "Lon_Lat": "116.509988,39.873239", "Longitude": 116.509988, "Latitude": 39.873239, "Gdtype": "汽车服务;加油站;加油站", "Prov": "北京市", "City": "北京市", "Address": "大柳树村大柳树电源厂宿舍", "Operator": "其他" }, "geometry": { "type": "Point", "coordinates": [ 116.509988, 39.873239 ] } },
{ "type": "Feature", "properties": { "Name": "中国能源加油站(顺长山站)", "Lon_Lat": "116.879363,40.153509", "Longitude": 116.879363, "Latitude": 40.153509, "Gdtype": "汽车服务;加油站;加油站", "Prov": "北京市", "City": "北京市", "Address": [ ], "Operator": "其他" }, "geometry": { "type": "Point", "coordinates": [ 116.879363, 40.153509 ] } },
{ "type": "Feature", "properties": { "Name": "加油站(内部专用)(暂停营业)", "Lon_Lat": "116.659588,40.192893", "Longitude": 116.659588, "Latitude": 40.192893, "Gdtype": "汽车服务;加油站;加油站", "Prov": "北京市", "City": "北京市", "Address": "通顺路西50米", "Operator": "其他" }, "geometry": { "type": "Point", "coordinates": [ 116.659588, 40.192893 ] } },
{ "type": "Feature", "properties": { "Name": "中图能源京新加油站", "Lon_Lat": "116.598324,40.144885", "Longitude": 116.598324, "Latitude": 40.144885, "Gdtype": "汽车服务;加油站;加油站", "Prov": "北京市", "City": "北京市", "Address": "西杜兰村京密路西侧", "Operator": "其他" }, "geometry": { "type": "Point", "coordinates": [ 116.598324, 40.144885 ] } },
{ "type": "Feature", "properties": { "Name": "中油华路加油站(暂停营业)", "Lon_Lat": "116.209009,40.193492", "Longitude": 116.209009, "Latitude": 40.193492, "Gdtype": "汽车服务;加油站;加油站", "Prov": "北京市", "City": "北京市", "Address": "G7京新高速与百泉庄一桥交叉口西南约260米", "Operator": "其他" }, "geometry": { "type": "Point", "coordinates": [ 116.209009, 40.193492 ] } },
{ "type": "Feature", "properties": { "Name": "中化石油樊家村加油站", "Lon_Lat": "116.310015,39.837839", "Longitude": 116.310015, "Latitude": 39.837839, "Gdtype": "汽车服务;加油站;加油站", "Prov": "北京市", "City": "北京市", "Address": "丰台南路与康辛路交汇处", "Operator": "其他" }, "geometry": { "type": "Point", "coordinates": [ 116.310015, 39.837839 ] } },
{ "type": "Feature", "properties": { "Name": "中图能源加油站", "Lon_Lat": "116.663133,40.078048", "Longitude": 116.663133, "Latitude": 40.078048, "Gdtype": "汽车服务;加油站;加油站", "Prov": "北京市", "City": "北京市", "Address": "通顺路36号", "Operator": "其他" }, "geometry": { "type": "Point", "coordinates": [ 116.663133, 40.078048 ] } },
{ "type": "Feature", "properties": { "Name": "中图能源(鑫航加油站)", "Lon_Lat": "116.885601,40.382743", "Longitude": 116.885601, "Latitude": 40.382743, "Gdtype": "汽车服务;加油站;加油站", "Prov": "北京市", "City": "北京市", "Address": null, "Operator": "其他" }, "geometry": { "type": "Point", "coordinates": [ 116.885601, 40.382743 ] } },
{ "type": "Feature", "properties": { "Name": "京化能源玉坤加油站", "Lon_Lat": "116.336422,39.707639", "Longitude": 116.336422, "Latitude": 39.707639, "Gdtype": "汽车服务;加油站;加油站", "Prov": "北京市", "City": "北京市", "Address": "京开路南60米", "Operator": "其他" }, "geometry": { "type": "Point", "coordinates": [ 116.336422, 39.707639 ] } },
{ "type": "Feature", "properties": { "Name": "NEW LINKS中能链益远加油站", "Lon_Lat": "116.121499,39.647137", "Longitude": 116.121499, "Latitude": 39.647137, "Gdtype": "汽车服务;加油站;加油站", "Prov": "北京市", "City": "北京市", "Address": "交道东大街30号,一街卫生室中医门诊附近", "Operator": "其他" }, "geometry": { "type": "Point", "coordinates": [ 116.121499, 39.647137 ] } },
{ "type": "Feature", "properties": { "Name": "海湾石油通顺港站加油站", "Lon_Lat": "116.641853,39.922754", "Longitude": 116.641853, "Latitude": 39.922754, "Gdtype": "汽车服务;加油站;加油站", "Prov": "北京市", "City": "北京市", "Address": "永顺镇永顺村北关大街19号海湾石油加油站", "Operator": "其他" }, "geometry": { "type": "Point", "coordinates": [ 116.641853, 39.922754 ] } },
{ "type": "Feature", "properties": { "Name": "中图能源马坡加油站", "Lon_Lat": "116.638244,40.168441", "Longitude": 116.638244, "Latitude": 40.168441, "Gdtype": "汽车服务;加油站;加油站", "Prov": "北京市", "City": "北京市", "Address": "京密路辅路西100米", "Operator": "其他" }, "geometry": { "type": "Point", "coordinates": [ 116.638244, 40.168441 ] } },
{ "type": "Feature", "properties": { "Name": "PETROL STARS加油站", "Lon_Lat": "116.223147,40.040787", "Longitude": 116.223147, "Latitude": 40.040787, "Gdtype": "汽车服务;加油站;加油站", "Prov": "北京市", "City": "北京市", "Address": "冷泉路与黑龙潭路交叉口东南角", "Operator": "其他" }, "geometry": { "type": "Point", "coordinates": [ 116.223147, 40.040787 ] } },
{ "type": "Feature", "properties": { "Name": "丰台加油站", "Lon_Lat": "116.260251,39.849993", "Longitude": 116.260251, "Latitude": 39.849993, "Gdtype": "汽车服务;加油站;加油站", "Prov": "北京市", "City": "北京市", "Address": "程庄路85号附近", "Operator": "其他" }, "geometry": { "type": "Point", "coordinates": [ 116.260251, 39.849993 ] } },
{ "type": "Feature", "properties": { "Name": "中国航油加油站", "Lon_Lat": "116.615526,40.043321", "Longitude": 116.615526, "Latitude": 40.043321, "Gdtype": "汽车服务;加油站;加油站", "Prov": "北京市", "City": "北京市", "Address": "首都机场T3航站楼南侧四玮路机场二高速入口旁", "Operator": "其他" }, "geometry": { "type": "Point", "coordinates": [ 116.615526, 40.043321 ] } },
{ "type": "Feature", "properties": { "Name": "加油站(暂停营业)", "Lon_Lat": "115.932369,39.63653", "Longitude": 115.932369, "Latitude": 39.63653, "Gdtype": "汽车服务;加油站;加油站", "Prov": "北京市", "City": "北京市", "Address": "房易路与瓦梨路交叉口向东约550米,瓦梨路北侧,瓦井桥附近", "Operator": "其他" }, "geometry": { "type": "Point", "coordinates": [ 115.932369, 39.63653 ] } },
{ "type": "Feature", "properties": { "Name": "佰强石化顺丰航南加油站", "Lon_Lat": "116.323849,39.542106", "Longitude": 116.323849, "Latitude": 39.542106, "Gdtype": "汽车服务;加油站;加油站", "Prov": "北京市", "City": "北京市", "Address": "榆垡镇京开辅路新桥村村委会北500米", "Operator": "其他" }, "geometry": { "type": "Point", "coordinates": [ 116.323849, 39.542106 ] } },
{ "type": "Feature", "properties": { "Name": "众生中油加油站", "Lon_Lat": "116.48858,39.881966", "Longitude": 116.48858, "Latitude": 39.881966, "Gdtype": "汽车服务;加油站;加油站", "Prov": "北京市", "City": "北京市", "Address": "东四环南路1号", "Operator": "其他" }, "geometry": { "type": "Point", "coordinates": [ 116.48858, 39.881966 ] } },
{ "type": "Feature", "properties": { "Name": "中图能源加油站", "Lon_Lat": "116.882803,39.717735", "Longitude": 116.882803, "Latitude": 39.717735, "Gdtype": "汽车服务;加油站;加油站", "Prov": "北京市", "City": "北京市", "Address": "安平镇京塘路与德觅路交叉口", "Operator": "其他" }, "geometry": { "type": "Point", "coordinates": [ 116.882803, 39.717735 ] } },
{ "type": "Feature", "properties": { "Name": "中图能源金苑加油站", "Lon_Lat": "116.828702,40.06623", "Longitude": 116.828702, "Latitude": 40.06623, "Gdtype": "汽车服务;加油站;加油站", "Prov": "北京市", "City": "北京市", "Address": "北务镇邮政所北中心幼儿园西北方向", "Operator": "其他" }, "geometry": { "type": "Point", "coordinates": [ 116.828702, 40.06623 ] } },
{ "type": "Feature", "properties": { "Name": "东发石化加油站", "Lon_Lat": "117.107009,40.121587", "Longitude": 117.107009, "Latitude": 40.121587, "Gdtype": "汽车服务;加油站;加油站", "Prov": "北京市", "City": "北京市", "Address": "平东路与外环西路交叉口东200米", "Operator": "其他" }, "geometry": { "type": "Point", "coordinates": [ 117.107009, 40.121587 ] } },
{ "type": "Feature", "properties": { "Name": "美孚森能源加油站", "Lon_Lat": "116.036845,39.723918", "Longitude": 116.036845, "Latitude": 39.723918, "Gdtype": "汽车服务;加油站;加油站", "Prov": "北京市", "City": "北京市", "Address": "小水河路与大件路交叉口北300米", "Operator": "其他" }, "geometry": { "type": "Point", "coordinates": [ 116.036845, 39.723918 ] } },
{ "type": "Feature", "properties": { "Name": "龙石化金耀加油站", "Lon_Lat": "116.470997,40.17588", "Longitude": 116.470997, "Latitude": 40.17588, "Gdtype": "汽车服务;加油站;加油站", "Prov": "北京市", "City": "北京市", "Address": "小汤山镇大东流村路口南116号", "Operator": "其他" }, "geometry": { "type": "Point", "coordinates": [ 116.470997, 40.17588 ] } },
{ "type": "Feature", "properties": { "Name": "礼贤加油站", "Lon_Lat": "116.435730,39.552539", "Longitude": 116.43573, "Latitude": 39.552539, "Gdtype": "汽车服务;加油站;加油站", "Prov": "北京市", "City": "北京市", "Address": "刘荆路东50米", "Operator": "其他" }, "geometry": { "type": "Point", "coordinates": [ 116.43573, 39.552539 ] } },
{ "type": "Feature", "properties": { "Name": "中化石油首石缘加油站", "Lon_Lat": "116.309578,39.938119", "Longitude": 116.309578, "Latitude": 39.938119, "Gdtype": "汽车服务;加油站;加油站", "Prov": "北京市", "City": "北京市", "Address": "西三环北路75号金龙潭大饭店旁", "Operator": "其他" }, "geometry": { "type": "Point", "coordinates": [ 116.309578, 39.938119 ] } },
{ "type": "Feature", "properties": { "Name": "鑫光石油加油站", "Lon_Lat": "116.193417,40.224577", "Longitude": 116.193417, "Latitude": 40.224577, "Gdtype": "汽车服务;加油站;加油站", "Prov": "北京市", "City": "北京市", "Address": "城南街道旧县村", "Operator": "其他" }, "geometry": { "type": "Point", "coordinates": [ 116.193417, 40.224577 ] } },
{ "type": "Feature", "properties": { "Name": "金盾加油站(北体站)", "Lon_Lat": "116.314584,40.022269", "Longitude": 116.314584, "Latitude": 40.022269, "Gdtype": "汽车服务;加油站;加油站", "Prov": "北京市", "City": "北京市", "Address": "信息路48号北京体育大学", "Operator": "其他" }, "geometry": { "type": "Point", "coordinates": [ 116.314584, 40.022269 ] } },
{ "type": "Feature", "properties": { "Name": "中国国际能源高桥加油站", "Lon_Lat": "116.529965,39.907001", "Longitude": 116.529965, "Latitude": 39.907001, "Gdtype": "汽车服务;加油站;加油站", "Prov": "北京市", "City": "北京市", "Address": "高碑店乡高碑店水闸南侧", "Operator": "其他" }, "geometry": { "type": "Point", "coordinates": [ 116.529965, 39.907001 ] } },
{ "type": "Feature", "properties": { "Name": "造甲村加油站", "Lon_Lat": "116.300796,39.842088", "Longitude": 116.300796, "Latitude": 39.842088, "Gdtype": "汽车服务;加油站;加油站", "Prov": "北京市", "City": "北京市", "Address": "丰台南路造甲村203号", "Operator": "其他" }, "geometry": { "type": "Point", "coordinates": [ 116.300796, 39.842088 ] } },
{ "type": "Feature", "properties": { "Name": "中图能源加油站", "Lon_Lat": "116.504033,39.679867", "Longitude": 116.504033, "Latitude": 39.679867, "Gdtype": "汽车服务;加油站;加油站", "Prov": "北京市", "City": "北京市", "Address": "青云店镇四村睦邻路南9条1号", "Operator": "其他" }, "geometry": { "type": "Point", "coordinates": [ 116.504033, 39.679867 ] } },
{ "type": "Feature", "properties": { "Name": "燕山盛祥石油亨通加油站", "Lon_Lat": "117.028058,40.144005", "Longitude": 117.028058, "Latitude": 40.144005, "Gdtype": "汽车服务;加油站;加油站", "Prov": "北京市", "City": "北京市", "Address": "大兴庄镇陈良屯村西", "Operator": "其他" }, "geometry": { "type": "Point", "coordinates": [ 117.028058, 40.144005 ] } },
{ "type": "Feature", "properties": { "Name": "加油站", "Lon_Lat": "116.187657,40.227870", "Longitude": 116.187657, "Latitude": 40.22787, "Gdtype": "汽车服务;加油站;加油站", "Prov": "北京市", "City": "北京市", "Address": "G6辅路附近", "Operator": "其他" }, "geometry": { "type": "Point", "coordinates": [ 116.187657, 40.22787 ] } },
{ "type": "Feature", "properties": { "Name": "阪泉服务区加油站(暂停营业)", "Lon_Lat": "115.927996,40.490954", "Longitude": 115.927996, "Latitude": 40.490954, "Gdtype": "汽车服务;加油站;加油站", "Prov": "北京市", "City": "北京市", "Address": null, "Operator": "其他" }, "geometry": { "type": "Point", "coordinates": [ 115.927996, 40.490954 ] } },
{ "type": "Feature", "properties": { "Name": "中国海油魏公村加油站", "Lon_Lat": "116.322185,39.958271", "Longitude": 116.322185, "Latitude": 39.958271, "Gdtype": "汽车服务;加油站;加油站", "Prov": "北京市", "City": "北京市", "Address": "中关村南大街5号(魏公村地铁站A西北口步行70米)", "Operator": "其他" }, "geometry": { "type": "Point", "coordinates": [ 116.322185, 39.958271 ] } },
{ "type": "Feature", "properties": { "Name": "中油公交公司加油站", "Lon_Lat": "116.232180,39.894837", "Longitude": 116.23218, "Latitude": 39.894837, "Gdtype": "汽车服务;加油站;加油站", "Prov": "北京市", "City": "北京市", "Address": "重聚路与黄庄路交叉口西南100米", "Operator": "其他" }, "geometry": { "type": "Point", "coordinates": [ 116.23218, 39.894837 ] } },
{ "type": "Feature", "properties": { "Name": "中国国际能源加油站(暂停营业)", "Lon_Lat": "116.269195,39.867617", "Longitude": 116.269195, "Latitude": 39.867617, "Gdtype": "汽车服务;加油站;加油站", "Prov": "北京市", "City": "北京市", "Address": [ ], "Operator": "其他" }, "geometry": { "type": "Point", "coordinates": [ 116.269195, 39.867617 ] } },
{ "type": "Feature", "properties": { "Name": "加油站(暂停营业)", "Lon_Lat": "116.418281,40.02288", "Longitude": 116.418281, "Latitude": 40.02288, "Gdtype": "汽车服务;加油站;加油站", "Prov": "北京市", "City": "北京市", "Address": "S50北五环辅路(北苑路甲1号院)", "Operator": "其他" }, "geometry": { "type": "Point", "coordinates": [ 116.418281, 40.02288 ] } },
{ "type": "Feature", "properties": { "Name": "东营加油站", "Lon_Lat": "116.472944,39.839362", "Longitude": 116.472944, "Latitude": 39.839362, "Gdtype": "汽车服务;加油站;加油站", "Prov": "北京市", "City": "北京市", "Address": "南四环东路2号十八里店南桥东(桓兴医院附近)", "Operator": "其他" }, "geometry": { "type": "Point", "coordinates": [ 116.472944, 39.839362 ] } },
{ "type": "Feature", "properties": { "Name": "北京航天长陵加油站(暂停营业)", "Lon_Lat": "116.275787,40.255324", "Longitude": 116.275787, "Latitude": 40.255324, "Gdtype": "汽车服务;加油站;加油站", "Prov": "北京市", "City": "北京市", "Address": "蟒山路与水库北路交叉路口东侧(蟒山国家森林公园)", "Operator": "其他" }, "geometry": { "type": "Point", "coordinates": [ 116.275787, 40.255324 ] } },
{ "type": "Feature", "properties": { "Name": "加油站(暂停营业)", "Lon_Lat": "116.341622,39.824757", "Longitude": 116.341622, "Latitude": 39.824757, "Gdtype": "汽车服务;加油站;加油站", "Prov": "北京市", "City": "北京市", "Address": "右安路新发地长途客运站西南侧约50米", "Operator": "其他" }, "geometry": { "type": "Point", "coordinates": [ 116.341622, 39.824757 ] } },
{ "type": "Feature", "properties": { "Name": "清河加油站(学清路)", "Lon_Lat": "116.352705,40.016822", "Longitude": 116.352705, "Latitude": 40.016822, "Gdtype": "汽车服务;加油站;加油站", "Prov": "北京市", "City": "北京市", "Address": "学清路", "Operator": "其他" }, "geometry": { "type": "Point", "coordinates": [ 116.352705, 40.016822 ] } },
{ "type": "Feature", "properties": { "Name": "北京市向阳加油站", "Lon_Lat": "116.499821,39.818666", "Longitude": 116.499821, "Latitude": 39.818666, "Gdtype": "汽车服务;加油站;加油站", "Prov": "北京市", "City": "北京市", "Address": "十八里店海户屯东南五环大羊坊桥至东马路路北", "Operator": "其他" }, "geometry": { "type": "Point", "coordinates": [ 116.499821, 39.818666 ] } },
{ "type": "Feature", "properties": { "Name": "中图石油金秋旺加油站", "Lon_Lat": "116.824069,40.327839", "Longitude": 116.824069, "Latitude": 40.327839, "Gdtype": "汽车服务;加油站;加油站", "Prov": "北京市", "City": "北京市", "Address": "寨镇北金沟屯村", "Operator": "其他" }, "geometry": { "type": "Point", "coordinates": [ 116.824069, 40.327839 ] } },
{ "type": "Feature", "properties": { "Name": "中化道达尔北京西三旗加油站", "Lon_Lat": "116.326497,40.052643", "Longitude": 116.326497, "Latitude": 40.052643, "Gdtype": "汽车服务;加油站;加油站", "Prov": "北京市", "City": "北京市", "Address": "西三旗安宁庄路22号", "Operator": "其他" }, "geometry": { "type": "Point", "coordinates": [ 116.326497, 40.052643 ] } },
{ "type": "Feature", "properties": { "Name": "中福石油北顺心加油站", "Lon_Lat": "116.853799,40.363045", "Longitude": 116.853799, "Latitude": 40.363045, "Gdtype": "汽车服务;加油站;加油站", "Prov": "北京市", "City": "北京市", "Address": "新中街与水源路交叉口西北侧(密云实验中学附近)", "Operator": "其他" }, "geometry": { "type": "Point", "coordinates": [ 116.853799, 40.363045 ] } },
{ "type": "Feature", "properties": { "Name": "金路加油站(暂停营业)", "Lon_Lat": "116.940571,39.792122", "Longitude": 116.940571, "Latitude": 39.792122, "Gdtype": "汽车服务;加油站;加油站", "Prov": "北京市", "City": "北京市", "Address": "G509与唐通线交叉路口往南约50米", "Operator": "其他" }, "geometry": { "type": "Point", "coordinates": [ 116.940571, 39.792122 ] } },
{ "type": "Feature", "properties": { "Name": "中国京油加油站(顺鑫福源站)", "Lon_Lat": "116.769153,40.23861", "Longitude": 116.769153, "Latitude": 40.23861, "Gdtype": "汽车服务;加油站;加油站", "Prov": "北京市", "City": "北京市", "Address": "木林镇镇政府南侧1200米", "Operator": "其他" }, "geometry": { "type": "Point", "coordinates": [ 116.769153, 40.23861 ] } },
{ "type": "Feature", "properties": { "Name": "中油随时广开源加油站", "Lon_Lat": "116.447608,39.986528", "Longitude": 116.447608, "Latitude": 39.986528, "Gdtype": "汽车服务;加油站;加油站", "Prov": "北京市", "City": "北京市", "Address": "北四环东路六公主坟村望和公园南园西南4门东行50米", "Operator": "其他" }, "geometry": { "type": "Point", "coordinates": [ 116.447608, 39.986528 ] } },
{ "type": "Feature", "properties": { "Name": "中国国际能源万特加油站", "Lon_Lat": "116.269155,39.867693", "Longitude": 116.269155, "Latitude": 39.867693, "Gdtype": "汽车服务;加油站;加油站", "Prov": "北京市", "City": "北京市", "Address": "大井后街甲180号", "Operator": "其他" }, "geometry": { "type": "Point", "coordinates": [ 116.269155, 39.867693 ] } },
{ "type": "Feature", "properties": { "Name": "崔各庄加油站", "Lon_Lat": "116.494813,40.022252", "Longitude": 116.494813, "Latitude": 40.022252, "Gdtype": "汽车服务;加油站;加油站", "Prov": "北京市", "City": "北京市", "Address": "东辛店路与来广营东路交汇处东50米", "Operator": "其他" }, "geometry": { "type": "Point", "coordinates": [ 116.494813, 40.022252 ] } },
{ "type": "Feature", "properties": { "Name": "朝普加油站", "Lon_Lat": "116.530212,39.917588", "Longitude": 116.530212, "Latitude": 39.917588, "Gdtype": "汽车服务;加油站;加油站", "Prov": "北京市", "City": "北京市", "Address": "朝阳路太平庄甲1号", "Operator": "其他" }, "geometry": { "type": "Point", "coordinates": [ 116.530212, 39.917588 ] } },
{ "type": "Feature", "properties": { "Name": "中国能源朝平加油站", "Lon_Lat": "116.527483,39.924125", "Longitude": 116.527483, "Latitude": 39.924125, "Gdtype": "汽车服务;加油站;加油站", "Prov": "北京市", "City": "北京市", "Address": "黄杉木店路与朝阳北路交叉处西北角(富华家园附近)", "Operator": "其他" }, "geometry": { "type": "Point", "coordinates": [ 116.527483, 39.924125 ] } },
{ "type": "Feature", "properties": { "Name": "中国海油协和石油加油站(国安站)", "Lon_Lat": "116.345308,39.753558", "Longitude": 116.345308, "Latitude": 39.753558, "Gdtype": "汽车服务;加油站;加油站", "Prov": "北京市", "City": "北京市", "Address": "福海路19号", "Operator": "其他" }, "geometry": { "type": "Point", "coordinates": [ 116.345308, 39.753558 ] } }
]
}
