{
"type": "FeatureCollection",
"name": "壳牌",
"crs": { "type": "name", "properties": { "name": "urn:ogc:def:crs:OGC:1.3:CRS84" } },
"features": [
{ "type": "Feature", "properties": { "Name": "壳牌加油站", "Lon_Lat": "116.374179,39.993501", "Longitude": 116.374179, "Latitude": 39.993501, "Gdtype": "汽车服务;加油站;加油站", "Prov": "北京市", "City": "北京市", "Address": "志新路4号", "Operator": "壳牌" }, "geometry": { "type": "Point", "coordinates": [ 116.374179, 39.993501 ] } },
{ "type": "Feature", "properties": { "Name": "壳牌加油站(漷县站)", "Lon_Lat": "116.8009,39.7746", "Longitude": 116.8009, "Latitude": 39.7746, "Gdtype": "汽车服务;加油站;壳牌", "Prov": "北京市", "City": "北京市", "Address": "京塘路与漷兴二街交叉口向南100米", "Operator": "壳牌" }, "geometry": { "type": "Point", "coordinates": [ 116.8009, 39.7746 ] } },
{ "type": "Feature", "properties": { "Name": "壳牌加油站(京密路站)", "Lon_Lat": "116.650155,40.232348", "Longitude": 116.650155, "Latitude": 40.232348, "Gdtype": "汽车服务;加油站;壳牌", "Prov": "北京市", "City": "北京市", "Address": "牛栏山第一小学向北600米路东(富密路与京沈路岔道口)", "Operator": "壳牌" }, "geometry": { "type": "Point", "coordinates": [ 116.650155, 40.232348 ] } },
{ "type": "Feature", "properties": { "Name": "壳牌北城加油站", "Lon_Lat": "116.657419,39.929577", "Longitude": 116.657419, "Latitude": 39.929577, "Gdtype": "汽车服务;加油站;壳牌", "Prov": "北京市", "City": "北京市", "Address": null, "Operator": "壳牌" }, "geometry": { "type": "Point", "coordinates": [ 116.657419, 39.929577 ] } },
{ "type": "Feature", "properties": { "Name": "壳牌加油站(槐房路站)", "Lon_Lat": "116.377391,39.811664", "Longitude": 116.377391, "Latitude": 39.811664, "Gdtype": "汽车服务;加油站;壳牌", "Prov": "北京市", "City": "北京市", "Address": "南苑镇槐房路44号(南苑公园北)", "Operator": "壳牌" }, "geometry": { "type": "Point", "coordinates": [ 116.377391, 39.811664 ] } },
{ "type": "Feature", "properties": { "Name": "壳牌加油站(小红门站)", "Lon_Lat": "116.454368,39.817773", "Longitude": 116.454368, "Latitude": 39.817773, "Gdtype": "汽车服务;加油站;壳牌", "Prov": "北京市", "City": "北京市", "Address": "小红门路11号", "Operator": "壳牌" }, "geometry": { "type": "Point", "coordinates": [ 116.454368, 39.817773 ] } },
{ "type": "Feature", "properties": { "Name": "壳牌房易路加油站", "Lon_Lat": "115.918435,39.625563", "Longitude": 115.918435, "Latitude": 39.625563, "Gdtype": "汽车服务;加油站;壳牌", "Prov": "北京市", "City": "北京市", "Address": "房易路西桥向南200米路西", "Operator": "壳牌" }, "geometry": { "type": "Point", "coordinates": [ 115.918435, 39.625563 ] } },
{ "type": "Feature", "properties": { "Name": "壳牌加油站(大郊亭站)", "Lon_Lat": "116.499054,39.893564", "Longitude": 116.499054, "Latitude": 39.893564, "Gdtype": "汽车服务;加油站;壳牌", "Prov": "北京市", "City": "北京市", "Address": "石门村路与广渠路交叉口东北角", "Operator": "壳牌" }, "geometry": { "type": "Point", "coordinates": [ 116.499054, 39.893564 ] } },
{ "type": "Feature", "properties": { "Name": "壳牌北城加油站", "Lon_Lat": "116.657360,39.929638", "Longitude": 116.65736, "Latitude": 39.929638, "Gdtype": "汽车服务;加油站;壳牌", "Prov": "北京市", "City": "北京市", "Address": [ ], "Operator": "壳牌" }, "geometry": { "type": "Point", "coordinates": [ 116.65736, 39.929638 ] } },
{ "type": "Feature", "properties": { "Name": "壳牌加油站(临河里站)", "Lon_Lat": "116.677335,39.876302", "Longitude": 116.677335, "Latitude": 39.876302, "Gdtype": "汽车服务;加油站;壳牌", "Prov": "北京市", "City": "北京市", "Address": "临河里北侧京津公路103国道", "Operator": "壳牌" }, "geometry": { "type": "Point", "coordinates": [ 116.677335, 39.876302 ] } },
{ "type": "Feature", "properties": { "Name": "壳牌加油站(杨镇站)", "Lon_Lat": "116.849369,40.153118", "Longitude": 116.849369, "Latitude": 40.153118, "Gdtype": "汽车服务;加油站;壳牌", "Prov": "北京市", "City": "北京市", "Address": "杨镇杜庄村西200米路北", "Operator": "壳牌" }, "geometry": { "type": "Point", "coordinates": [ 116.849369, 40.153118 ] } },
{ "type": "Feature", "properties": { "Name": "壳牌加油站(小营站)", "Lon_Lat": "116.33488,40.035953", "Longitude": 116.33488, "Latitude": 40.035953, "Gdtype": "汽车服务;加油站;壳牌", "Prov": "北京市", "City": "北京市", "Address": "京昌高速辅路小营桥向西(毛坊城市场附近)", "Operator": "壳牌" }, "geometry": { "type": "Point", "coordinates": [ 116.33488, 40.035953 ] } },
{ "type": "Feature", "properties": { "Name": "壳牌国华加油站", "Lon_Lat": "116.281071,40.113823", "Longitude": 116.281071, "Latitude": 40.113823, "Gdtype": "汽车服务;加油站;壳牌", "Prov": "北京市", "City": "北京市", "Address": "216省道定福皇庄74号", "Operator": "壳牌" }, "geometry": { "type": "Point", "coordinates": [ 116.281071, 40.113823 ] } },
{ "type": "Feature", "properties": { "Name": "壳牌加油站(十三里站)", "Lon_Lat": "116.100305,39.676734", "Longitude": 116.100305, "Latitude": 39.676734, "Gdtype": "汽车服务;加油站;壳牌", "Prov": "北京市", "City": "北京市", "Address": "107国道京深路与紫码路交汇处南侧路西", "Operator": "壳牌" }, "geometry": { "type": "Point", "coordinates": [ 116.100305, 39.676734 ] } },
{ "type": "Feature", "properties": { "Name": "壳牌加油站", "Lon_Lat": "116.28446,39.8369", "Longitude": 116.28446, "Latitude": 39.8369, "Gdtype": "汽车服务;加油站;壳牌", "Prov": "北京市", "City": "北京市", "Address": "富丰园340总站内", "Operator": "壳牌" }, "geometry": { "type": "Point", "coordinates": [ 116.28446, 39.8369 ] } },
{ "type": "Feature", "properties": { "Name": "壳牌闫东路加油站", "Lon_Lat": "115.994895,39.791879", "Longitude": 115.994895, "Latitude": 39.791879, "Gdtype": "汽车服务;加油站;壳牌", "Prov": "北京市", "City": "北京市", "Address": "河北镇万佛堂村", "Operator": "壳牌" }, "geometry": { "type": "Point", "coordinates": [ 115.994895, 39.791879 ] } },
{ "type": "Feature", "properties": { "Name": "壳牌加油站(观唐站)", "Lon_Lat": "116.526603,40.034461", "Longitude": 116.526603, "Latitude": 40.034461, "Gdtype": "汽车服务;加油站;加油站", "Prov": "北京市", "City": "北京市", "Address": "香江北路甲2号", "Operator": "壳牌" }, "geometry": { "type": "Point", "coordinates": [ 116.526603, 40.034461 ] } },
{ "type": "Feature", "properties": { "Name": "壳牌陇兴嘉能加油站", "Lon_Lat": "116.301911,39.781301", "Longitude": 116.301911, "Latitude": 39.781301, "Gdtype": "汽车服务;加油站;壳牌", "Prov": "北京市", "City": "北京市", "Address": "羊坊村西京良公路南侧十号", "Operator": "壳牌" }, "geometry": { "type": "Point", "coordinates": [ 116.301911, 39.781301 ] } },
{ "type": "Feature", "properties": { "Name": "壳牌加油站(青云店站)", "Lon_Lat": "116.438307,39.721826", "Longitude": 116.438307, "Latitude": 39.721826, "Gdtype": "汽车服务;加油站;壳牌", "Prov": "北京市", "City": "北京市", "Address": "赵大路8号", "Operator": "壳牌" }, "geometry": { "type": "Point", "coordinates": [ 116.438307, 39.721826 ] } },
{ "type": "Feature", "properties": { "Name": "壳牌十八里店加油站", "Lon_Lat": "116.47749,39.855053", "Longitude": 116.47749, "Latitude": 39.855053, "Gdtype": "汽车服务;加油站;壳牌", "Prov": "北京市", "City": "北京市", "Address": "大羊坊路108号", "Operator": "壳牌" }, "geometry": { "type": "Point", "coordinates": [ 116.47749, 39.855053 ] } },
{ "type": "Feature", "properties": { "Name": "壳牌加油站(后苑站)", "Lon_Lat": "116.415022,39.650387", "Longitude": 116.415022, "Latitude": 39.650387, "Gdtype": "汽车服务;加油站;壳牌", "Prov": "北京市", "City": "北京市", "Address": "南中轴路与后顺路交叉口南250米路西", "Operator": "壳牌" }, "geometry": { "type": "Point", "coordinates": [ 116.415022, 39.650387 ] } },
{ "type": "Feature", "properties": { "Name": "陶然桥加油站", "Lon_Lat": "116.383535,39.87181", "Longitude": 116.383535, "Latitude": 39.87181, "Gdtype": "汽车服务;加油站;壳牌", "Prov": "北京市", "City": "北京市", "Address": "右安门门内东街13号", "Operator": "壳牌" }, "geometry": { "type": "Point", "coordinates": [ 116.383535, 39.87181 ] } },
{ "type": "Feature", "properties": { "Name": "壳牌北宫门加油站", "Lon_Lat": "116.272929,40.004568", "Longitude": 116.272929, "Latitude": 40.004568, "Gdtype": "汽车服务;加油站;壳牌", "Prov": "北京市", "City": "北京市", "Address": "香山路2号", "Operator": "壳牌" }, "geometry": { "type": "Point", "coordinates": [ 116.272929, 40.004568 ] } },
{ "type": "Feature", "properties": { "Name": "壳牌加油站(管庄站)", "Lon_Lat": "116.586995,39.910217", "Longitude": 116.586995, "Latitude": 39.910217, "Gdtype": "汽车服务;加油站;壳牌", "Prov": "北京市", "City": "北京市", "Address": "京通快速路辅路双会桥西1000米(世通国际大厦下)", "Operator": "壳牌" }, "geometry": { "type": "Point", "coordinates": [ 116.586995, 39.910217 ] } },
{ "type": "Feature", "properties": { "Name": "壳牌加油站(北小营站)", "Lon_Lat": "116.723715,40.190978", "Longitude": 116.723715, "Latitude": 40.190978, "Gdtype": "汽车服务;加油站;壳牌", "Prov": "北京市", "City": "北京市", "Address": "顺密路西侧(潮东汽修附近)", "Operator": "壳牌" }, "geometry": { "type": "Point", "coordinates": [ 116.723715, 40.190978 ] } },
{ "type": "Feature", "properties": { "Name": "壳牌加油站(西红门站)(暂停营业)", "Lon_Lat": "116.348942,39.793475", "Longitude": 116.348942, "Latitude": 39.793475, "Gdtype": "汽车服务;加油站;壳牌", "Prov": "北京市", "City": "北京市", "Address": "京开高速福星花园北", "Operator": "壳牌" }, "geometry": { "type": "Point", "coordinates": [ 116.348942, 39.793475 ] } },
{ "type": "Feature", "properties": { "Name": "壳牌北城加油站", "Lon_Lat": "116.657406,39.929572", "Longitude": 116.657406, "Latitude": 39.929572, "Gdtype": "汽车服务;加油站;壳牌", "Prov": "北京市", "City": "北京市", "Address": "温榆河东路与通顺路交叉口西南", "Operator": "壳牌" }, "geometry": { "type": "Point", "coordinates": [ 116.657406, 39.929572 ] } },
{ "type": "Feature", "properties": { "Name": "壳牌北皋壳牌加油站", "Lon_Lat": "116.512128,40.011780", "Longitude": 116.512128, "Latitude": 40.01178, "Gdtype": "汽车服务;加油站;壳牌", "Prov": "北京市", "City": "北京市", "Address": [ ], "Operator": "壳牌" }, "geometry": { "type": "Point", "coordinates": [ 116.512128, 40.01178 ] } },
{ "type": "Feature", "properties": { "Name": "壳牌正强加油站", "Lon_Lat": "116.154463,39.747884", "Longitude": 116.154463, "Latitude": 39.747884, "Gdtype": "汽车服务;加油站;壳牌", "Prov": "北京市", "City": "北京市", "Address": "拱辰街道明源里1号", "Operator": "壳牌" }, "geometry": { "type": "Point", "coordinates": [ 116.154463, 39.747884 ] } },
{ "type": "Feature", "properties": { "Name": "壳牌广外加油站", "Lon_Lat": "116.335877,39.889312", "Longitude": 116.335877, "Latitude": 39.889312, "Gdtype": "汽车服务;加油站;壳牌", "Prov": "北京市", "City": "北京市", "Address": "广安门外大街242号(华联超市西侧)", "Operator": "壳牌" }, "geometry": { "type": "Point", "coordinates": [ 116.335877, 39.889312 ] } },
{ "type": "Feature", "properties": { "Name": "壳牌东苇路加油站", "Lon_Lat": "116.571497,39.978751", "Longitude": 116.571497, "Latitude": 39.978751, "Gdtype": "汽车服务;加油站;壳牌", "Prov": "北京市", "City": "北京市", "Address": "楼梓庄路与东苇路交叉口北路东", "Operator": "壳牌" }, "geometry": { "type": "Point", "coordinates": [ 116.571497, 39.978751 ] } },
{ "type": "Feature", "properties": { "Name": "壳牌加油站(车站路站)", "Lon_Lat": "116.857663,40.397559", "Longitude": 116.857663, "Latitude": 40.397559, "Gdtype": "汽车服务;加油站;壳牌", "Prov": "北京市", "City": "北京市", "Address": "站西路10号", "Operator": "壳牌" }, "geometry": { "type": "Point", "coordinates": [ 116.857663, 40.397559 ] } },
{ "type": "Feature", "properties": { "Name": "壳牌加油站", "Lon_Lat": "116.477038,39.898811", "Longitude": 116.477038, "Latitude": 39.898811, "Gdtype": "汽车服务;加油站;壳牌", "Prov": "北京市", "City": "北京市", "Address": "西大望路20号", "Operator": "壳牌" }, "geometry": { "type": "Point", "coordinates": [ 116.477038, 39.898811 ] } },
{ "type": "Feature", "properties": { "Name": "壳牌加油站(东辛店站)", "Lon_Lat": "116.511664,40.011699", "Longitude": 116.511664, "Latitude": 40.011699, "Gdtype": "汽车服务;加油站;壳牌", "Prov": "北京市", "City": "北京市", "Address": "京顺路北皋红绿灯路口西南角", "Operator": "壳牌" }, "geometry": { "type": "Point", "coordinates": [ 116.511664, 40.011699 ] } },
{ "type": "Feature", "properties": { "Name": "壳牌加油站", "Lon_Lat": "116.247685,40.002642", "Longitude": 116.247685, "Latitude": 40.002642, "Gdtype": "汽车服务;加油站;壳牌", "Prov": "北京市", "City": "北京市", "Address": "香山路280号", "Operator": "壳牌" }, "geometry": { "type": "Point", "coordinates": [ 116.247685, 40.002642 ] } },
{ "type": "Feature", "properties": { "Name": "壳牌北邮加油站", "Lon_Lat": "116.4017,39.886944", "Longitude": 116.4017, "Latitude": 39.886944, "Gdtype": "汽车服务;加油站;壳牌", "Prov": "北京市", "City": "北京市", "Address": "天坛路12号天坛北门往西500米(东市场东街)", "Operator": "壳牌" }, "geometry": { "type": "Point", "coordinates": [ 116.4017, 39.886944 ] } },
{ "type": "Feature", "properties": { "Name": "壳牌加油站", "Lon_Lat": "116.318053,40.049588", "Longitude": 116.318053, "Latitude": 40.049588, "Gdtype": "汽车服务;加油站;壳牌", "Prov": "北京市", "City": "北京市", "Address": "西二旗中路29号", "Operator": "壳牌" }, "geometry": { "type": "Point", "coordinates": [ 116.318053, 40.049588 ] } },
{ "type": "Feature", "properties": { "Name": "壳牌溪翁庄加油站", "Lon_Lat": "116.847502,40.410453", "Longitude": 116.847502, "Latitude": 40.410453, "Gdtype": "汽车服务;加油站;壳牌", "Prov": "北京市", "City": "北京市", "Address": "溪翁庄镇东智路口(白河公园北侧)", "Operator": "壳牌" }, "geometry": { "type": "Point", "coordinates": [ 116.847502, 40.410453 ] } }
]
}
